{"exhaustiveNbHits":false,"hits":[{"_geoloc":{"lat":46.2027539,"lng":6.1578378},"city_name":"Genève","country_name":"Switzerland","cuisine_type":"Japanese","michelin_award":"MICHELIN_PLATE","name":"Kakinuma","street":"3 r. Henri-Blanvalet"},{"_geoloc":{"lat":46.9136165,"lng":7.9339973},"city_name":"Escholzmatt","country_name":"Switzerland","cuisine_type":"Creative","michelin_award":"ONE_STAR","name":"Rössli - Jägerstübli","street":"Hauptstrasse 111"},{"_geoloc":{"lat":47.1026592,"lng":7.2202891},"city_name":"Sutz-Lattrigen","country_name":"Switzerland","cuisine_type":"Traditional cuisine","michelin_award":"MICHELIN_PLATE","name":"Anker","street":"Hauptstrasse 4"},{"_geoloc":{"lat":47.4883006,"lng":7.4980391},"city_name":"Flüh","country_name":"Switzerland","cuisine_type":"Classic French","michelin_award":"ONE_STAR","name":"Wirtshaus Zur Säge","street":"Steinrain 5"},{"_geoloc":{"lat":46.2392568,"lng":6.9513163},"city_name":"Choëx / Monthey","country_name":"Switzerland","cuisine_type":"Classic French","michelin_award":"ONE_STAR","name":"Café Berra","street":"Place de l'École 1"},{"_geoloc":{"lat":46.1871342,"lng":8.7536537},"city_name":"Ponte Brolla","country_name":"Switzerland","cuisine_type":"Mediterranean","michelin_award":"BIB_GOURMAND","name":"T3e Terre","street":"via Vecchia Stazione 2"},{"_geoloc":{"lat":47.1422269,"lng":8.4562261},"city_name":"Buonas","country_name":"Switzerland","cuisine_type":"Classic French","michelin_award":"MICHELIN_PLATE","name":"Wildenmann","street":"St. Germanstrasse 1"},{"_geoloc":{"lat":47.57006,"lng":7.5829306},"city_name":"Basel","country_name":"Switzerland","cuisine_type":"Modern cuisine","michelin_award":"ONE_STAR","name":"roots","street":"Mühlhauserstrasse 17"},{"_geoloc":{"lat":46.52804,"lng":6.61617},"city_name":"Lausanne","country_name":"Switzerland","cuisine_type":"Italian","michelin_award":"MICHELIN_PLATE","name":"Ristorante St Paul","street":"Avenue d'Echallens 72"},{"_geoloc":{"lat":47.48272,"lng":8.439025},"city_name":"Regensberg","country_name":"Switzerland","cuisine_type":"Modern cuisine","michelin_award":"MICHELIN_PLATE","name":"Krone","street":"Oberburg 1"},{"_geoloc":{"lat":46.021696,"lng":7.7484128},"city_name":"Zermatt","country_name":"Switzerland","cuisine_type":"Italian","michelin_award":"ONE_STAR","name":"Capri","street":"Hofmattstrasse 12"},{"_geoloc":{"lat":47.0575052,"lng":8.3102164},"city_name":"Luzern","country_name":"Switzerland","cuisine_type":"Country","michelin_award":"MICHELIN_PLATE","name":"Stiefels Hopfenkranz","street":"Zürichstrasse 34"},{"_geoloc":{"lat":47.39432,"lng":8.042945},"city_name":"Aarau","country_name":"Switzerland","cuisine_type":"Market cuisine","michelin_award":"BIB_GOURMAND","name":"Kettenbrücke","street":"Zollrain 16"},{"_geoloc":{"lat":46.2388812,"lng":9.105142},"city_name":"San Vittore","country_name":"Switzerland","cuisine_type":"Regional cuisine","michelin_award":"BIB_GOURMAND","name":"Osteria Fagetti","street":"Via San Luzi 1"},{"_geoloc":{"lat":46.1690711,"lng":8.794555},"city_name":"Locarno","country_name":"Switzerland","cuisine_type":"Mediterranean","michelin_award":"MICHELIN_PLATE","name":"Locanda Locarnese","street":"Via Bossi 1"},{"_geoloc":{"lat":46.5195801,"lng":6.6314862},"city_name":"Lausanne","country_name":"Switzerland","cuisine_type":"Mediterranean","michelin_award":"ONE_STAR","name":"La Table d'Edgard","street":"Rue Grand-Chêne 7"},{"_geoloc":{"lat":46.2179625,"lng":7.2620041},"city_name":"Vétroz","country_name":"Switzerland","cuisine_type":"French","michelin_award":"ONE_STAR","name":"La Régence-Balavaud","street":"Route Cantonale 267"},{"_geoloc":{"lat":46.9493753,"lng":7.4577325},"city_name":"Bern","country_name":"Switzerland","cuisine_type":"Mediterranean","michelin_award":"MICHELIN_PLATE","name":"Casa Novo","street":"Läuferplatz 6"},{"_geoloc":{"lat":47.0565247,"lng":8.3197281},"city_name":"Luzern","country_name":"Switzerland","cuisine_type":"Mediterranean","michelin_award":"MICHELIN_PLATE","name":"Scala","street":"Adligenswilerstrasse 22"},{"_geoloc":{"lat":47.3060426,"lng":8.5501277},"city_name":"Rüschlikon","country_name":"Switzerland","cuisine_type":"International","michelin_award":"MICHELIN_PLATE","name":"Belvoir","street":"Säumerstrasse 37"},{"_geoloc":{"lat":46.1504192,"lng":8.7905612},"city_name":"Ascona","country_name":"Switzerland","cuisine_type":"Creative","michelin_award":"TWO_STARS","name":"Ecco","street":"via del Segnale 10"},{"_geoloc":{"lat":47.4056588,"lng":8.4006619},"city_name":"Dietikon","country_name":"Switzerland","cuisine_type":"International","michelin_award":"MICHELIN_PLATE","name":"Taverne zur Krone","street":"Kronenplatz 1"},{"_geoloc":{"lat":47.5260765,"lng":8.2149562},"city_name":"Villigen","country_name":"Switzerland","cuisine_type":"Traditional cuisine","michelin_award":"MICHELIN_PLATE","name":"Zum Hirschen","street":"Hauptstrasse 42"},{"_geoloc":{"lat":47.6076276,"lng":9.2572469},"city_name":"Altnau","country_name":"Switzerland","cuisine_type":"Classic French","michelin_award":"MICHELIN_PLATE","name":"Urs Wilhelm's Restaurant","street":"Kaffeegasse 1"},{"_geoloc":{"lat":46.9483505,"lng":7.4412253},"city_name":"Bern","country_name":"Switzerland","cuisine_type":"International","michelin_award":"MICHELIN_PLATE","name":"milles sens - les goûts du monde","street":"Spitalgasse 38"},{"_geoloc":{"lat":47.513068,"lng":8.5368265},"city_name":"Bülach","country_name":"Switzerland","cuisine_type":"Thai","michelin_award":"BIB_GOURMAND","name":"Meiers come inn","street":"Kaffeestrasse 6c"},{"_geoloc":{"lat":47.3089286,"lng":8.5553697},"city_name":"Rüschlikon","country_name":"Switzerland","cuisine_type":"Modern French","michelin_award":"ONE_STAR","name":"Die Rose","street":"Dorfstrasse 42"},{"_geoloc":{"lat":46.61554,"lng":7.05528},"city_name":"Bulle","country_name":"Switzerland","cuisine_type":"Traditional cuisine","michelin_award":"MICHELIN_PLATE","name":"L'Ecu","street":"Rue Saint-Denis 5"},{"_geoloc":{"lat":46.207436,"lng":6.1467657},"city_name":"Genève","country_name":"Switzerland","cuisine_type":"French","michelin_award":"MICHELIN_PLATE","name":"Côté Square","street":"Rue du Mont-Blanc 10"},{"_geoloc":{"lat":46.3179733,"lng":6.9695101},"city_name":"Aigle","country_name":"Switzerland","cuisine_type":"Classic cuisine","michelin_award":"BIB_GOURMAND","name":"La Pinte Communale","street":"Place du Marché 4"},{"_geoloc":{"lat":46.5184602,"lng":6.416286},"city_name":"Yens","country_name":"Switzerland","cuisine_type":"Classic French","michelin_award":"MICHELIN_PLATE","name":"Auberge de la Croix d'Or","street":"Grande-Rue 18"},{"_geoloc":{"lat":47.4620914,"lng":9.5815808},"city_name":"Rheineck","country_name":"Switzerland","cuisine_type":"Market cuisine","michelin_award":"BIB_GOURMAND","name":"Landhaus","street":"Appenzellerstrasse 73"},{"_geoloc":{"lat":47.489765,"lng":9.371721},"city_name":"Lömmenschwil","country_name":"Switzerland","cuisine_type":"Market cuisine","michelin_award":"BIB_GOURMAND","name":"Ruggisberg","street":"Ruggisberg 416"},{"_geoloc":{"lat":46.5887963,"lng":7.6474038},"city_name":"Frutigen","country_name":"Switzerland","cuisine_type":"Fusion","michelin_award":"BIB_GOURMAND","name":"Philipp Blaser","street":"Obere Bahnhofstrasse 10"},{"_geoloc":{"lat":47.2838215,"lng":8.2258012},"city_name":"Meisterschwanden","country_name":"Switzerland","cuisine_type":"Country","michelin_award":"MICHELIN_PLATE","name":"Seerose","street":"Seerosenstrasse 1"},{"_geoloc":{"lat":47.4611953,"lng":7.9980311},"city_name":"Wölflinswil","country_name":"Switzerland","cuisine_type":"Market cuisine","michelin_award":"BIB_GOURMAND","name":"Landgasthof Ochsen","street":"Dorfplatz 56"},{"_geoloc":{"lat":47.0997359,"lng":8.5130206},"city_name":"Walchwil","country_name":"Switzerland","cuisine_type":"Market cuisine","michelin_award":"MICHELIN_PLATE","name":"Sternen","street":"Dorfstrasse 1"},{"_geoloc":{"lat":46.4934789,"lng":9.9019021},"city_name":"Pontresina","country_name":"Switzerland","cuisine_type":"Classic French","michelin_award":"MICHELIN_PLATE","name":"Kronenstübli","street":"Via Maistra 130"},{"_geoloc":{"lat":46.9385586,"lng":7.4282202},"city_name":"Bern","country_name":"Switzerland","cuisine_type":"Swiss","michelin_award":"MICHELIN_PLATE","name":"Süder","street":"Weissensteinstrasse 61"},{"_geoloc":{"lat":46.25412,"lng":6.94882},"city_name":"Monthey","country_name":"Switzerland","cuisine_type":"Creative","michelin_award":"MICHELIN_PLATE","name":"Du Théâtre","street":"Avenue du Théâtre 7"},{"_geoloc":{"lat":46.7745924,"lng":9.6646949},"city_name":"Arosa","country_name":"Switzerland","cuisine_type":"Thai","michelin_award":"MICHELIN_PLATE","name":"Ahaan Thai","street":"Innere Poststrasse 269"},{"_geoloc":{"lat":46.0202774,"lng":7.7456516},"city_name":"Zermatt","country_name":"Switzerland","cuisine_type":"Modern cuisine","michelin_award":"ONE_STAR","name":"The Omnia","street":"Auf dem Fels"},{"_geoloc":{"lat":47.2667492,"lng":7.7748773},"city_name":"Schwarzhäusern","country_name":"Switzerland","cuisine_type":"International","michelin_award":"MICHELIN_PLATE","name":"Grossweier","street":"Grossweier 12"},{"_geoloc":{"lat":47.5514864,"lng":8.5655878},"city_name":"Freienstein-Teufen","country_name":"Switzerland","cuisine_type":"Classic cuisine","michelin_award":"BIB_GOURMAND","name":"Wirtshus zum Wyberg Gourmet-Stübli","street":"Oberteufenerstrasse 1"},{"_geoloc":{"lat":46.9483094,"lng":7.4537783},"city_name":"Bern","country_name":"Switzerland","cuisine_type":"Creative","michelin_award":"MICHELIN_PLATE","name":"moment","street":"Gerechtigkeitsgasse 56"},{"_geoloc":{"lat":47.0483709,"lng":8.4641542},"city_name":"Rigi Kaltbad","country_name":"Switzerland","cuisine_type":"Creative","michelin_award":"ONE_STAR","name":"Regina Montium","street":"Staffelhöhenweg 61"},{"_geoloc":{"lat":47.2164574,"lng":7.7881384},"city_name":"Langenthal","country_name":"Switzerland","cuisine_type":"International","michelin_award":"MICHELIN_PLATE","name":"L'Auberge","street":"Murgenthalstrasse 5"},{"_geoloc":{"lat":46.8003596,"lng":7.1761782},"city_name":"Bourguillon","country_name":"Switzerland","cuisine_type":"French","michelin_award":"ONE_STAR","name":"Des Trois Tours","street":"Route de Bourguillon 15"},{"_geoloc":{"lat":47.3675657,"lng":8.5455505},"city_name":"Zürich","country_name":"Switzerland","cuisine_type":"Traditional cuisine","michelin_award":"MICHELIN_PLATE","name":"Kronenhalle","street":"Rämistrasse 4"},{"_geoloc":{"lat":46.21335,"lng":6.145477},"city_name":"Genève","country_name":"Switzerland","cuisine_type":"Modern French","michelin_award":"ONE_STAR","name":"L'Aparté","street":"Rue de Lausanne 41"},{"_geoloc":{"lat":47.4942875,"lng":9.3530044},"city_name":"Lömmenschwil","country_name":"Switzerland","cuisine_type":"Country","michelin_award":"ONE_STAR","name":"Neue Blumenau","street":"Romanshornerstrasse 2"},{"_geoloc":{"lat":46.1541093,"lng":8.76857},"city_name":"Ascona","country_name":"Switzerland","cuisine_type":"Asian","michelin_award":"BIB_GOURMAND","name":"Asia","street":"Piazza G. Motta 25"},{"_geoloc":{"lat":46.3924743,"lng":8.1347213},"city_name":"Ernen","country_name":"Switzerland","cuisine_type":"International","michelin_award":"MICHELIN_PLATE","name":"Gommerstuba","street":"Niederärne 25"},{"_geoloc":{"lat":46.2931447,"lng":7.5325274},"city_name":"Sierre","country_name":"Switzerland","cuisine_type":"Modern French","michelin_award":"TWO_STARS","name":"Didier de Courten","street":"Rue du Bourg 1"},{"_geoloc":{"lat":47.0516088,"lng":8.3045344},"city_name":"Luzern","country_name":"Switzerland","cuisine_type":"Classic cuisine","michelin_award":"MICHELIN_PLATE","name":"Des Balances","street":"Weinmarkt"},{"_geoloc":{"lat":47.429436,"lng":9.3796912},"city_name":"Sankt Gallen","country_name":"Switzerland","cuisine_type":"International","michelin_award":"BIB_GOURMAND","name":"Candela","street":"Sonnenstrasse 5"},{"_geoloc":{"lat":46.99684,"lng":8.380499},"city_name":"Obbürgen","country_name":"Switzerland","cuisine_type":"French","michelin_award":"ONE_STAR","name":"RitzCoffier","street":"Bürgenstock 17"},{"_geoloc":{"lat":47.0154525,"lng":9.5096937},"city_name":"Fläsch","country_name":"Switzerland","cuisine_type":"Country","michelin_award":"MICHELIN_PLATE","name":"Mühle","street":"Mühle 99"},{"_geoloc":{"lat":46.4933,"lng":6.73656},"city_name":"Riex","country_name":"Switzerland","cuisine_type":"Traditional cuisine","michelin_award":"MICHELIN_PLATE","name":"Café de Riex","street":"Route de la Corniche 24"},{"_geoloc":{"lat":47.2684531,"lng":8.818702},"city_name":"Bubikon","country_name":"Switzerland","cuisine_type":"Market cuisine","michelin_award":"BIB_GOURMAND","name":"Löwen - Gaststube","street":"Wolfhauserstrasse 2"},{"_geoloc":{"lat":46.2091244,"lng":6.1499014},"city_name":"Genève","country_name":"Switzerland","cuisine_type":"Modern French","michelin_award":"ONE_STAR","name":"Le Chat-Botté","street":"Quai du Mont-Blanc 13"},{"_geoloc":{"lat":47.2838782,"lng":8.2258559},"city_name":"Meisterschwanden","country_name":"Switzerland","cuisine_type":"Asian","michelin_award":"MICHELIN_PLATE","name":"Cocon","street":"Seerosenstrasse 1"},{"_geoloc":{"lat":46.98974,"lng":6.91091},"city_name":"Neuchâtel","country_name":"Switzerland","cuisine_type":"Creative","michelin_award":"MICHELIN_PLATE","name":"La Maison du Prussien","street":"Rue des Tunnels 11"},{"_geoloc":{"lat":47.3661606,"lng":9.4606828},"city_name":"Gais","country_name":"Switzerland","cuisine_type":"Country","michelin_award":"ONE_STAR","name":"Truube","street":"Rotenwies 9"},{"_geoloc":{"lat":45.99274,"lng":8.93955},"city_name":"Lugano","country_name":"Switzerland","cuisine_type":"Mediterranean","michelin_award":"MICHELIN_PLATE","name":"Principe Leopoldo","street":"via Montalbano 5"},{"_geoloc":{"lat":46.5081026,"lng":6.6297616},"city_name":"Lausanne","country_name":"Switzerland","cuisine_type":"Creative","michelin_award":"TWO_STARS","name":"Anne-Sophie Pic","street":"Place du Port 17"},{"_geoloc":{"lat":47.430792,"lng":9.3833953},"city_name":"Sankt Gallen","country_name":"Switzerland","cuisine_type":"Modern cuisine","michelin_award":"ONE_STAR","name":"Jägerhof","street":"Brühlbleichestrasse 11"},{"_geoloc":{"lat":47.5957416,"lng":9.0325819},"city_name":"Wigoltingen","country_name":"Switzerland","cuisine_type":"Classic French","michelin_award":"TWO_STARS","name":"Taverne zum Schäfli","street":"Oberdorfstrasse 8"},{"_geoloc":{"lat":46.4989712,"lng":9.8395815},"city_name":"Sankt Moritz","country_name":"Switzerland","cuisine_type":"Country","michelin_award":"BIB_GOURMAND","name":"Dal Mulin","street":"Plazza dal Mulin 4"},{"_geoloc":{"lat":47.040417,"lng":8.225704},"city_name":"Blatten","country_name":"Switzerland","cuisine_type":"Traditional cuisine","michelin_award":"BIB_GOURMAND","name":"Gaststube","street":"Kantonsstrasse"},{"_geoloc":{"lat":46.95807,"lng":8.36525},"city_name":"Stans","country_name":"Switzerland","cuisine_type":"Country","michelin_award":"MICHELIN_PLATE","name":"Wirtschaft zur Rosenburg","street":"Alter Postplatz 3"},{"_geoloc":{"lat":46.4539669,"lng":7.436083},"city_name":"Lenk im Simmental","country_name":"Switzerland","cuisine_type":"Modern cuisine","michelin_award":"MICHELIN_PLATE","name":"Spettacolo","street":"Badstrasse 20"},{"_geoloc":{"lat":47.3508005,"lng":7.8992712},"city_name":"Olten","country_name":"Switzerland","cuisine_type":"Classic cuisine","michelin_award":"BIB_GOURMAND","name":"Salmen","street":"Ringstrasse 39"},{"_geoloc":{"lat":46.0060638,"lng":7.7321852},"city_name":"Zermatt","country_name":"Switzerland","cuisine_type":"International","michelin_award":"MICHELIN_PLATE","name":"Zum See","street":"Zum See 24"},{"_geoloc":{"lat":46.50074,"lng":8.28912},"city_name":"Geschinen am See","country_name":"Switzerland","cuisine_type":"Grills","michelin_award":"MICHELIN_PLATE","name":"Baschi","street":"Wyler 1"},{"_geoloc":{"lat":47.328551,"lng":9.3467592},"city_name":"Gonten","country_name":"Switzerland","cuisine_type":"Classic cuisine","michelin_award":"MICHELIN_PLATE","name":"Bären","street":"Dorfstrasse 40"},{"_geoloc":{"lat":46.80464,"lng":7.1532},"city_name":"Fribourg","country_name":"Switzerland","cuisine_type":"Modern cuisine","michelin_award":"MICHELIN_PLATE","name":"La Cène","street":"Rue du Criblet 6"},{"_geoloc":{"lat":47.376217,"lng":8.5401828},"city_name":"Zürich","country_name":"Switzerland","cuisine_type":"Japanese","michelin_award":"MICHELIN_PLATE","name":"Sala of Tokyo","street":"Schützengasse 5"},{"_geoloc":{"lat":46.7212336,"lng":9.4461607},"city_name":"Fürstenau","country_name":"Switzerland","cuisine_type":"Creative","michelin_award":"THREE_STARS","name":"Schloss Schauenstein","street":"Schlossgass 77"},{"_geoloc":{"lat":46.48199,"lng":7.57363},"city_name":"Adelboden","country_name":"Switzerland","cuisine_type":"Modern cuisine","michelin_award":"MICHELIN_PLATE","name":"Hohliebe-Stübli","street":"Hohliebeweg 17"},{"_geoloc":{"lat":46.73803,"lng":7.657423},"city_name":"Hilterfingen","country_name":"Switzerland","cuisine_type":"Country","michelin_award":"MICHELIN_PLATE","name":"Schönbühl","street":"Dorfstrasse 47"},{"_geoloc":{"lat":46.6897602,"lng":7.6818423},"city_name":"Spiez","country_name":"Switzerland","cuisine_type":"Country","michelin_award":"MICHELIN_PLATE","name":"Eden - Belle Époque","street":"Seestrasse 58"},{"_geoloc":{"lat":47.3630688,"lng":7.8953583},"city_name":"Trimbach","country_name":"Switzerland","cuisine_type":"Classic French","michelin_award":"ONE_STAR","name":"Traube","street":"Baslerstrasse 211"},{"_geoloc":{"lat":47.1674558,"lng":7.7964426},"city_name":"Madiswil","country_name":"Switzerland","cuisine_type":"Classic French","michelin_award":"MICHELIN_PLATE","name":"Landgasthof Bären","street":"Kirchgässli 1"},{"_geoloc":{"lat":46.5785664,"lng":9.9262072},"city_name":"La Punt-Chamues-ch","country_name":"Switzerland","cuisine_type":"Country","michelin_award":"BIB_GOURMAND","name":"Gasthaus Krone","street":"Via Cumünela 2"},{"_geoloc":{"lat":46.40076,"lng":6.17512},"city_name":"Chéserex","country_name":"Switzerland","cuisine_type":"Classic French","michelin_award":"MICHELIN_PLATE","name":"Auberge Les Platanes","street":"Rue du Vieux Collège 2"},{"_geoloc":{"lat":47.3474672,"lng":8.1589659},"city_name":"Seon","country_name":"Switzerland","cuisine_type":"Classic cuisine","michelin_award":"MICHELIN_PLATE","name":"Bänziger","street":"Seetalstrasse 43"},{"_geoloc":{"lat":46.975389,"lng":6.8787352},"city_name":"Auvernier","country_name":"Switzerland","cuisine_type":"Seafood","michelin_award":"BIB_GOURMAND","name":"Brasserie du Poisson","street":"Rue des Epancheurs 1"},{"_geoloc":{"lat":47.1685757,"lng":8.5147907},"city_name":"Zug","country_name":"Switzerland","cuisine_type":"Austrian","michelin_award":"BIB_GOURMAND","name":"Zum Kaiser Franz im Rössl","street":"Vorstadt 8"},{"_geoloc":{"lat":46.64495,"lng":7.72471},"city_name":"Aeschiried","country_name":"Switzerland","cuisine_type":"Traditional cuisine","michelin_award":"MICHELIN_PLATE","name":"Panorama","street":"Aeschiriedstrasse 36"},{"_geoloc":{"lat":47.371329,"lng":8.5417722},"city_name":"Zürich","country_name":"Switzerland","cuisine_type":"Classic French","michelin_award":"MICHELIN_PLATE","name":"La Rôtisserie","street":"Weinplatz 2"},{"_geoloc":{"lat":47.3828756,"lng":8.5402571},"city_name":"Zürich","country_name":"Switzerland","cuisine_type":"Thai","michelin_award":"MICHELIN_PLATE","name":"White Elephant","street":"Neumühlequai 42"},{"_geoloc":{"lat":47.4611738,"lng":8.2476743},"city_name":"Birmenstorf","country_name":"Switzerland","cuisine_type":"Traditional cuisine","michelin_award":"BIB_GOURMAND","name":"Pfändler's Gasthof zum Bären - Gaststube","street":"Kirchstrasse 7"},{"_geoloc":{"lat":46.61933,"lng":7.16374},"city_name":"Charmey","country_name":"Switzerland","cuisine_type":"Modern French","michelin_award":"ONE_STAR","name":"L'Etoile - Nova","street":"Rue du Centre 21"},{"_geoloc":{"lat":47.3754184,"lng":8.5368718},"city_name":"Zürich","country_name":"Switzerland","cuisine_type":"Modern cuisine","michelin_award":"ONE_STAR","name":"1904 Designed by Lagonda","street":"Löwenstrasse 42"},{"_geoloc":{"lat":47.1362208,"lng":8.1913012},"city_name":"Sempach","country_name":"Switzerland","cuisine_type":"Traditional cuisine","michelin_award":"BIB_GOURMAND","name":"Gasthof Adler","street":"Stadtstrasse 22"},{"_geoloc":{"lat":46.1596458,"lng":8.7824151},"city_name":"Ascona","country_name":"Switzerland","cuisine_type":"Regional cuisine","michelin_award":"BIB_GOURMAND","name":"Aerodromo da Nani","street":"via Aerodromo 3"},{"_geoloc":{"lat":47.2268294,"lng":8.8164494},"city_name":"Rapperswil","country_name":"Switzerland","cuisine_type":"Modern cuisine","michelin_award":"ONE_STAR","name":"Jakobs ESSZIMMER","street":"Hauptplatz 11"},{"_geoloc":{"lat":47.297001,"lng":8.6086839},"city_name":"Erlenbach","country_name":"Switzerland","cuisine_type":"Traditional cuisine","michelin_award":"BIB_GOURMAND","name":"Zum Pflugstein","street":"Pflugsteinstrasse 71"},{"_geoloc":{"lat":46.3172181,"lng":9.1984377},"city_name":"Lostallo","country_name":"Switzerland","cuisine_type":"Classic cuisine","michelin_award":"MICHELIN_PLATE","name":"Groven","street":"Via Cantonale 3"},{"_geoloc":{"lat":47.3189044,"lng":8.579101},"city_name":"Küsnacht","country_name":"Switzerland","cuisine_type":"Market cuisine","michelin_award":"MICHELIN_PLATE","name":"Sonnengalerie","street":"Seestrasse 120"},{"_geoloc":{"lat":46.0112405,"lng":8.943635},"city_name":"Massagno","country_name":"Switzerland","cuisine_type":"Mediterranean","michelin_award":"BIB_GOURMAND","name":"Grotto della Salute","street":"Via Madonna della Salute 10"},{"_geoloc":{"lat":46.2805146,"lng":6.1657096},"city_name":"Versoix","country_name":"Switzerland","cuisine_type":"Modern French","michelin_award":"BIB_GOURMAND","name":"Boléro V Bistro","street":"Chemin J-B Vandelle 8"},{"_geoloc":{"lat":46.7872121,"lng":7.6208457},"city_name":"Steffisburg","country_name":"Switzerland","cuisine_type":"Modern French","michelin_award":"ONE_STAR","name":"Panorama - Cayenne","street":"Hartlisbergstrasse 39"},{"_geoloc":{"lat":45.987213,"lng":8.950436},"city_name":"Lugano","country_name":"Switzerland","cuisine_type":"Mediterranean","michelin_award":"MICHELIN_PLATE","name":"THE VIEW","street":"via Guidino 29"},{"_geoloc":{"lat":46.80562,"lng":7.16141},"city_name":"Fribourg","country_name":"Switzerland","cuisine_type":"Modern cuisine","michelin_award":"MICHELIN_PLATE","name":"Hôtel de Ville","street":"Grand-Rue 6"},{"_geoloc":{"lat":46.00587,"lng":8.954809},"city_name":"Lugano","country_name":"Switzerland","cuisine_type":"Modern cuisine","michelin_award":"MICHELIN_PLATE","name":"Osteria Cyrano Cibo e Vino","street":"corso Enrico Pestalozzi 27"},{"_geoloc":{"lat":47.2764531,"lng":8.7567977},"city_name":"Grüningen","country_name":"Switzerland","cuisine_type":"Traditional cuisine","michelin_award":"MICHELIN_PLATE","name":"Landgasthof Adler","street":"Binzikerstrasse 80"},{"_geoloc":{"lat":46.4895677,"lng":7.2593297},"city_name":"Saanen","country_name":"Switzerland","cuisine_type":"Country","michelin_award":"BIB_GOURMAND","name":"16 Art Bar","street":"Mittelgässli 16"},{"_geoloc":{"lat":47.3503541,"lng":7.9037968},"city_name":"Olten","country_name":"Switzerland","cuisine_type":"Italian","michelin_award":"MICHELIN_PLATE","name":"National da Sergio","street":"Klosterplatz 17"},{"_geoloc":{"lat":47.02418,"lng":9.5143226},"city_name":"Fläsch","country_name":"Switzerland","cuisine_type":"Classic French","michelin_award":"BIB_GOURMAND","name":"PINOT","street":"Steigstrasse 12"},{"_geoloc":{"lat":46.453956,"lng":7.4360668},"city_name":"Lenk im Simmental","country_name":"Switzerland","cuisine_type":"Mediterranean","michelin_award":"MICHELIN_PLATE","name":"Oh de Vie","street":"Badstrasse 20"},{"_geoloc":{"lat":46.9583821,"lng":7.5152161},"city_name":"Stettlen","country_name":"Switzerland","cuisine_type":"Modern cuisine","michelin_award":"BIB_GOURMAND","name":"ziegel.hüsi","street":"Bernstrasse 7"},{"_geoloc":{"lat":46.4776485,"lng":9.8109132},"city_name":"Champfèr (Sankt Moritz)","country_name":"Switzerland","cuisine_type":"Creative","michelin_award":"TWO_STARS","name":"Ecco St. Moritz","street":"Via Maistra 3"},{"_geoloc":{"lat":46.8871524,"lng":6.7634007},"city_name":"Sauges","country_name":"Switzerland","cuisine_type":"Creative","michelin_award":"ONE_STAR","name":"La Maison du Village","street":"Rue de la Fontanette 41"},{"_geoloc":{"lat":46.499207,"lng":9.841125},"city_name":"Sankt Moritz","country_name":"Switzerland","cuisine_type":"Asian","michelin_award":"ONE_STAR","name":"the K by Tim Raue","street":"Via Veglia 18"},{"_geoloc":{"lat":47.5237307,"lng":7.5709319},"city_name":"Bottmingen","country_name":"Switzerland","cuisine_type":"Classic French","michelin_award":"MICHELIN_PLATE","name":"Schloss Bottmingen","street":"Schlossgasse 9"},{"_geoloc":{"lat":47.325,"lng":8.64224},"city_name":"Forch","country_name":"Switzerland","cuisine_type":"Italian","michelin_award":"MICHELIN_PLATE","name":"Neue Forch","street":"Alte Forchstrasse 65"},{"_geoloc":{"lat":47.3687208,"lng":8.5376022},"city_name":"Zürich","country_name":"Switzerland","cuisine_type":"Meats and grills","michelin_award":"MICHELIN_PLATE","name":"AURA","street":"Bleicherweg 5"},{"_geoloc":{"lat":46.7356712,"lng":9.546549},"city_name":"Lenzerheide","country_name":"Switzerland","cuisine_type":"Modern French","michelin_award":"ONE_STAR","name":"La Riva","street":"Voa Davos Lai 27"},{"_geoloc":{"lat":47.1955388,"lng":7.3683399},"city_name":"Grenchen","country_name":"Switzerland","cuisine_type":"Traditional cuisine","michelin_award":"BIB_GOURMAND","name":"Chappeli","street":"Allerheiligenstrasse 218"},{"_geoloc":{"lat":47.42153,"lng":9.3754612},"city_name":"Sankt Gallen","country_name":"Switzerland","cuisine_type":"Creative","michelin_award":"TWO_STARS","name":"Einstein Gourmet","street":"Berneggstrasse 2"},{"_geoloc":{"lat":47.5496266,"lng":9.3020787},"city_name":"Amriswil","country_name":"Switzerland","cuisine_type":"International","michelin_award":"BIB_GOURMAND","name":"Renner","street":"Rennweg 6"},{"_geoloc":{"lat":47.5174921,"lng":8.6388699},"city_name":"Pfungen","country_name":"Switzerland","cuisine_type":"Classic cuisine","michelin_award":"MICHELIN_PLATE","name":"Landgasthof Sternen","street":"Weiacherstrasse 38"},{"_geoloc":{"lat":46.202694,"lng":6.158401},"city_name":"Genève","country_name":"Switzerland","cuisine_type":"Tuscan","michelin_award":"ONE_STAR","name":"Tosca","street":"Rue de la Mairie 8"},{"_geoloc":{"lat":46.7872443,"lng":7.6208725},"city_name":"Steffisburg","country_name":"Switzerland","cuisine_type":"Traditional cuisine","michelin_award":"BIB_GOURMAND","name":"Panorama - Bistro","street":"Hartlisbergstrasse 39"},{"_geoloc":{"lat":47.3787302,"lng":8.5233012},"city_name":"Zürich","country_name":"Switzerland","cuisine_type":"Vegetarian","michelin_award":"BIB_GOURMAND","name":"Marktküche","street":"Feldstrasse 98"},{"_geoloc":{"lat":46.2156711,"lng":6.1513589},"city_name":"Genève","country_name":"Switzerland","cuisine_type":"Lebanese","michelin_award":"MICHELIN_PLATE","name":"L'Arabesque","street":"Quai Wilson 47"},{"_geoloc":{"lat":47.0573175,"lng":8.3110656},"city_name":"Luzern","country_name":"Switzerland","cuisine_type":"Traditional cuisine","michelin_award":"MICHELIN_PLATE","name":"Old Swiss House","street":"Löwenplatz 4"},{"_geoloc":{"lat":46.44027,"lng":6.89341},"city_name":"Montreux","country_name":"Switzerland","cuisine_type":"Classic French","michelin_award":"MICHELIN_PLATE","name":"L'Ermitage","street":"Rue du Lac 75"},{"_geoloc":{"lat":46.9541235,"lng":7.4265873},"city_name":"Bern","country_name":"Switzerland","cuisine_type":"Traditional cuisine","michelin_award":"MICHELIN_PLATE","name":"Waldheim","street":"Waldheimstrasse 40"},{"_geoloc":{"lat":46.4760534,"lng":7.2888129},"city_name":"Gstaad","country_name":"Switzerland","cuisine_type":"Japanese","michelin_award":"ONE_STAR","name":"MEGU","street":"Alpinastrasse 23"},{"_geoloc":{"lat":46.2042229,"lng":6.1446687},"city_name":"Genève","country_name":"Switzerland","cuisine_type":"Meats and grills","michelin_award":"BIB_GOURMAND","name":"Chez Philippe","street":"Rue du Rhône 8"},{"_geoloc":{"lat":45.9347923,"lng":8.9142932},"city_name":"Vico Morcote","country_name":"Switzerland","cuisine_type":"Italian","michelin_award":"MICHELIN_PLATE","name":"Vicania","street":"Santé dal Alp Vicania"},{"_geoloc":{"lat":47.55585,"lng":7.58646},"city_name":"Basel","country_name":"Switzerland","cuisine_type":"Country","michelin_award":"MICHELIN_PLATE","name":"Atelier","street":"Leonhardsgraben 49"},{"_geoloc":{"lat":46.8787625,"lng":9.8953978},"city_name":"Klosters","country_name":"Switzerland","cuisine_type":"Seasonal Cuisine","michelin_award":"BIB_GOURMAND","name":"Hotel Berghaus - Alpenrösli","street":"Talstr. 135"},{"_geoloc":{"lat":46.48862,"lng":7.2082577},"city_name":"Rougemont","country_name":"Switzerland","cuisine_type":"Regional cuisine","michelin_award":"BIB_GOURMAND","name":"Valrose","street":"Place de la Gare"},{"_geoloc":{"lat":47.4297309,"lng":9.379009},"city_name":"Sankt Gallen","country_name":"Switzerland","cuisine_type":"International","michelin_award":"BIB_GOURMAND","name":"Netts Schützengarten","street":"Sankt Jakob Strasse 35"},{"_geoloc":{"lat":47.36965,"lng":8.07884},"city_name":"Suhr","country_name":"Switzerland","cuisine_type":"International","michelin_award":"MICHELIN_PLATE","name":"Bärenstübli","street":"Bernstrasse-West 56"},{"_geoloc":{"lat":47.4676331,"lng":9.050627},"city_name":"Wil","country_name":"Switzerland","cuisine_type":"Country","michelin_award":"BIB_GOURMAND","name":"Hof zu Wil","street":"Marktgasse 88"},{"_geoloc":{"lat":46.6226102,"lng":9.181299},"city_name":"Vals","country_name":"Switzerland","cuisine_type":"Creative","michelin_award":"TWO_STARS","name":"7132 Silver","street":"Poststrasse 560"},{"_geoloc":{"lat":47.3619305,"lng":8.5262798},"city_name":"Zürich","country_name":"Switzerland","cuisine_type":"Classic French","michelin_award":"MICHELIN_PLATE","name":"Weisses Rössli","street":"Bederstrasse 96"},{"_geoloc":{"lat":46.47331,"lng":6.795907},"city_name":"Saint-Saphorin","country_name":"Switzerland","cuisine_type":"Traditional cuisine","michelin_award":"MICHELIN_PLATE","name":"Auberge de l'Onde","street":"Chemin neuf 2"},{"_geoloc":{"lat":46.99393,"lng":6.93398},"city_name":"Neuchâtel","country_name":"Switzerland","cuisine_type":"International","michelin_award":"MICHELIN_PLATE","name":"Hôtel DuPeyrou","street":"Avenue DuPeyrou 1"},{"_geoloc":{"lat":46.49792,"lng":6.71034},"city_name":"Aran","country_name":"Switzerland","cuisine_type":"Creative","michelin_award":"MICHELIN_PLATE","name":"Le Guillaume Tell","street":"Route de la Petite Corniche 5"},{"_geoloc":{"lat":47.04813,"lng":8.30538},"city_name":"Luzern","country_name":"Switzerland","cuisine_type":"Italian","michelin_award":"MICHELIN_PLATE","name":"La Cucina","street":"Pilatusstrasse 29"},{"_geoloc":{"lat":46.3019547,"lng":6.243497},"city_name":"Hermance","country_name":"Switzerland","cuisine_type":"Traditional cuisine","michelin_award":"MICHELIN_PLATE","name":"L'Auberge d'Hermance","street":"Rue du Midi 12"},{"_geoloc":{"lat":46.47348,"lng":7.28958},"city_name":"Gstaad","country_name":"Switzerland","cuisine_type":"Italian","michelin_award":"MICHELIN_PLATE","name":"Gildo's Ristorante","street":"Palacestrasse 28"},{"_geoloc":{"lat":46.4967335,"lng":6.7212996},"city_name":"Grandvaux","country_name":"Switzerland","cuisine_type":"Traditional cuisine","michelin_award":"BIB_GOURMAND","name":"Auberge de la Gare","street":"Rue de la Gare 1"},{"_geoloc":{"lat":47.0126696,"lng":6.985984},"city_name":"Saint-Blaise","country_name":"Switzerland","cuisine_type":"Modern cuisine","michelin_award":"ONE_STAR","name":"Le Bocca","street":"Avenue Bachelin 11"},{"_geoloc":{"lat":46.442699,"lng":8.202675},"city_name":"Blitzingen","country_name":"Switzerland","cuisine_type":"International","michelin_award":"MICHELIN_PLATE","name":"Schlossrestaurant","street":"Blitzingen"},{"_geoloc":{"lat":47.3860972,"lng":8.51753},"city_name":"Zürich","country_name":"Switzerland","cuisine_type":"International","michelin_award":"MICHELIN_PLATE","name":"CLOUDS Kitchen","street":"Maagplatz 5"},{"_geoloc":{"lat":46.8277639,"lng":9.3616841},"city_name":"Trin","country_name":"Switzerland","cuisine_type":"Market cuisine","michelin_award":"MICHELIN_PLATE","name":"Casa Alva","street":"Via Visut 31"},{"_geoloc":{"lat":46.201566,"lng":6.0388597},"city_name":"Satigny","country_name":"Switzerland","cuisine_type":"Creative","michelin_award":"TWO_STARS","name":"Domaine de Châteauvieux","street":"Chemin de Châteauvieux 16"},{"_geoloc":{"lat":46.9136328,"lng":7.9339915},"city_name":"Escholzmatt","country_name":"Switzerland","cuisine_type":"Traditional cuisine","michelin_award":"BIB_GOURMAND","name":"Chrüter Gänterli","street":"Hauptstrasse 111"},{"_geoloc":{"lat":47.1848617,"lng":8.4260715},"city_name":"Hünenberg","country_name":"Switzerland","cuisine_type":"Country","michelin_award":"MICHELIN_PLATE","name":"Wart","street":"Wart 1"},{"_geoloc":{"lat":45.82496,"lng":8.99888},"city_name":"Chiasso-Seseglio","country_name":"Switzerland","cuisine_type":"Mediterranean","michelin_award":"MICHELIN_PLATE","name":"Vecchia Osteria Seseglio","street":"via Campora 11"},{"_geoloc":{"lat":46.950041,"lng":7.473849},"city_name":"Bern","country_name":"Switzerland","cuisine_type":"Creative","michelin_award":"BIB_GOURMAND","name":"Schöngrün","street":"Monument im Fruchtland 1"},{"_geoloc":{"lat":46.2028409,"lng":6.1500853},"city_name":"Genève","country_name":"Switzerland","cuisine_type":"Modern French","michelin_award":"MICHELIN_PLATE","name":"De la Cigogne","street":"Place Longemalle 17"},{"_geoloc":{"lat":46.52622,"lng":9.87513},"city_name":"Samedan","country_name":"Switzerland","cuisine_type":"Country","michelin_award":"MICHELIN_PLATE","name":"La Padella","street":"Plazzet 15"},{"_geoloc":{"lat":47.3697229,"lng":8.5395871},"city_name":"Zürich","country_name":"Switzerland","cuisine_type":"Italian","michelin_award":"MICHELIN_PLATE","name":"Orsini","street":"Poststrasse 12"},{"_geoloc":{"lat":46.7794886,"lng":9.6778561},"city_name":"Arosa","country_name":"Switzerland","cuisine_type":"Classic French","michelin_award":"MICHELIN_PLATE","name":"Le Bistro","street":"Poststrasse"},{"_geoloc":{"lat":47.3715144,"lng":8.5401203},"city_name":"Zürich","country_name":"Switzerland","cuisine_type":"Fusion","michelin_award":"MICHELIN_PLATE","name":"Tao's","street":"Augustinergasse 3"},{"_geoloc":{"lat":46.1912667,"lng":6.0431852},"city_name":"Aire-la-Ville","country_name":"Switzerland","cuisine_type":"French","michelin_award":"BIB_GOURMAND","name":"Café du Levant","street":"Rue du Vieux Four 53"},{"_geoloc":{"lat":46.1076948,"lng":7.9258502},"city_name":"Saas-Fee","country_name":"Switzerland","cuisine_type":"Swiss","michelin_award":"MICHELIN_PLATE","name":"Arvu-Stuba","street":"Untere Dorfstrasse 62"},{"_geoloc":{"lat":46.7805395,"lng":6.6676826},"city_name":"Cheseaux-Noréaz","country_name":"Switzerland","cuisine_type":"Classic French","michelin_award":"ONE_STAR","name":"Table de Mary","street":"Route du Gymnase 2"},{"_geoloc":{"lat":47.04811,"lng":8.30538},"city_name":"Luzern","country_name":"Switzerland","cuisine_type":"Asian","michelin_award":"MICHELIN_PLATE","name":"Thai Garden","street":"Pilatusstrasse 29"},{"_geoloc":{"lat":47.5601111,"lng":7.5918915},"city_name":"Basel","country_name":"Switzerland","cuisine_type":"Classic cuisine","michelin_award":"MICHELIN_PLATE","name":"Krafft","street":"Rheingasse 12"},{"_geoloc":{"lat":46.6255558,"lng":7.6941559},"city_name":"Reichenbach","country_name":"Switzerland","cuisine_type":"Traditional cuisine","michelin_award":"BIB_GOURMAND","name":"Bären","street":"Dorfstrasse 21"},{"_geoloc":{"lat":47.6219815,"lng":9.0583447},"city_name":"Lipperswil","country_name":"Switzerland","cuisine_type":"International","michelin_award":"MICHELIN_PLATE","name":"LION D'OR","street":"Golfpanorama 6"},{"_geoloc":{"lat":47.4110124,"lng":8.6454555},"city_name":"Wangen bei Dübendorf","country_name":"Switzerland","cuisine_type":"Classic cuisine","michelin_award":"ONE_STAR","name":"Sternen - Badstube","street":"Sennhüttestrasse 1"},{"_geoloc":{"lat":47.040417,"lng":8.225739},"city_name":"Blatten bei Malters","country_name":"Switzerland","cuisine_type":"Classic cuisine","michelin_award":"MICHELIN_PLATE","name":"Krone","street":""},{"_geoloc":{"lat":46.8266113,"lng":9.2865314},"city_name":"Flims, Waldhaus","country_name":"Switzerland","cuisine_type":"Thai","michelin_award":"MICHELIN_PLATE","name":"Siam","street":"Via Dil Parc 3"},{"_geoloc":{"lat":46.3075979,"lng":7.4598671},"city_name":"Crans Montana","country_name":"Switzerland","cuisine_type":"Modern cuisine","michelin_award":"ONE_STAR","name":"L'OURS","street":"Route du Pas de l'Ours 41"},{"_geoloc":{"lat":47.00472,"lng":6.964792},"city_name":"Neuchâtel","country_name":"Switzerland","cuisine_type":"Classic cuisine","michelin_award":"MICHELIN_PLATE","name":"La Table de Palafitte","street":"Route des Gouttes-d'Or 2"},{"_geoloc":{"lat":47.1963123,"lng":7.1783383},"city_name":"Sonceboz","country_name":"Switzerland","cuisine_type":"Classic French","michelin_award":"ONE_STAR","name":"Du Cerf","street":"Rue du Collège 4"},{"_geoloc":{"lat":46.1552,"lng":6.08047},"city_name":"Perly-Certoux","country_name":"Switzerland","cuisine_type":"French","michelin_award":"MICHELIN_PLATE","name":"Café de Certoux","street":"Route de Certoux 133"},{"_geoloc":{"lat":46.653995,"lng":10.0336471},"city_name":"Brail","country_name":"Switzerland","cuisine_type":"Swiss","michelin_award":"MICHELIN_PLATE","name":"Käserei","street":"Crusch Plantaun 217"},{"_geoloc":{"lat":47.37787,"lng":8.52119},"city_name":"Zürich","country_name":"Switzerland","cuisine_type":"Modern cuisine","michelin_award":"ONE_STAR","name":"EquiTable im Sankt Meinrad","street":"Stauffacherstrasse 163"},{"_geoloc":{"lat":47.5751252,"lng":8.5254813},"city_name":"Eglisau","country_name":"Switzerland","cuisine_type":"Country","michelin_award":"BIB_GOURMAND","name":"Gasthof Hirschen","street":"Untergass 28"},{"_geoloc":{"lat":46.1683555,"lng":6.1177659},"city_name":"Plan-les-Ouates","country_name":"Switzerland","cuisine_type":"Modern cuisine","michelin_award":"MICHELIN_PLATE","name":"La Place","street":"Route de Saint-Julien 143"},{"_geoloc":{"lat":47.1782,"lng":8.59079},"city_name":"Menzingen","country_name":"Switzerland","cuisine_type":"Classic cuisine","michelin_award":"MICHELIN_PLATE","name":"Löwen","street":"Holzhäusernstrasse 2"},{"_geoloc":{"lat":47.3820401,"lng":8.5475454},"city_name":"Zürich","country_name":"Switzerland","cuisine_type":"Italian","michelin_award":"MICHELIN_PLATE","name":"Stapferstube da Rizzo","street":"Culmannstrasse 45"},{"_geoloc":{"lat":47.3159027,"lng":9.2819606},"city_name":"Urnäsch","country_name":"Switzerland","cuisine_type":"Traditional cuisine","michelin_award":"BIB_GOURMAND","name":"Urnäscher Kreuz","street":"Unterdorfstrasse 1"},{"_geoloc":{"lat":46.2541866,"lng":6.2039596},"city_name":"Collonge-Bellerive","country_name":"Switzerland","cuisine_type":"Modern cuisine","michelin_award":"BIB_GOURMAND","name":"Collonge Café","street":"Chemin du Château-de-Bellerive 3"},{"_geoloc":{"lat":46.5020021,"lng":7.2844459},"city_name":"Schönried","country_name":"Switzerland","cuisine_type":"Classic French","michelin_award":"MICHELIN_PLATE","name":"Azalée","street":"Dorfstrasse 14"},{"_geoloc":{"lat":47.3833598,"lng":8.5432384},"city_name":"Zürich","country_name":"Switzerland","cuisine_type":"Modern cuisine","michelin_award":"ONE_STAR","name":"mesa","street":"Weinbergstrasse 75"},{"_geoloc":{"lat":47.4841559,"lng":8.3112008},"city_name":"Ennetbaden","country_name":"Switzerland","cuisine_type":"Classic French","michelin_award":"MICHELIN_PLATE","name":"Hertenstein","street":"Hertensteinstrasse 80"},{"_geoloc":{"lat":47.6946239,"lng":8.6469998},"city_name":"Schaffhausen","country_name":"Switzerland","cuisine_type":"International","michelin_award":"MICHELIN_PLATE","name":"Sommerlust","street":"Rheinhaldenstrasse 8"},{"_geoloc":{"lat":46.9434589,"lng":7.4504046},"city_name":"Bern","country_name":"Switzerland","cuisine_type":"Traditional cuisine","michelin_award":"BIB_GOURMAND","name":"Kirchenfeld","street":"Thunstrasse 5"},{"_geoloc":{"lat":46.6363438,"lng":8.594709},"city_name":"Andermatt","country_name":"Switzerland","cuisine_type":"Asian influences","michelin_award":"MICHELIN_PLATE","name":"The Restaurant","street":"Gotthardstrasse 4"},{"_geoloc":{"lat":47.2072374,"lng":7.5354428},"city_name":"Solothurn","country_name":"Switzerland","cuisine_type":"Market cuisine","michelin_award":"BIB_GOURMAND","name":"Zum Alten Stephan","street":"Friedhofplatz 10"},{"_geoloc":{"lat":46.94949,"lng":7.44302},"city_name":"Bern","country_name":"Switzerland","cuisine_type":"Classic French","michelin_award":"MICHELIN_PLATE","name":"Gourmanderie Moléson","street":"Aarbergergasse 24"},{"_geoloc":{"lat":46.4783476,"lng":7.2903617},"city_name":"Gstaad","country_name":"Switzerland","cuisine_type":"Classic French","michelin_award":"MICHELIN_PLATE","name":"La Bagatelle","street":"Neueretstrasse 25"},{"_geoloc":{"lat":46.1850788,"lng":6.1392214},"city_name":"Carouge","country_name":"Switzerland","cuisine_type":"Modern cuisine","michelin_award":"MICHELIN_PLATE","name":"L'Olivier de Provence","street":"Rue Jacques Dalphin 13"},{"_geoloc":{"lat":46.4282904,"lng":8.1617069},"city_name":"Bellwald","country_name":"Switzerland","cuisine_type":"International","michelin_award":"MICHELIN_PLATE","name":"Zur alten Gasse","street":"Zur alten Gasse 1"},{"_geoloc":{"lat":47.2080475,"lng":7.5385255},"city_name":"Solothurn","country_name":"Switzerland","cuisine_type":"Classic French","michelin_award":"MICHELIN_PLATE","name":"Le Restaurant","street":"Hauptgasse 64"},{"_geoloc":{"lat":46.2054766,"lng":6.1401177},"city_name":"Genève","country_name":"Switzerland","cuisine_type":"Peruvian","michelin_award":"MICHELIN_PLATE","name":"Yakumanka","street":"Quai Turrettini 1"},{"_geoloc":{"lat":46.2088966,"lng":6.1488511},"city_name":"Genève","country_name":"Switzerland","cuisine_type":"Modern French","michelin_award":"MICHELIN_PLATE","name":"Le Jardin","street":"Rue Adhémar-Fabri 8"},{"_geoloc":{"lat":47.338066,"lng":8.574565},"city_name":"Zollikon","country_name":"Switzerland","cuisine_type":"Traditional cuisine","michelin_award":"MICHELIN_PLATE","name":"Rössli","street":"Alte Landstrasse 86"},{"_geoloc":{"lat":46.1035582,"lng":7.2246879},"city_name":"Verbier","country_name":"Switzerland","cuisine_type":"Traditional cuisine","michelin_award":"MICHELIN_PLATE","name":"Le Grenier","street":"Chemin des Creux"},{"_geoloc":{"lat":46.1635072,"lng":6.072308},"city_name":"Lully Genève","country_name":"Switzerland","cuisine_type":"Regional cuisine","michelin_award":"BIB_GOURMAND","name":"Les Curiades","street":"Vieux-Lully 10"},{"_geoloc":{"lat":46.1834139,"lng":6.1417842},"city_name":"Carouge","country_name":"Switzerland","cuisine_type":"Modern cuisine","michelin_award":"ONE_STAR","name":"Le Flacon","street":"Rue Vautier 45"},{"_geoloc":{"lat":47.3724542,"lng":8.5450913},"city_name":"Zürich","country_name":"Switzerland","cuisine_type":"Country","michelin_award":"BIB_GOURMAND","name":"Bauernschänke","street":"Rindermarkt 24"},{"_geoloc":{"lat":47.0294248,"lng":7.4598098},"city_name":"Münchenbuchsee","country_name":"Switzerland","cuisine_type":"Classic cuisine","michelin_award":"MICHELIN_PLATE","name":"Moospinte","street":"Lyssstrasse 39"},{"_geoloc":{"lat":46.3023287,"lng":6.2418366},"city_name":"Hermance","country_name":"Switzerland","cuisine_type":"Modern cuisine","michelin_award":"BIB_GOURMAND","name":"Restaurant du Quai","street":"Le Quai 10"},{"_geoloc":{"lat":46.6780948,"lng":9.6440878},"city_name":"Alvaneu","country_name":"Switzerland","cuisine_type":"Regional cuisine","michelin_award":"BIB_GOURMAND","name":"Belfort","street":"Voia Principala 20"},{"_geoloc":{"lat":46.4384868,"lng":6.9066183},"city_name":"Montreux","country_name":"Switzerland","cuisine_type":"Meats and grills","michelin_award":"MICHELIN_PLATE","name":"MP's Bar \u0026 Grill","street":"Avenue Claude Nobs 2"},{"_geoloc":{"lat":47.4860811,"lng":9.3919806},"city_name":"Freidorf","country_name":"Switzerland","cuisine_type":"Classic French","michelin_award":"ONE_STAR","name":"Mammertsberg","street":"Bahnhofstrasse 28"},{"_geoloc":{"lat":46.8019356,"lng":7.1514413},"city_name":"Fribourg","country_name":"Switzerland","cuisine_type":"Classic French","michelin_award":"ONE_STAR","name":"Le Pérolles","street":"Boulevard de Pérolles 1"},{"_geoloc":{"lat":47.4065088,"lng":8.0069749},"city_name":"Erlinsbach","country_name":"Switzerland","cuisine_type":"Classic cuisine","michelin_award":"BIB_GOURMAND","name":"Hirschen","street":"Hauptstrasse 125"},{"_geoloc":{"lat":46.46642,"lng":7.08134},"city_name":"Rossinière","country_name":"Switzerland","cuisine_type":"Classic French","michelin_award":"MICHELIN_PLATE","name":"Les Jardins de la Tour","street":"Rue de la Placette 16"},{"_geoloc":{"lat":47.0459909,"lng":7.1525229},"city_name":"Lüscherz","country_name":"Switzerland","cuisine_type":"Seafood","michelin_award":"MICHELIN_PLATE","name":"3 Fische","street":"Hauptstrasse 29"},{"_geoloc":{"lat":47.3909083,"lng":8.0450163},"city_name":"Aarau","country_name":"Switzerland","cuisine_type":"Modern cuisine","michelin_award":"MICHELIN_PLATE","name":"Restaurant PI","street":"Vordere Vorstadt 17"},{"_geoloc":{"lat":47.3727776,"lng":8.5729094},"city_name":"Zürich","country_name":"Switzerland","cuisine_type":"Creative","michelin_award":"TWO_STARS","name":"The Restaurant","street":"Kurhausstrasse 65"},{"_geoloc":{"lat":46.94301,"lng":7.4487553},"city_name":"Bern","country_name":"Switzerland","cuisine_type":"Creative","michelin_award":"ONE_STAR","name":"Steinhalle","street":"Helvetiaplatz 5"},{"_geoloc":{"lat":46.6962728,"lng":7.7378783},"city_name":"Merligen","country_name":"Switzerland","cuisine_type":"Classic cuisine","michelin_award":"MICHELIN_PLATE","name":"Le BelAir","street":"Seestrasse 300"},{"_geoloc":{"lat":46.4589409,"lng":6.9008952},"city_name":"Brent","country_name":"Switzerland","cuisine_type":"Modern French","michelin_award":"TWO_STARS","name":"Le Pont de Brent","street":"Route de Blonay 4"},{"_geoloc":{"lat":47.032169,"lng":8.4363848},"city_name":"Weggis","country_name":"Switzerland","cuisine_type":"Classic cuisine","michelin_award":"MICHELIN_PLATE","name":"Beau Rivage","street":"Gotthardstrasse 6"},{"_geoloc":{"lat":47.5648324,"lng":9.108229},"city_name":"Weinfelden","country_name":"Switzerland","cuisine_type":"Italian","michelin_award":"BIB_GOURMAND","name":"Pulcinella","street":"Wilerstrasse 8"},{"_geoloc":{"lat":46.1823205,"lng":7.2954154},"city_name":"Haute-Nendaz","country_name":"Switzerland","cuisine_type":"International","michelin_award":"MICHELIN_PLATE","name":"Mont-Rouge","street":"Route de la Télécabine 23"},{"_geoloc":{"lat":46.7272138,"lng":8.1868214},"city_name":"Meiringen","country_name":"Switzerland","cuisine_type":"International","michelin_award":"BIB_GOURMAND","name":"Victoria","street":"Bahnhofplatz 9"},{"_geoloc":{"lat":47.13897,"lng":7.244554},"city_name":"Biel","country_name":"Switzerland","cuisine_type":"French","michelin_award":"MICHELIN_PLATE","name":"Perroquet Vert","street":"Zentralstrasse 15"},{"_geoloc":{"lat":46.49383,"lng":8.281293},"city_name":"Geschinen","country_name":"Switzerland","cuisine_type":"Traditional cuisine","michelin_award":"MICHELIN_PLATE","name":"Mühle","street":"Seestrasse 26"},{"_geoloc":{"lat":47.4599385,"lng":7.7415822},"city_name":"Bubendorf","country_name":"Switzerland","cuisine_type":"Italian","michelin_award":"ONE_STAR","name":"Osteria TRE","street":"Kantonsstrasse 3"},{"_geoloc":{"lat":46.2095951,"lng":6.1504987},"city_name":"Genève","country_name":"Switzerland","cuisine_type":"Creative French","michelin_award":"MICHELIN_PLATE","name":"Windows","street":"Quai du Mont-Blanc 17"},{"_geoloc":{"lat":47.5466702,"lng":8.843763},"city_name":"Gachnang","country_name":"Switzerland","cuisine_type":"Italian","michelin_award":"BIB_GOURMAND","name":"Il ristorantino Sonne","street":"Hauptstrasse 47"},{"_geoloc":{"lat":47.0463738,"lng":9.4186133},"city_name":"Mels","country_name":"Switzerland","cuisine_type":"Country","michelin_award":"BIB_GOURMAND","name":"Schlüsselstube","street":"Oberdorfstrasse 5"},{"_geoloc":{"lat":47.3753225,"lng":8.5285941},"city_name":"Zürich","country_name":"Switzerland","cuisine_type":"Italian","michelin_award":"MICHELIN_PLATE","name":"Accademia del Gusto","street":"Rotwandstrasse 48"},{"_geoloc":{"lat":46.1819687,"lng":6.8748234},"city_name":"Champéry","country_name":"Switzerland","cuisine_type":"Modern French","michelin_award":"ONE_STAR","name":"Le 42","street":"Route de Chavalet 3"},{"_geoloc":{"lat":47.5548364,"lng":7.6026367},"city_name":"Basel","country_name":"Switzerland","cuisine_type":"Classic cuisine","michelin_award":"MICHELIN_PLATE","name":"Zum Goldenen Sternen","street":"St. Alban-Rheinweg 70"},{"_geoloc":{"lat":47.3706709,"lng":8.5430709},"city_name":"Zürich","country_name":"Switzerland","cuisine_type":"Modern cuisine","michelin_award":"MICHELIN_PLATE","name":"Haus zum Rüden","street":"Limmatquai 42"},{"_geoloc":{"lat":47.5199747,"lng":8.6841253},"city_name":"Winterthur","country_name":"Switzerland","cuisine_type":"International","michelin_award":"BIB_GOURMAND","name":"Taggenberg","street":"Taggenbergstrasse 79"},{"_geoloc":{"lat":47.675254,"lng":8.7852825},"city_name":"Diessenhofen","country_name":"Switzerland","cuisine_type":"Traditional cuisine","michelin_award":"BIB_GOURMAND","name":"Gasthaus Schupfen","street":"Steinerstrasse 501"},{"_geoloc":{"lat":47.0445153,"lng":8.3679902},"city_name":"Meggen","country_name":"Switzerland","cuisine_type":"Classic French","michelin_award":"MICHELIN_PLATE","name":"La Pistache","street":"Balmstrasse 3"},{"_geoloc":{"lat":46.216755,"lng":6.138353},"city_name":"Genève","country_name":"Switzerland","cuisine_type":"Modern cuisine","michelin_award":"MICHELIN_PLATE","name":"Lemon Café","street":"Rue du Vidollet 4"},{"_geoloc":{"lat":47.3713414,"lng":8.0020491},"city_name":"Schönenwerd","country_name":"Switzerland","cuisine_type":"Contemporary","michelin_award":"MICHELIN_PLATE","name":"La Cuisine","street":"Oltnerstraße 16"},{"_geoloc":{"lat":47.3710447,"lng":8.5375974},"city_name":"Zürich","country_name":"Switzerland","cuisine_type":"Modern cuisine","michelin_award":"ONE_STAR","name":"20/20 by Mövenpick","street":"Nüschelerstrasse 1"},{"_geoloc":{"lat":46.52084,"lng":6.63316},"city_name":"Lausanne","country_name":"Switzerland","cuisine_type":"Classic French","michelin_award":"MICHELIN_PLATE","name":"Le Cinq","street":"Rue Centrale 9"},{"_geoloc":{"lat":46.21003,"lng":6.150915},"city_name":"Genève","country_name":"Switzerland","cuisine_type":"Meats and grills","michelin_award":"MICHELIN_PLATE","name":"Le Grill","street":"Quai du Mont-Blanc 19"},{"_geoloc":{"lat":46.00412,"lng":8.954976},"city_name":"Lugano","country_name":"Switzerland","cuisine_type":"Grills","michelin_award":"MICHELIN_PLATE","name":"Seven Lugano - the restaurant","street":"via Stauffacher 1"},{"_geoloc":{"lat":46.4950442,"lng":7.674555},"city_name":"Kandersteg","country_name":"Switzerland","cuisine_type":"Swiss","michelin_award":"BIB_GOURMAND","name":"Ritter","street":"Äussere Dorfstrasse 2"},{"_geoloc":{"lat":46.7774388,"lng":9.6692879},"city_name":"Arosa","country_name":"Switzerland","cuisine_type":"Modern cuisine","michelin_award":"ONE_STAR","name":"La Vetta","street":"Tschuggentorweg 1"},{"_geoloc":{"lat":46.209011,"lng":6.1497506},"city_name":"Genève","country_name":"Switzerland","cuisine_type":"Thai","michelin_award":"MICHELIN_PLATE","name":"Patara","street":"Quai du Mont-Blanc 13"},{"_geoloc":{"lat":46.2122669,"lng":6.1450287},"city_name":"Genève","country_name":"Switzerland","cuisine_type":"Japanese","michelin_award":"MICHELIN_PLATE","name":"Nagomi","street":"Rue de Zurich 47"},{"_geoloc":{"lat":47.3740149,"lng":8.546173},"city_name":"Zürich","country_name":"Switzerland","cuisine_type":"Innovative","michelin_award":"MICHELIN_PLATE","name":"Rechberg 1837","street":"Chorgasse 20"},{"_geoloc":{"lat":46.73828,"lng":8.628387},"city_name":"Gurtnellen","country_name":"Switzerland","cuisine_type":"Swiss","michelin_award":"MICHELIN_PLATE","name":"Gasthaus im Feld","street":"Dorfstrasse 56"},{"_geoloc":{"lat":47.3769588,"lng":8.5394521},"city_name":"Zürich","country_name":"Switzerland","cuisine_type":"French","michelin_award":"MICHELIN_PLATE","name":"La Soupière","street":"Bahnhofplatz 7"},{"_geoloc":{"lat":47.588804,"lng":9.0140047},"city_name":"Wigoltingen / Hasli","country_name":"Switzerland","cuisine_type":"Classic French","michelin_award":"MICHELIN_PLATE","name":"Landgasthof Wartegg","street":"Müllheimerstrasse 3"},{"_geoloc":{"lat":47.2393856,"lng":8.7180143},"city_name":"Stäfa","country_name":"Switzerland","cuisine_type":"International","michelin_award":"BIB_GOURMAND","name":"Gasthof zur Sonne","street":"Seestrasse 37"},{"_geoloc":{"lat":47.3666799,"lng":8.5363509},"city_name":"Zürich","country_name":"Switzerland","cuisine_type":"Modern cuisine","michelin_award":"MICHELIN_PLATE","name":"parkhuus","street":"Beethoven Strasse 21"},{"_geoloc":{"lat":46.1756664,"lng":8.826345},"city_name":"Minusio-Locarno","country_name":"Switzerland","cuisine_type":"International","michelin_award":"MICHELIN_PLATE","name":"Lago","street":"Via Alla Riva 83A"},{"_geoloc":{"lat":46.9487483,"lng":7.4408862},"city_name":"Bern","country_name":"Switzerland","cuisine_type":"Classic cuisine","michelin_award":"MICHELIN_PLATE","name":"Jack's Brasserie","street":"Bahnhofplatz 11"},{"_geoloc":{"lat":47.5368163,"lng":7.5745318},"city_name":"Binningen","country_name":"Switzerland","cuisine_type":"Classic French","michelin_award":"MICHELIN_PLATE","name":"Schloss Binningen","street":"Schlossgasse 5"},{"_geoloc":{"lat":46.61689,"lng":7.05686},"city_name":"Bulle","country_name":"Switzerland","cuisine_type":"Traditional cuisine","michelin_award":"MICHELIN_PLATE","name":"Du Cheval Blanc","street":"Rue de Gruyères 16"},{"_geoloc":{"lat":46.1989734,"lng":6.1343575},"city_name":"Genève","country_name":"Switzerland","cuisine_type":"Modern French","michelin_award":"MICHELIN_PLATE","name":"La Cantine des Commerçants","street":"Boulevard Carl-Vogt 29"},{"_geoloc":{"lat":46.7425054,"lng":8.9851158},"city_name":"Trun","country_name":"Switzerland","cuisine_type":"Creative","michelin_award":"BIB_GOURMAND","name":"Casa Tödi","street":"Via Principala 78"},{"_geoloc":{"lat":46.99684,"lng":8.378948},"city_name":"Obbürgen","country_name":"Switzerland","cuisine_type":"Asian","michelin_award":"MICHELIN_PLATE","name":"Spices Kitchen \u0026 Terrace","street":"Bürgenstock 17"},{"_geoloc":{"lat":46.8372406,"lng":9.2830774},"city_name":"Flims","country_name":"Switzerland","cuisine_type":"Italian","michelin_award":"MICHELIN_PLATE","name":"Cavigilli","street":"Via Arviul 1"},{"_geoloc":{"lat":46.16691,"lng":6.18488},"city_name":"Veyrier","country_name":"Switzerland","cuisine_type":"French","michelin_award":"MICHELIN_PLATE","name":"Café de la Réunion","street":"Chemin Sous-Balme 2"},{"_geoloc":{"lat":46.91562,"lng":7.4678},"city_name":"Kehrsatz","country_name":"Switzerland","cuisine_type":"Japanese","michelin_award":"MICHELIN_PLATE","name":"Tanaka","street":"Bernstrasse 70"},{"_geoloc":{"lat":47.5616838,"lng":7.5915757},"city_name":"Basel","country_name":"Switzerland","cuisine_type":"Modern cuisine","michelin_award":"BIB_GOURMAND","name":"Roter Bären","street":"Ochsengasse 17"},{"_geoloc":{"lat":46.9679846,"lng":8.4599332},"city_name":"Beckenried","country_name":"Switzerland","cuisine_type":"Country","michelin_award":"MICHELIN_PLATE","name":"Gaststuben","street":"Oberdorfstrasse 26"},{"_geoloc":{"lat":46.1832408,"lng":6.10182},"city_name":"Onex","country_name":"Switzerland","cuisine_type":"Traditional cuisine","michelin_award":"BIB_GOURMAND","name":"Les Fourneaux du Manège","street":"Chemin Gustave Rochette 5"},{"_geoloc":{"lat":47.0564475,"lng":7.62684},"city_name":"Burgdorf","country_name":"Switzerland","cuisine_type":"Traditional cuisine","michelin_award":"BIB_GOURMAND","name":"La Pendule","street":"Kirchbühl 2"},{"_geoloc":{"lat":46.5207672,"lng":6.6363952},"city_name":"Lausanne","country_name":"Switzerland","cuisine_type":"Italian","michelin_award":"BIB_GOURMAND","name":"La Grappe d'Or","street":"Cheneau de Bourg 3"},{"_geoloc":{"lat":47.5504229,"lng":9.228836},"city_name":"Erlen","country_name":"Switzerland","cuisine_type":"Classic French","michelin_award":"MICHELIN_PLATE","name":"Aachbrüggli","street":"Poststrasse 8"},{"_geoloc":{"lat":47.6952705,"lng":8.632791},"city_name":"Schaffhausen","country_name":"Switzerland","cuisine_type":"Classic cuisine","michelin_award":"MICHELIN_PLATE","name":"Wirtschaft zum Frieden","street":"Herrenacker 11"},{"_geoloc":{"lat":46.4577392,"lng":6.8522767},"city_name":"Vevey","country_name":"Switzerland","cuisine_type":"Traditional cuisine","michelin_award":"MICHELIN_PLATE","name":"La Véranda","street":"Rue d'Italie 1"},{"_geoloc":{"lat":46.1703672,"lng":8.7960063},"city_name":"Locarno","country_name":"Switzerland","cuisine_type":"Mediterranean","michelin_award":"MICHELIN_PLATE","name":"Da Valentino","street":"Via Torretta 7"},{"_geoloc":{"lat":47.5604072,"lng":7.587584},"city_name":"Basel","country_name":"Switzerland","cuisine_type":"Classic French","michelin_award":"MICHELIN_PLATE","name":"Brasserie","street":"Blumenrain 8"},{"_geoloc":{"lat":47.4460884,"lng":9.5319821},"city_name":"Heiden","country_name":"Switzerland","cuisine_type":"Classic cuisine","michelin_award":"TWO_STARS","name":"Gasthaus Zur Fernsicht - Incantare","street":"Seeallee 10"},{"_geoloc":{"lat":47.049515,"lng":8.300933},"city_name":"Luzern","country_name":"Switzerland","cuisine_type":"Market cuisine","michelin_award":"MICHELIN_PLATE","name":"Drei Könige","street":"Klosterstrasse 10"},{"_geoloc":{"lat":46.7256626,"lng":9.5576087},"city_name":"Lenzerheide","country_name":"Switzerland","cuisine_type":"Cheese, fondue and raclette","michelin_award":"MICHELIN_PLATE","name":"Scalottas - Carn \u0026 Caschiel","street":"Voa Principala 29"},{"_geoloc":{"lat":46.1035433,"lng":7.2246987},"city_name":"Verbier","country_name":"Switzerland","cuisine_type":"Contemporary","michelin_award":"ONE_STAR","name":"La Table d'Adrien","street":"Chemin des Creux"},{"_geoloc":{"lat":46.9465871,"lng":8.6650923},"city_name":"Riemenstalden","country_name":"Switzerland","cuisine_type":"Country","michelin_award":"BIB_GOURMAND","name":"Kaiserstock","street":"Dörfli 2"},{"_geoloc":{"lat":46.6539722,"lng":10.0336168},"city_name":"Brail","country_name":"Switzerland","cuisine_type":"Classic cuisine","michelin_award":"MICHELIN_PLATE","name":"La Stüvetta","street":"Crusch Plantaun 217"},{"_geoloc":{"lat":46.4927662,"lng":7.2462367},"city_name":"Saanen","country_name":"Switzerland","cuisine_type":"Country","michelin_award":"MICHELIN_PLATE","name":"Sonnenhof","street":"Sonnenhofweg 33"},{"_geoloc":{"lat":47.1858772,"lng":8.7368826},"city_name":"Feusisberg","country_name":"Switzerland","cuisine_type":"International","michelin_award":"MICHELIN_PLATE","name":"Collina","street":"Schönfelsstrasse"},{"_geoloc":{"lat":47.2283311,"lng":7.5751631},"city_name":"Riedholz","country_name":"Switzerland","cuisine_type":"Traditional cuisine","michelin_award":"BIB_GOURMAND","name":"Attisholz - Gaststube","street":"Attisholzstrasse 3"},{"_geoloc":{"lat":47.362717,"lng":8.496154},"city_name":"Zürich","country_name":"Switzerland","cuisine_type":"Creative","michelin_award":"TWO_STARS","name":"Ecco Zürich","street":"Döltschiweg 234"},{"_geoloc":{"lat":47.23124,"lng":9.4568},"city_name":"Sax","country_name":"Switzerland","cuisine_type":"Classic cuisine","michelin_award":"MICHELIN_PLATE","name":"Schlössli","street":"Gaditsch 1"},{"_geoloc":{"lat":47.1749024,"lng":7.5981713},"city_name":"Kriegstetten","country_name":"Switzerland","cuisine_type":"Classic French","michelin_award":"MICHELIN_PLATE","name":"Sternen - Gartenzimmer","street":"Hauptstrasse 61"},{"_geoloc":{"lat":46.212489,"lng":6.080603},"city_name":"Vernier","country_name":"Switzerland","cuisine_type":"Traditional cuisine","michelin_award":"MICHELIN_PLATE","name":"La Grange","street":"Rue du Village 64A"},{"_geoloc":{"lat":47.43083,"lng":9.4910471},"city_name":"Rehetobel","country_name":"Switzerland","cuisine_type":"Classic French","michelin_award":"ONE_STAR","name":"Gasthaus Zum Gupf","street":"Gupf 21"},{"_geoloc":{"lat":47.3744035,"lng":8.732469},"city_name":"Freudwil","country_name":"Switzerland","cuisine_type":"Traditional cuisine","michelin_award":"BIB_GOURMAND","name":"Blume","street":"Freudwilerstrasse 6"},{"_geoloc":{"lat":46.7256622,"lng":9.5576171},"city_name":"Lenzerheide","country_name":"Switzerland","cuisine_type":"Country","michelin_award":"BIB_GOURMAND","name":"Scalottas - Terroir","street":"Voa Principala 29"},{"_geoloc":{"lat":46.586082,"lng":9.937879},"city_name":"Madulain","country_name":"Switzerland","cuisine_type":"Regional cuisine","michelin_award":"ONE_STAR","name":"Chesa Stüva Colani","street":"Via Principela 20 A"},{"_geoloc":{"lat":47.08992,"lng":7.13978},"city_name":"Schernelz","country_name":"Switzerland","cuisine_type":"Country","michelin_award":"BIB_GOURMAND","name":"Aux Trois Amis","street":"Untergasse 17"},{"_geoloc":{"lat":46.2019666,"lng":6.1403903},"city_name":"Genève","country_name":"Switzerland","cuisine_type":"Modern French","michelin_award":"BIB_GOURMAND","name":"Café des Banques","street":"Rue de Hesse 6"},{"_geoloc":{"lat":46.9462747,"lng":7.711754},"city_name":"Lauperswil","country_name":"Switzerland","cuisine_type":"Country","michelin_award":"BIB_GOURMAND","name":"Moosegg","street":"Moosegg 231A"},{"_geoloc":{"lat":47.0886297,"lng":7.3756662},"city_name":"Scheunenberg","country_name":"Switzerland","cuisine_type":"French","michelin_award":"ONE_STAR","name":"Sonne","street":"Scheunenberg 70"},{"_geoloc":{"lat":46.9712398,"lng":7.3531818},"city_name":"Wohlen bei Bern","country_name":"Switzerland","cuisine_type":"Traditional cuisine","michelin_award":"MICHELIN_PLATE","name":"Kreuz","street":"Hauptstrasse 7"},{"_geoloc":{"lat":46.1872015,"lng":8.7532814},"city_name":"Ponte Brolla","country_name":"Switzerland","cuisine_type":"Regional cuisine","michelin_award":"MICHELIN_PLATE","name":"Centovalli","street":"Via Alla Stazione 5"},{"_geoloc":{"lat":46.47056,"lng":7.28791},"city_name":"Gstaad","country_name":"Switzerland","cuisine_type":"International","michelin_award":"MICHELIN_PLATE","name":"Avenue Montagne","street":"Wispilenstrasse 29"},{"_geoloc":{"lat":46.8690123,"lng":8.2389583},"city_name":"Sachseln","country_name":"Switzerland","cuisine_type":"Country","michelin_award":"BIB_GOURMAND","name":"Gasthaus Engel","street":"Brünigstrasse 100"},{"_geoloc":{"lat":46.6212687,"lng":7.1623336},"city_name":"Charmey","country_name":"Switzerland","cuisine_type":"Classic cuisine","michelin_award":"MICHELIN_PLATE","name":"4 Saisons","street":"Gros-Plan 28"},{"_geoloc":{"lat":46.4143818,"lng":7.80783},"city_name":"Blatten","country_name":"Switzerland","cuisine_type":"Traditional cuisine","michelin_award":"BIB_GOURMAND","name":"Nest- und Bietschhorn","street":"Ried 24"},{"_geoloc":{"lat":47.4520477,"lng":8.581468},"city_name":"Kloten","country_name":"Switzerland","cuisine_type":"Country","michelin_award":"BIB_GOURMAND","name":"Rias","street":"Gerbegasse 6"},{"_geoloc":{"lat":46.20325,"lng":6.1439466},"city_name":"Genève","country_name":"Switzerland","cuisine_type":"Italian","michelin_award":"MICHELIN_PLATE","name":"La Finestra","street":"Rue de la Cité 11"},{"_geoloc":{"lat":46.2075881,"lng":6.1407696},"city_name":"Genève","country_name":"Switzerland","cuisine_type":"Modern cuisine","michelin_award":"BIB_GOURMAND","name":"Le Bologne","street":"Rue Necker 9"},{"_geoloc":{"lat":46.3075789,"lng":7.459857},"city_name":"Crans-Montana","country_name":"Switzerland","cuisine_type":"Traditional cuisine","michelin_award":"MICHELIN_PLATE","name":"Le Bistrot des Ours","street":"Route du Pas de l'Ours 41"},{"_geoloc":{"lat":46.98687,"lng":8.71306},"city_name":"Ried-Muotathal","country_name":"Switzerland","cuisine_type":"Country","michelin_award":"BIB_GOURMAND","name":"Adler","street":"Kappelmatt 1"},{"_geoloc":{"lat":46.43114,"lng":9.76004},"city_name":"Sils-Maria","country_name":"Switzerland","cuisine_type":"Country","michelin_award":"MICHELIN_PLATE","name":"Alpenrose","street":"Via da Marias 133"},{"_geoloc":{"lat":46.2029726,"lng":6.1580096},"city_name":"Genève","country_name":"Switzerland","cuisine_type":"Italian","michelin_award":"BIB_GOURMAND","name":"Puccini Café","street":"Rue de la Mairie 4"},{"_geoloc":{"lat":46.1805824,"lng":6.1403385},"city_name":"Carouge","country_name":"Switzerland","cuisine_type":"Classic French","michelin_award":"BIB_GOURMAND","name":"Le Bistrot Le Lion d'Or","street":"Rue Ancienne 53"},{"_geoloc":{"lat":45.9571769,"lng":8.9354982},"city_name":"Carona","country_name":"Switzerland","cuisine_type":"Regional cuisine","michelin_award":"MICHELIN_PLATE","name":"Posta","street":"Via Principale 35"},{"_geoloc":{"lat":47.3056179,"lng":8.5912455},"city_name":"Erlenbach","country_name":"Switzerland","cuisine_type":"Italian","michelin_award":"MICHELIN_PLATE","name":"Sinfonia","street":"Bahnhofstrasse 29"},{"_geoloc":{"lat":46.5922563,"lng":7.6546752},"city_name":"Frutigen","country_name":"Switzerland","cuisine_type":"Creative","michelin_award":"MICHELIN_PLATE","name":"Tropenhaus","street":"Tropenhausweg 1"},{"_geoloc":{"lat":47.5266693,"lng":7.5737565},"city_name":"Bottmingen","country_name":"Switzerland","cuisine_type":"Traditional cuisine","michelin_award":"BIB_GOURMAND","name":"Basilicum","street":"Margrethenstrasse 1"},{"_geoloc":{"lat":47.5140163,"lng":7.5560046},"city_name":"Oberwil","country_name":"Switzerland","cuisine_type":"Mediterranean","michelin_award":"ONE_STAR","name":"Schlüssel","street":"Hauptstrasse 41"},{"_geoloc":{"lat":46.006454,"lng":8.960504},"city_name":"Lugano","country_name":"Switzerland","cuisine_type":"Seafood","michelin_award":"MICHELIN_PLATE","name":"Badalucci","street":"Viale Cassarate 3"},{"_geoloc":{"lat":46.1623994,"lng":6.1476365},"city_name":"Troinex","country_name":"Switzerland","cuisine_type":"Modern French","michelin_award":"ONE_STAR","name":"La Chaumière by Serge Labrosse","street":"Chemin de la Fondelle 16"},{"_geoloc":{"lat":47.510624,"lng":8.699585},"city_name":"Winterthur","country_name":"Switzerland","cuisine_type":"Classic cuisine","michelin_award":"MICHELIN_PLATE","name":"Schloss Wülflingen","street":"Wülflingerstrasse 214"},{"_geoloc":{"lat":46.7532034,"lng":6.5258656},"city_name":"Valeyres-sous-Rances","country_name":"Switzerland","cuisine_type":"French","michelin_award":"BIB_GOURMAND","name":"A la Vieille Auberge","street":"Route Romaine 2"},{"_geoloc":{"lat":47.3645571,"lng":8.5473497},"city_name":"Zürich","country_name":"Switzerland","cuisine_type":"Italian","michelin_award":"MICHELIN_PLATE","name":"Conti","street":"Dufourstrasse 1"},{"_geoloc":{"lat":46.95145,"lng":7.06702},"city_name":"Lugnorre","country_name":"Switzerland","cuisine_type":"Modern cuisine","michelin_award":"MICHELIN_PLATE","name":"Auberge des Clefs","street":"Route de Chenaux 4"},{"_geoloc":{"lat":46.021962,"lng":7.7478621},"city_name":"Zermatt","country_name":"Switzerland","cuisine_type":"Creative","michelin_award":"ONE_STAR","name":"After Seven","street":"Hofmattstrasse 4"},{"_geoloc":{"lat":47.3673334,"lng":8.5676717},"city_name":"Zürich","country_name":"Switzerland","cuisine_type":"Classic French","michelin_award":"MICHELIN_PLATE","name":"Sonnenberg","street":"Hitzigweg 15"},{"_geoloc":{"lat":47.3575754,"lng":8.5323113},"city_name":"Zürich","country_name":"Switzerland","cuisine_type":"Classic cuisine","michelin_award":"MICHELIN_PLATE","name":"Belvoirpark","street":"Seestrasse 125"},{"_geoloc":{"lat":47.3792172,"lng":8.5435354},"city_name":"Zürich","country_name":"Switzerland","cuisine_type":"Market cuisine","michelin_award":"MICHELIN_PLATE","name":"Didi's Frieden","street":"Stampfenbachstrasse 32"},{"_geoloc":{"lat":46.8195546,"lng":9.2651415},"city_name":"Laax","country_name":"Switzerland","cuisine_type":"International","michelin_award":"MICHELIN_PLATE","name":"Mulania","street":"Via Murschetg 15"},{"_geoloc":{"lat":46.9357259,"lng":8.5797247},"city_name":"Bauen","country_name":"Switzerland","cuisine_type":"Classic cuisine","michelin_award":"MICHELIN_PLATE","name":"Zwyssighaus","street":"Dorf"},{"_geoloc":{"lat":46.2503337,"lng":7.0155428},"city_name":"Bex","country_name":"Switzerland","cuisine_type":"Modern cuisine","michelin_award":"ONE_STAR","name":"Le Café Suisse","street":"Rue Centrale 41"},{"_geoloc":{"lat":46.1495492,"lng":5.9725556},"city_name":"Chancy","country_name":"Switzerland","cuisine_type":"Traditional cuisine","michelin_award":"BIB_GOURMAND","name":"Café de la Place","street":"Route de Bellegarde 55"},{"_geoloc":{"lat":47.3097512,"lng":9.4330351},"city_name":"Weissbad","country_name":"Switzerland","cuisine_type":"Market cuisine","michelin_award":"MICHELIN_PLATE","name":"Schotte-Sepp-Stube / Flickflauder","street":"Im Park 1"},{"_geoloc":{"lat":46.1991216,"lng":6.2209024},"city_name":"Thônex","country_name":"Switzerland","cuisine_type":"Seafood","michelin_award":"ONE_STAR","name":"Le Cigalon","street":"Route d'Ambilly 39"},{"_geoloc":{"lat":46.721039,"lng":9.4456677},"city_name":"Fürstenau","country_name":"Switzerland","cuisine_type":"Country","michelin_award":"BIB_GOURMAND","name":"Casa Caminada","street":"Obergass"},{"_geoloc":{"lat":46.51954,"lng":6.63162},"city_name":"Lausanne","country_name":"Switzerland","cuisine_type":"Asian","michelin_award":"MICHELIN_PLATE","name":"Sushi-Zen","street":"Rue Grand-Chêne 7"},{"_geoloc":{"lat":46.1710165,"lng":8.794707},"city_name":"Locarno","country_name":"Switzerland","cuisine_type":"Mediterranean","michelin_award":"MICHELIN_PLATE","name":"La Rinascente Gourmet","street":"Via Al Tazzino 3"},{"_geoloc":{"lat":47.5163138,"lng":9.4338111},"city_name":"Arbon","country_name":"Switzerland","cuisine_type":"Classic French","michelin_award":"MICHELIN_PLATE","name":"Römerhof","street":"Freiheitsgasse 3"},{"_geoloc":{"lat":46.458397,"lng":6.8479472},"city_name":"Vevey","country_name":"Switzerland","cuisine_type":"Mediterranean","michelin_award":"MICHELIN_PLATE","name":"Les Trois Couronnes","street":"Rue d'Italie 49"},{"_geoloc":{"lat":46.6539661,"lng":10.0336936},"city_name":"Brail","country_name":"Switzerland","cuisine_type":"Creative","michelin_award":"ONE_STAR","name":"Vivanda","street":"Crusch Plantaun 217"},{"_geoloc":{"lat":47.3723753,"lng":8.5377181},"city_name":"Zürich","country_name":"Switzerland","cuisine_type":"Italian","michelin_award":"ONE_STAR","name":"Ornellaia","street":"St. Annagasse 2"},{"_geoloc":{"lat":46.948776,"lng":7.4458715},"city_name":"Bern","country_name":"Switzerland","cuisine_type":"Contemporary","michelin_award":"ONE_STAR","name":"Zum Äusseren Stand","street":"Zeughausgasse 17"},{"_geoloc":{"lat":46.5125493,"lng":8.3256509},"city_name":"Obergesteln","country_name":"Switzerland","cuisine_type":"Traditional cuisine","michelin_award":"MICHELIN_PLATE","name":"Hubertus","street":"Schlüsselacker 35"},{"_geoloc":{"lat":46.9323759,"lng":7.421783},"city_name":"Liebefeld","country_name":"Switzerland","cuisine_type":"Classic French","michelin_award":"MICHELIN_PLATE","name":"Landhaus Liebefeld","street":"Schwarzenburgstrasse 134"},{"_geoloc":{"lat":46.9467379,"lng":7.4467413},"city_name":"Bern","country_name":"Switzerland","cuisine_type":"Modern cuisine","michelin_award":"MICHELIN_PLATE","name":"VUE","street":"Kochergasse 3"},{"_geoloc":{"lat":46.1717205,"lng":8.8031524},"city_name":"Muralto","country_name":"Switzerland","cuisine_type":"Mediterranean","michelin_award":"MICHELIN_PLATE","name":"Osteria del Centenario","street":"viale Verbano 17"},{"_geoloc":{"lat":47.3875099,"lng":8.1800468},"city_name":"Lenzburg","country_name":"Switzerland","cuisine_type":"Mediterranean","michelin_award":"MICHELIN_PLATE","name":"Rosmarin","street":"Rathausgasse 13"},{"_geoloc":{"lat":47.5379748,"lng":7.5714125},"city_name":"Binningen","country_name":"Switzerland","cuisine_type":"Thai","michelin_award":"MICHELIN_PLATE","name":"Krone Kittipon's Finest Thai Cuisine","street":"Hauptstrasse 127"},{"_geoloc":{"lat":47.19,"lng":8.85},"city_name":"Lachen","country_name":"Switzerland","cuisine_type":"International","michelin_award":"MICHELIN_PLATE","name":"Oliveiras","street":"Sagenriet 1"},{"_geoloc":{"lat":46.1736317,"lng":8.7877946},"city_name":"Locarno","country_name":"Switzerland","cuisine_type":"Mediterranean","michelin_award":"MICHELIN_PLATE","name":"lachiesa","street":"Via del Tiglio 1"},{"_geoloc":{"lat":46.6363781,"lng":8.5947275},"city_name":"Andermatt","country_name":"Switzerland","cuisine_type":"Japanese","michelin_award":"ONE_STAR","name":"The Japanese Restaurant","street":"Gotthardstrasse 4"},{"_geoloc":{"lat":47.322113,"lng":7.7959581},"city_name":"Egerkingen","country_name":"Switzerland","cuisine_type":"Country","michelin_award":"MICHELIN_PLATE","name":"Gasthof Kreuz","street":"Oltnerstrasse 11"},{"_geoloc":{"lat":47.038925,"lng":6.7030535},"city_name":"Le Locle","country_name":"Switzerland","cuisine_type":"Classic French","michelin_award":"MICHELIN_PLATE","name":"Auberge du Prévoux","street":"Le Prévoux 10"},{"_geoloc":{"lat":47.0572771,"lng":7.6266325},"city_name":"Burgdorf","country_name":"Switzerland","cuisine_type":"International","michelin_award":"ONE_STAR","name":"Zur Gedult","street":"Metzgergasse 12"},{"_geoloc":{"lat":46.0119335,"lng":7.7675578},"city_name":"Zermatt","country_name":"Switzerland","cuisine_type":"Mediterranean","michelin_award":"MICHELIN_PLATE","name":"Chez Vrony","street":"Findeln"},{"_geoloc":{"lat":46.1834878,"lng":6.0971234},"city_name":"Onex","country_name":"Switzerland","cuisine_type":"Italian","michelin_award":"MICHELIN_PLATE","name":"Auberge d'Onex","street":"Route de Loëx 18"},{"_geoloc":{"lat":47.4234811,"lng":9.3754005},"city_name":"Sankt Gallen","country_name":"Switzerland","cuisine_type":"Market cuisine","michelin_award":"MICHELIN_PLATE","name":"Barz","street":"Bankgasse 4"},{"_geoloc":{"lat":46.4826369,"lng":9.8335224},"city_name":"Sankt Moritz","country_name":"Switzerland","cuisine_type":"Italian","michelin_award":"MICHELIN_PLATE","name":"Enoteca","street":"Via Mezdi 27"},{"_geoloc":{"lat":46.7115885,"lng":9.5403887},"city_name":"Sporz / Lenzerheide","country_name":"Switzerland","cuisine_type":"Regional cuisine","michelin_award":"ONE_STAR","name":"Guarda Val","street":"Voa Sporz 85"},{"_geoloc":{"lat":46.2069987,"lng":6.147033},"city_name":"Genève","country_name":"Switzerland","cuisine_type":"Italian","michelin_award":"ONE_STAR","name":"Il Lago","street":"Quai des Bergues 33"},{"_geoloc":{"lat":47.1400245,"lng":7.3736608},"city_name":"Büren an der Aare","country_name":"Switzerland","cuisine_type":"Mediterranean","michelin_award":"BIB_GOURMAND","name":"Il Grano","street":"Ländte 38"},{"_geoloc":{"lat":47.1668742,"lng":8.2901803},"city_name":"Hochdorf","country_name":"Switzerland","cuisine_type":"Traditional cuisine","michelin_award":"BIB_GOURMAND","name":"Braui","street":"Brauiplatz 5"},{"_geoloc":{"lat":46.777487,"lng":9.1784106},"city_name":"Ilanz","country_name":"Switzerland","cuisine_type":"Country","michelin_award":"MICHELIN_PLATE","name":"Stiva Veglia","street":"Miez Vitg 6"},{"_geoloc":{"lat":46.21003,"lng":6.150915},"city_name":"Genève","country_name":"Switzerland","cuisine_type":"Italian","michelin_award":"MICHELIN_PLATE","name":"Il Vero","street":"Quai du Mont-Blanc 19"},{"_geoloc":{"lat":46.4933358,"lng":9.8047674},"city_name":"Sankt Moritz","country_name":"Switzerland","cuisine_type":"Traditional cuisine","michelin_award":"MICHELIN_PLATE","name":"el paradiso","street":"Via Engiadina"},{"_geoloc":{"lat":47.3651058,"lng":8.5211807},"city_name":"Zürich","country_name":"Switzerland","cuisine_type":"Creative","michelin_award":"ONE_STAR","name":"Maison Manesse","street":"Hopfenstrasse 2"},{"_geoloc":{"lat":47.0885091,"lng":7.375638},"city_name":"Scheunenberg","country_name":"Switzerland","cuisine_type":"Country","michelin_award":"BIB_GOURMAND","name":"Sonne - Bistro","street":"Scheunenberg 70"},{"_geoloc":{"lat":47.1284239,"lng":7.2166704},"city_name":"Biel","country_name":"Switzerland","cuisine_type":"Seafood","michelin_award":"MICHELIN_PLATE","name":"Gottstatterhaus","street":"Neuenburgstrasse 18"},{"_geoloc":{"lat":47.2684502,"lng":8.818755},"city_name":"Bubikon","country_name":"Switzerland","cuisine_type":"Mediterranean","michelin_award":"ONE_STAR","name":"Löwen - Apriori","street":"Wolfhauserstrasse 2"},{"_geoloc":{"lat":47.4082898,"lng":8.7262012},"city_name":"Illnau","country_name":"Switzerland","cuisine_type":"Creative","michelin_award":"MICHELIN_PLATE","name":"Rössli","street":"Kempttalstrasse 52"},{"_geoloc":{"lat":47.5548304,"lng":7.5884286},"city_name":"Basel","country_name":"Switzerland","cuisine_type":"Classic French","michelin_award":"BIB_GOURMAND","name":"au violon","street":"im Lohnhof 4"},{"_geoloc":{"lat":46.49313,"lng":6.71675},"city_name":"Grandvaux","country_name":"Switzerland","cuisine_type":"Modern cuisine","michelin_award":"MICHELIN_PLATE","name":"Tout un Monde","street":"Place du Village 7"},{"_geoloc":{"lat":45.994335,"lng":8.9459498},"city_name":"Lugano","country_name":"Switzerland","cuisine_type":"Mediterranean","michelin_award":"MICHELIN_PLATE","name":"I Due Sud","street":"riva Antonio Caccia 7"},{"_geoloc":{"lat":47.3488863,"lng":8.5633112},"city_name":"Zürich","country_name":"Switzerland","cuisine_type":"Italian","michelin_award":"MICHELIN_PLATE","name":"La Zagra","street":"Seefeldstrasse 273"},{"_geoloc":{"lat":47.0445482,"lng":8.3681378},"city_name":"Meggen","country_name":"Switzerland","cuisine_type":"Traditional cuisine","michelin_award":"BIB_GOURMAND","name":"La Pistache - Bistro","street":"Balmstrasse 3"},{"_geoloc":{"lat":47.1734155,"lng":7.7282221},"city_name":"Thörigen","country_name":"Switzerland","cuisine_type":"Classic French","michelin_award":"MICHELIN_PLATE","name":"Löwen","street":"Langenthalstrasse 1"},{"_geoloc":{"lat":47.3489623,"lng":7.9062088},"city_name":"Olten","country_name":"Switzerland","cuisine_type":"Classic cuisine","michelin_award":"BIB_GOURMAND","name":"Zollhaus","street":"Bahnhofstrasse 4"},{"_geoloc":{"lat":46.309736,"lng":7.5089287},"city_name":"Randogne","country_name":"Switzerland","cuisine_type":"Modern French","michelin_award":"MICHELIN_PLATE","name":"Le Rawyl","street":"Route Cantonale Sierre-Montana 3"},{"_geoloc":{"lat":47.437267,"lng":8.736194},"city_name":"Ottikon bei Kemptthal","country_name":"Switzerland","cuisine_type":"Country","michelin_award":"MICHELIN_PLATE","name":"First","street":"Schlossstrasse 2"},{"_geoloc":{"lat":46.8660261,"lng":7.4520301},"city_name":"Niedermuhlern","country_name":"Switzerland","cuisine_type":"Classic cuisine","michelin_award":"MICHELIN_PLATE","name":"Bachmühle","street":"Bachmühle 1"},{"_geoloc":{"lat":46.982555,"lng":9.5761762},"city_name":"Malans","country_name":"Switzerland","cuisine_type":"Classic cuisine","michelin_award":"MICHELIN_PLATE","name":"Weiss Kreuz","street":"Dorfplatz 1"},{"_geoloc":{"lat":46.9475113,"lng":7.4626301},"city_name":"Bern","country_name":"Switzerland","cuisine_type":"Classic cuisine","michelin_award":"MICHELIN_PLATE","name":"Brasserie Obstberg","street":"Bantigerstrasse 18"},{"_geoloc":{"lat":46.5184473,"lng":6.416268},"city_name":"Yens","country_name":"Switzerland","cuisine_type":"Traditional cuisine","michelin_award":"BIB_GOURMAND","name":"Auberge de la Croix d´Or - Bistro","street":"Grande-Rue 18"},{"_geoloc":{"lat":46.3108192,"lng":7.4982631},"city_name":"Crans-Montana","country_name":"Switzerland","cuisine_type":"Japanese","michelin_award":"BIB_GOURMAND","name":"Edo","street":"Route Sierre-Montana 43"},{"_geoloc":{"lat":46.0198173,"lng":7.7462776},"city_name":"Zermatt","country_name":"Switzerland","cuisine_type":"Creative","michelin_award":"ONE_STAR","name":"Alpine Gourmet Prato Borni","street":"Bahnhofstrasse 55"},{"_geoloc":{"lat":47.5227595,"lng":7.6450588},"city_name":"Muttenz","country_name":"Switzerland","cuisine_type":"Mediterranean","michelin_award":"MICHELIN_PLATE","name":"dr Egge - das restaurant","street":"Baselstrasse 1"},{"_geoloc":{"lat":46.929268,"lng":7.117568},"city_name":"Murten","country_name":"Switzerland","cuisine_type":"International","michelin_award":"BIB_GOURMAND","name":"Käserei","street":"Rathausgasse 34"},{"_geoloc":{"lat":47.5674677,"lng":9.1089095},"city_name":"Weinfelden","country_name":"Switzerland","cuisine_type":"Italian","michelin_award":"MICHELIN_PLATE","name":"Gambrinus","street":"Marktstrasse 2"},{"_geoloc":{"lat":47.3627031,"lng":8.4962445},"city_name":"Zürich","country_name":"Switzerland","cuisine_type":"International","michelin_award":"MICHELIN_PLATE","name":"Hide \u0026 Seek","street":"Döltschiweg 234"},{"_geoloc":{"lat":46.47098,"lng":6.42364},"city_name":"Buchillon","country_name":"Switzerland","cuisine_type":"Traditional cuisine","michelin_award":"MICHELIN_PLATE","name":"Au Vieux Navire","street":"Rue du Village 6c"},{"_geoloc":{"lat":46.1857392,"lng":6.1402293},"city_name":"Carouge","country_name":"Switzerland","cuisine_type":"Traditional cuisine","michelin_award":"MICHELIN_PLATE","name":"Café des Négociants","street":"Rue de la Filature 29"},{"_geoloc":{"lat":46.794712,"lng":7.1524787},"city_name":"Fribourg","country_name":"Switzerland","cuisine_type":"Modern cuisine","michelin_award":"MICHELIN_PLATE","name":"Café de la Fonderie","street":"Route de la Fonderie 11"},{"_geoloc":{"lat":46.6802285,"lng":8.7750427},"city_name":"Sedrun","country_name":"Switzerland","cuisine_type":"Seasonal Cuisine","michelin_award":"MICHELIN_PLATE","name":"La Cruna","street":"Via Alpsu 65"},{"_geoloc":{"lat":46.4977215,"lng":9.8412784},"city_name":"Sankt Moritz","country_name":"Switzerland","cuisine_type":"Fusion","michelin_award":"MICHELIN_PLATE","name":"La Coupole - Matsuhisa","street":"Via Serlas 27"},{"_geoloc":{"lat":47.0000505,"lng":9.5027533},"city_name":"Bad Ragaz","country_name":"Switzerland","cuisine_type":"Modern cuisine","michelin_award":"TWO_STARS","name":"Memories","street":"Bernhard-Simon-Strasse 2"},{"_geoloc":{"lat":47.13529,"lng":9.09747},"city_name":"Weesen","country_name":"Switzerland","cuisine_type":"Seafood","michelin_award":"MICHELIN_PLATE","name":"Fischerstube","street":"Marktgasse 9"},{"_geoloc":{"lat":46.6045883,"lng":7.9229369},"city_name":"Wengen","country_name":"Switzerland","cuisine_type":"Classic French","michelin_award":"MICHELIN_PLATE","name":"Chez Meyer's","street":"Dorf"},{"_geoloc":{"lat":47.1660593,"lng":8.5150035},"city_name":"Zug","country_name":"Switzerland","cuisine_type":"Classic cuisine","michelin_award":"BIB_GOURMAND","name":"Rathauskeller Bistro","street":"Ober-Altstadt 1"},{"_geoloc":{"lat":46.744686,"lng":7.634247},"city_name":"Thun","country_name":"Switzerland","cuisine_type":"Modern cuisine","michelin_award":"ONE_STAR","name":"dasRestaurant","street":"Seestrasse 47"},{"_geoloc":{"lat":46.9474,"lng":6.85328},"city_name":"Cortaillod","country_name":"Switzerland","cuisine_type":"Traditional cuisine","michelin_award":"MICHELIN_PLATE","name":"Le Buffet d'un Tram","street":"Avenue François-Borel 3"},{"_geoloc":{"lat":46.9891585,"lng":6.9288368},"city_name":"Neuchâtel","country_name":"Switzerland","cuisine_type":"Modern French","michelin_award":"MICHELIN_PLATE","name":"O'Terroirs","street":"Esplanade du Mont-Blanc 1"},{"_geoloc":{"lat":46.52509,"lng":6.633558},"city_name":"Lausanne","country_name":"Switzerland","cuisine_type":"Classic French","michelin_award":"MICHELIN_PLATE","name":"Le P'tit Lausannois","street":"Rue du Tunnel 14"},{"_geoloc":{"lat":47.5451213,"lng":7.5636719},"city_name":"Binningen","country_name":"Switzerland","cuisine_type":"Classic French","michelin_award":"MICHELIN_PLATE","name":"Gasthof Neubad","street":"Neubadrain 4"},{"_geoloc":{"lat":46.112076,"lng":7.9303551},"city_name":"Saas Fee","country_name":"Switzerland","cuisine_type":"Classic French","michelin_award":"MICHELIN_PLATE","name":"Swiss Chalet","street":"Lomattenstrasse 35"},{"_geoloc":{"lat":46.4977033,"lng":9.8412809},"city_name":"Sankt Moritz","country_name":"Switzerland","cuisine_type":"Creative","michelin_award":"TWO_STARS","name":"IGNIV by Andreas Caminada","street":"Via Serlas 27"},{"_geoloc":{"lat":47.5488625,"lng":7.5360152},"city_name":"Allschwil","country_name":"Switzerland","cuisine_type":"French","michelin_award":"MICHELIN_PLATE","name":"Mühle","street":"Mühlebachweg 41"},{"_geoloc":{"lat":46.7352612,"lng":8.023246},"city_name":"Brienz","country_name":"Switzerland","cuisine_type":"Classic French","michelin_award":"MICHELIN_PLATE","name":"Le Tapis Rouge","street":"Axalpstrasse"},{"_geoloc":{"lat":47.0007975,"lng":9.503637},"city_name":"Bad Ragaz","country_name":"Switzerland","cuisine_type":"Asian","michelin_award":"MICHELIN_PLATE","name":"Namun","street":"Bernhard-Simon-Strasse 2"},{"_geoloc":{"lat":46.195568,"lng":7.839421},"city_name":"Grächen","country_name":"Switzerland","cuisine_type":"Country","michelin_award":"MICHELIN_PLATE","name":"Walliserkanne","street":"Dorfstrasse 492"},{"_geoloc":{"lat":47.3902777,"lng":9.3877987},"city_name":"Teufen","country_name":"Switzerland","cuisine_type":"International","michelin_award":"BIB_GOURMAND","name":"Anker","street":"Dorf 10"},{"_geoloc":{"lat":47.0482083,"lng":8.4640055},"city_name":"Rigi Kaltbad","country_name":"Switzerland","cuisine_type":"Swiss","michelin_award":"MICHELIN_PLATE","name":"Bistrot by Regina Montium","street":"Staffelhöhenweg 61"},{"_geoloc":{"lat":47.6470309,"lng":9.1961056},"city_name":"Kreuzlingen","country_name":"Switzerland","cuisine_type":"Classic French","michelin_award":"MICHELIN_PLATE","name":"Seegarten","street":"Promenadenstrasse 40"},{"_geoloc":{"lat":47.0265842,"lng":9.5133168},"city_name":"Fläsch","country_name":"Switzerland","cuisine_type":"Classic cuisine","michelin_award":"MICHELIN_PLATE","name":"Adler","street":"Krüzgass 6"},{"_geoloc":{"lat":47.06433,"lng":8.13374},"city_name":"Sigigen","country_name":"Switzerland","cuisine_type":"Swiss","michelin_award":"MICHELIN_PLATE","name":"Restaurant Pony","street":"Grabenstrasse 1"},{"_geoloc":{"lat":46.5329547,"lng":7.6651377},"city_name":"Blausee-Mitholz","country_name":"Switzerland","cuisine_type":"Country","michelin_award":"MICHELIN_PLATE","name":"Blausee","street":"Blausee 222"},{"_geoloc":{"lat":46.511566,"lng":6.6290426},"city_name":"Lausanne","country_name":"Switzerland","cuisine_type":"Classic French","michelin_award":"MICHELIN_PLATE","name":"La Brasserie du Royal","street":"Avenue d'Ouchy 40"},{"_geoloc":{"lat":46.3484379,"lng":6.1998185},"city_name":"Céligny","country_name":"Switzerland","cuisine_type":"Traditional cuisine","michelin_award":"MICHELIN_PLATE","name":"Buffet de la Gare","street":"Route de Founex 25"},{"_geoloc":{"lat":46.7696736,"lng":9.0577016},"city_name":"Breil","country_name":"Switzerland","cuisine_type":"Traditional cuisine","michelin_award":"MICHELIN_PLATE","name":"Ustria Miracla","street":"Palius 18"},{"_geoloc":{"lat":47.3723035,"lng":8.5406871},"city_name":"Zürich","country_name":"Switzerland","cuisine_type":"Classic French","michelin_award":"MICHELIN_PLATE","name":"Kindli","street":"Pfalzgasse 1"},{"_geoloc":{"lat":47.1507797,"lng":8.1674551},"city_name":"Eich","country_name":"Switzerland","cuisine_type":"Swiss","michelin_award":"MICHELIN_PLATE","name":"Sonne","street":"Seestrasse 23"},{"_geoloc":{"lat":46.55665,"lng":6.68678},"city_name":"Lausanne","country_name":"Switzerland","cuisine_type":"Japanese","michelin_award":"MICHELIN_PLATE","name":"Miyako","street":"Place du Port 17"},{"_geoloc":{"lat":46.4583989,"lng":6.8485824},"city_name":"Vevey","country_name":"Switzerland","cuisine_type":"Creative","michelin_award":"ONE_STAR","name":"Denis Martin","street":"Rue du Château 2"},{"_geoloc":{"lat":46.511597,"lng":6.629689},"city_name":"Lausanne","country_name":"Switzerland","cuisine_type":"Mediterranean","michelin_award":"MICHELIN_PLATE","name":"La Croix d'Ouchy","street":"Avenue d'Ouchy 43"},{"_geoloc":{"lat":46.5277284,"lng":6.4694431},"city_name":"Vufflens-le-Château","country_name":"Switzerland","cuisine_type":"Classic cuisine","michelin_award":"ONE_STAR","name":"L'Ermitage","street":"Route du Village 26"},{"_geoloc":{"lat":46.1683239,"lng":8.7576949},"city_name":"Losone","country_name":"Switzerland","cuisine_type":"Mediterranean","michelin_award":"MICHELIN_PLATE","name":"Osteria dell'Enoteca","street":"contrada Maggiore 24"},{"_geoloc":{"lat":47.2814895,"lng":7.7534527},"city_name":"Kestenholz","country_name":"Switzerland","cuisine_type":"International","michelin_award":"BIB_GOURMAND","name":"Eintracht","street":"Neue Strasse 6"},{"_geoloc":{"lat":47.0611802,"lng":8.6212395},"city_name":"Steinen","country_name":"Switzerland","cuisine_type":"Classic French","michelin_award":"TWO_STARS","name":"Adelboden","street":"Schlagstrasse"},{"_geoloc":{"lat":46.8024613,"lng":9.8354763},"city_name":"Davos Platz","country_name":"Switzerland","cuisine_type":"Modern French","michelin_award":"ONE_STAR","name":"Glow by Armin Amrein","street":"Promenade 115"},{"_geoloc":{"lat":46.477774,"lng":9.8109252},"city_name":"Champfèr (Sankt Moritz)","country_name":"Switzerland","cuisine_type":"Country","michelin_award":"BIB_GOURMAND","name":"Stüva","street":"Via Maistra 3"},{"_geoloc":{"lat":46.82785,"lng":6.66196},"city_name":"Champagne","country_name":"Switzerland","cuisine_type":"Modern cuisine","michelin_award":"MICHELIN_PLATE","name":"Le 1424, La Fabrique Cornu","street":"Chemin de Praz 2"},{"_geoloc":{"lat":45.931217,"lng":8.958444},"city_name":"Riva San Vitale","country_name":"Switzerland","cuisine_type":"Modern cuisine","michelin_award":"MICHELIN_PLATE","name":"Porto Pojana Ristorante Terminus","street":"Via Poiana 53"},{"_geoloc":{"lat":46.9318556,"lng":8.390924},"city_name":"Dallenwil","country_name":"Switzerland","cuisine_type":"Classic cuisine","michelin_award":"ONE_STAR","name":"Gasthaus zum Kreuz","street":"Stellistrasse 3"},{"_geoloc":{"lat":46.663893,"lng":7.8601359},"city_name":"Wilderswil","country_name":"Switzerland","cuisine_type":"Country","michelin_award":"BIB_GOURMAND","name":"Alpenblick - Bistro","street":"Oberdorfstrasse 3"},{"_geoloc":{"lat":47.3909032,"lng":8.0450229},"city_name":"Aarau","country_name":"Switzerland","cuisine_type":"International","michelin_award":"BIB_GOURMAND","name":"Beluga","street":"Vordere Vorstadt 17"},{"_geoloc":{"lat":46.2017507,"lng":6.1438513},"city_name":"Genève","country_name":"Switzerland","cuisine_type":"Italian","michelin_award":"ONE_STAR","name":"La Bottega","street":"Rue de La Corraterie 21"},{"_geoloc":{"lat":47.450773,"lng":9.3964148},"city_name":"Wittenbach","country_name":"Switzerland","cuisine_type":"Creative","michelin_award":"ONE_STAR","name":"Segreto","street":"Abacus Platz 1"},{"_geoloc":{"lat":47.3040668,"lng":8.0508075},"city_name":"Schöftland","country_name":"Switzerland","cuisine_type":"Modern cuisine","michelin_award":"BIB_GOURMAND","name":"Schlossgarten","street":"Dorfstrasse 3"},{"_geoloc":{"lat":46.2100885,"lng":6.1482193},"city_name":"Genève","country_name":"Switzerland","cuisine_type":"Traditional cuisine","michelin_award":"MICHELIN_PLATE","name":"Bistrot du Boeuf Rouge","street":"Rue Dr. Alfred-Vincent 17"},{"_geoloc":{"lat":46.8182545,"lng":8.4248407},"city_name":"Engelberg","country_name":"Switzerland","cuisine_type":"Country","michelin_award":"MICHELIN_PLATE","name":"Wirtschaft zum Schweizerhaus","street":"Schweizerhausstrasse 41"},{"_geoloc":{"lat":47.0083015,"lng":8.4831831},"city_name":"Vitznau","country_name":"Switzerland","cuisine_type":"International","michelin_award":"MICHELIN_PLATE","name":"Inspiration","street":"Seestrasse 80"},{"_geoloc":{"lat":47.19579,"lng":7.17859},"city_name":"Sonceboz","country_name":"Switzerland","cuisine_type":"Regional cuisine","michelin_award":"BIB_GOURMAND","name":"Brasserie","street":"Rue du Collège 4"},{"_geoloc":{"lat":46.365367,"lng":6.8749489},"city_name":"Les Evouettes","country_name":"Switzerland","cuisine_type":"Classic French","michelin_award":"MICHELIN_PLATE","name":"Le Maguet","street":"Route Cantonale 95"},{"_geoloc":{"lat":46.9949026,"lng":8.4026982},"city_name":"Ennetbürgen","country_name":"Switzerland","cuisine_type":"Market cuisine","michelin_award":"MICHELIN_PLATE","name":"Villa Honegg","street":"Honegg"},{"_geoloc":{"lat":46.5343262,"lng":6.5412414},"city_name":"Echandens","country_name":"Switzerland","cuisine_type":"Classic French","michelin_award":"BIB_GOURMAND","name":"Auberge Communale","street":"Place du Saugey 8"},{"_geoloc":{"lat":47.6319383,"lng":8.8012247},"city_name":"Oberstammheim","country_name":"Switzerland","cuisine_type":"Country","michelin_award":"BIB_GOURMAND","name":"Hirschen","street":"Steigstrasse 4"},{"_geoloc":{"lat":47.1245,"lng":9.31374},"city_name":"Walenstadt","country_name":"Switzerland","cuisine_type":"Modern cuisine","michelin_award":"MICHELIN_PLATE","name":"Löwen","street":"Seestrasse 20"},{"_geoloc":{"lat":47.2142963,"lng":8.6814569},"city_name":"Wädenswil","country_name":"Switzerland","cuisine_type":"Market cuisine","michelin_award":"MICHELIN_PLATE","name":"Eder's Eichmühle","street":"Eichmühle 2"},{"_geoloc":{"lat":46.4777473,"lng":9.8110408},"city_name":"Champfèr (Sankt Moritz)","country_name":"Switzerland","cuisine_type":"Mediterranean","michelin_award":"MICHELIN_PLATE","name":"Hide \u0026 Seek","street":"Via Maistra 3"},{"_geoloc":{"lat":47.0003991,"lng":9.5022986},"city_name":"Bad Ragaz","country_name":"Switzerland","cuisine_type":"Creative","michelin_award":"TWO_STARS","name":"IGNIV by Andreas Caminada","street":"Bernhard-Simon-Strasse 2"},{"_geoloc":{"lat":46.43519,"lng":6.21767},"city_name":"Genolier","country_name":"Switzerland","cuisine_type":"Modern cuisine","michelin_award":"MICHELIN_PLATE","name":"Auberge des Trois Tilleuls","street":"Place du Village 9"},{"_geoloc":{"lat":47.3763628,"lng":8.5163602},"city_name":"Zürich","country_name":"Switzerland","cuisine_type":"Country","michelin_award":"MICHELIN_PLATE","name":"Rosi","street":"Sihlfeldstrasse 89"},{"_geoloc":{"lat":46.3153104,"lng":7.4631886},"city_name":"Crans-Montana","country_name":"Switzerland","cuisine_type":"Modern French","michelin_award":"ONE_STAR","name":"Le MontBlanc","street":"Chemin du Mont-Blanc 1"},{"_geoloc":{"lat":46.0015365,"lng":7.7302936},"city_name":"Zermatt","country_name":"Switzerland","cuisine_type":"Creative","michelin_award":"BIB_GOURMAND","name":"Aroleid Kollektive","street":"Furi 151"},{"_geoloc":{"lat":46.61429,"lng":6.63859},"city_name":"Assens","country_name":"Switzerland","cuisine_type":"Grills","michelin_award":"MICHELIN_PLATE","name":"Le Moulin d'Assens","street":"Route du Moulin 15"},{"_geoloc":{"lat":47.1999185,"lng":7.7381439},"city_name":"Thunstetten","country_name":"Switzerland","cuisine_type":"International","michelin_award":"MICHELIN_PLATE","name":"Forst","street":"Forst 101"},{"_geoloc":{"lat":46.2216995,"lng":7.5949807},"city_name":"Saint-Luc","country_name":"Switzerland","cuisine_type":"Classic cuisine","michelin_award":"MICHELIN_PLATE","name":"Chez Ida","street":"Rue Principale 8"},{"_geoloc":{"lat":47.3882068,"lng":8.5533404},"city_name":"Zürich","country_name":"Switzerland","cuisine_type":"Market cuisine","michelin_award":"BIB_GOURMAND","name":"Rigiblick - Bistro","street":"Germaniastrasse 99"},{"_geoloc":{"lat":46.9105202,"lng":7.1519376},"city_name":"Salvenach","country_name":"Switzerland","cuisine_type":"Country","michelin_award":"MICHELIN_PLATE","name":"La Maison Salvagny","street":"Maedergässli 2"},{"_geoloc":{"lat":47.3260059,"lng":8.5450314},"city_name":"Kilchberg","country_name":"Switzerland","cuisine_type":"Market cuisine","michelin_award":"MICHELIN_PLATE","name":"Oberer Mönchhof","street":"Alte Landstrasse 98"},{"_geoloc":{"lat":46.240047,"lng":7.359938},"city_name":"Sion","country_name":"Switzerland","cuisine_type":"Creative","michelin_award":"MICHELIN_PLATE","name":"La Sitterie","street":"Route du Rawyl 41"},{"_geoloc":{"lat":47.3670912,"lng":8.5395326},"city_name":"Zürich","country_name":"Switzerland","cuisine_type":"Classic French","michelin_award":"TWO_STARS","name":"Pavillon","street":"Talstrasse 1"},{"_geoloc":{"lat":47.0463482,"lng":9.4185999},"city_name":"Mels","country_name":"Switzerland","cuisine_type":"Classic cuisine","michelin_award":"ONE_STAR","name":"Schlüssel - Nidbergstube","street":"Oberdorfstrasse 5"},{"_geoloc":{"lat":47.3643935,"lng":8.547047},"city_name":"Zürich","country_name":"Switzerland","cuisine_type":"Classic cuisine","michelin_award":"MICHELIN_PLATE","name":"Opera","street":"Dufourstrasse 2"},{"_geoloc":{"lat":47.3725845,"lng":8.5731761},"city_name":"Zürich","country_name":"Switzerland","cuisine_type":"International","michelin_award":"MICHELIN_PLATE","name":"Saltz","street":"Kurhausstrasse 65"},{"_geoloc":{"lat":47.462061,"lng":9.047589},"city_name":"Wil","country_name":"Switzerland","cuisine_type":"Traditional cuisine","michelin_award":"MICHELIN_PLATE","name":"Rössli","street":"Toggenburgerstrasse 17"},{"_geoloc":{"lat":45.9301812,"lng":8.9211431},"city_name":"Vico Morcote","country_name":"Switzerland","cuisine_type":"Creative","michelin_award":"MICHELIN_PLATE","name":"La Sorgente","street":"portic da Sura 18"},{"_geoloc":{"lat":47.008021,"lng":8.4826863},"city_name":"Vitznau","country_name":"Switzerland","cuisine_type":"Modern cuisine","michelin_award":"ONE_STAR","name":"Sens","street":"Seestrasse 80"},{"_geoloc":{"lat":46.49244,"lng":7.68191},"city_name":"Kandersteg","country_name":"Switzerland","cuisine_type":"Swiss","michelin_award":"MICHELIN_PLATE","name":"Ruedihus - Biedermeier Stuben","street":"Hinder de Büele"},{"_geoloc":{"lat":46.779583,"lng":10.264588},"city_name":"Tarasp","country_name":"Switzerland","cuisine_type":"Classic French","michelin_award":"MICHELIN_PLATE","name":"Restaurant Chastè","street":"Sparsels"},{"_geoloc":{"lat":46.6257237,"lng":8.031692},"city_name":"Grindelwald","country_name":"Switzerland","cuisine_type":"Classic French","michelin_award":"MICHELIN_PLATE","name":"Schweizerhof","street":"Swiss Alp Resort 1"},{"_geoloc":{"lat":47.55585,"lng":7.58646},"city_name":"Basel","country_name":"Switzerland","cuisine_type":"Classic French","michelin_award":"ONE_STAR","name":"Bel Etage","street":"Leonhardsgraben 49"},{"_geoloc":{"lat":47.142174,"lng":7.2459316},"city_name":"Biel","country_name":"Switzerland","cuisine_type":"Thai","michelin_award":"MICHELIN_PLATE","name":"Zum Thailänder","street":"Brunngasse 4"},{"_geoloc":{"lat":47.3734854,"lng":8.5429159},"city_name":"Zürich","country_name":"Switzerland","cuisine_type":"Seafood","michelin_award":"MICHELIN_PLATE","name":"Bianchi","street":"Limmatquai 82"},{"_geoloc":{"lat":46.022954,"lng":7.7477307},"city_name":"Zermatt","country_name":"Switzerland","cuisine_type":"Fusion","michelin_award":"MICHELIN_PLATE","name":"La Muña","street":"Bahnhofstrasse 5"},{"_geoloc":{"lat":46.20239,"lng":6.14479},"city_name":"Genève","country_name":"Switzerland","cuisine_type":"Italian","michelin_award":"MICHELIN_PLATE","name":"Osteria della Bottega","street":"Grand Rue 3"},{"_geoloc":{"lat":46.7741921,"lng":9.2071158},"city_name":"Ilanz","country_name":"Switzerland","cuisine_type":"Country","michelin_award":"BIB_GOURMAND","name":"Casa Casutt","street":"Glennerstrasse 18"},{"_geoloc":{"lat":46.22327,"lng":6.14375},"city_name":"Genève","country_name":"Switzerland","cuisine_type":"French","michelin_award":"MICHELIN_PLATE","name":"Vieux-Bois","street":"Avenue de la Paix 12"},{"_geoloc":{"lat":46.0644094,"lng":8.9300034},"city_name":"Taverne","country_name":"Switzerland","cuisine_type":"Mediterranean","michelin_award":"MICHELIN_PLATE","name":"Motto del Gallo","street":"via Bicentenario 16"},{"_geoloc":{"lat":46.9833889,"lng":8.3116543},"city_name":"Hergiswil","country_name":"Switzerland","cuisine_type":"Country","michelin_award":"BIB_GOURMAND","name":"Seebistro Belvédère","street":"Seestrasse 18a"},{"_geoloc":{"lat":47.3155646,"lng":8.5800672},