{"exhaustiveNbHits":false,"hits":[{"_geoloc":{"lat":44.5597997,"lng":11.2322376},"city_name":"SACERNO","country_name":"Italy","cuisine_type":"Seafood","michelin_award":"MICHELIN_PLATE","name":"Antica Trattoria di Sacerno","street":"via di Mezzo Levante 2/b"},{"_geoloc":{"lat":44.8847909,"lng":7.3320196},"city_name":"PINEROLO","country_name":"Italy","cuisine_type":"Modern cuisine","michelin_award":"ONE_STAR","name":"Zappatori","street":"corso Torino 34"},{"_geoloc":{"lat":40.556713,"lng":8.314074},"city_name":"ALGHERO","country_name":"Italy","cuisine_type":"Seafood","michelin_award":"MICHELIN_PLATE","name":"Al Tuguri","street":"via Maiorca 113/115"},{"_geoloc":{"lat":43.8458125,"lng":10.5030555},"city_name":"LUCCA","country_name":"Italy","cuisine_type":"Creative","michelin_award":"MICHELIN_PLATE","name":"L'Imbuto","street":"piazza del Collegio 8"},{"_geoloc":{"lat":40.7542698,"lng":13.8847984},"city_name":"LACCO AMENO","country_name":"Italy","cuisine_type":"Creative","michelin_award":"ONE_STAR","name":"Indaco","street":"piazza Restituta 1"},{"_geoloc":{"lat":44.5139886,"lng":9.0436081},"city_name":"MONTOGGIO","country_name":"Italy","cuisine_type":"Ligurian","michelin_award":"BIB_GOURMAND","name":"Roma","street":"via Roma 15"},{"_geoloc":{"lat":45.4507347,"lng":11.5324236},"city_name":"SOGHE","country_name":"Italy","cuisine_type":"Venetian","michelin_award":"MICHELIN_PLATE","name":"Antica Osteria da Penacio","street":"Via Soghe 37"},{"_geoloc":{"lat":41.0529512,"lng":9.4460803},"city_name":"San Pantaleo","country_name":"Italy","cuisine_type":"Italian contemporary","michelin_award":"MICHELIN_PLATE","name":"Il Fuoco sacro","street":"strada di Buddeo"},{"_geoloc":{"lat":41.26526,"lng":15.90346},"city_name":"Cerignola","country_name":"Italy","cuisine_type":"Apulian","michelin_award":"MICHELIN_PLATE","name":"U' Vulesce","street":"via Cesare Battisti 3"},{"_geoloc":{"lat":41.86864,"lng":12.44951},"city_name":"Roma","country_name":"Italy","cuisine_type":"Seafood","michelin_award":"MICHELIN_PLATE","name":"Trattoria del Pesce","street":"via Folco Portinari 27"},{"_geoloc":{"lat":45.63663,"lng":9.8715},"city_name":"Grumello del Monte","country_name":"Italy","cuisine_type":"Regional cuisine","michelin_award":"MICHELIN_PLATE","name":"Vino Buono","street":"via Castello 20"},{"_geoloc":{"lat":44.3663483,"lng":9.1466721},"city_name":"RECCO","country_name":"Italy","cuisine_type":"Seafood","michelin_award":"MICHELIN_PLATE","name":"Da ö Vittorio","street":"via Roma 160"},{"_geoloc":{"lat":45.6710255,"lng":12.5511325},"city_name":"NOVENTA DI PIAVE","country_name":"Italy","cuisine_type":"Seafood","michelin_award":"MICHELIN_PLATE","name":"Guaiane","street":"via Guaiane 146"},{"_geoloc":{"lat":44.200314,"lng":12.396823},"city_name":"CESENATICO","country_name":"Italy","cuisine_type":"Seafood","michelin_award":"BIB_GOURMAND","name":"Osteria Bartolini","street":"corso Garibaldi 41"},{"_geoloc":{"lat":42.04626,"lng":13.92511},"city_name":"SULMONA","country_name":"Italy","cuisine_type":"Cuisine from Abruzzo","michelin_award":"MICHELIN_PLATE","name":"Gino","street":"piazza Plebiscito 12"},{"_geoloc":{"lat":45.7387983,"lng":7.3262368},"city_name":"Aosta/Aoste","country_name":"Italy","cuisine_type":"Regional cuisine","michelin_award":"BIB_GOURMAND","name":"Osteria da Nando","street":"via Sant'Anselmo 99"},{"_geoloc":{"lat":45.49815,"lng":9.225334},"city_name":"Milano","country_name":"Italy","cuisine_type":"Modern cuisine","michelin_award":"MICHELIN_PLATE","name":"Manna","street":"piazzale Governo Provvisorio 6"},{"_geoloc":{"lat":45.48181,"lng":9.22263},"city_name":"Milano","country_name":"Italy","cuisine_type":"Vietnamese","michelin_award":"MICHELIN_PLATE","name":"Vietnamonamour","street":"via A. Pestalozza 7"},{"_geoloc":{"lat":46.7212495,"lng":10.8592315},"city_name":"Madonna di Senales/Unserfrau","country_name":"Italy","cuisine_type":"Traditional cuisine","michelin_award":"MICHELIN_PLATE","name":"Oberraindlhof","street":"Raindl 49, Sud-Est: 2 km"},{"_geoloc":{"lat":45.443264,"lng":9.151073},"city_name":"Milano","country_name":"Italy","cuisine_type":"Modern cuisine","michelin_award":"ONE_STAR","name":"Lume by Luigi Taglienti","street":"via Watt 37"},{"_geoloc":{"lat":44.2701607,"lng":9.3942298},"city_name":"SESTRI LEVANTE","country_name":"Italy","cuisine_type":"Creative","michelin_award":"MICHELIN_PLATE","name":"Capocotta","street":"vico Macelli 8"},{"_geoloc":{"lat":42.7925634,"lng":13.0920268},"city_name":"NORCIA","country_name":"Italy","cuisine_type":"Modern cuisine","michelin_award":"ONE_STAR","name":"Vespasia","street":"via Cesare Battisti 10"},{"_geoloc":{"lat":43.42191,"lng":11.34798},"city_name":"VAGLIAGLI","country_name":"Italy","cuisine_type":"Regional cuisine","michelin_award":"MICHELIN_PLATE","name":"La Taverna di Vagliagli","street":"via del Sergente 4"},{"_geoloc":{"lat":44.7401454,"lng":8.3182743},"city_name":"SAN MARZANO OLIVETO","country_name":"Italy","cuisine_type":"Piedmontese","michelin_award":"MICHELIN_PLATE","name":"Del Belbo-da Bardon","street":"valle Asinari 25"},{"_geoloc":{"lat":45.02062,"lng":10.09059},"city_name":"POLESINE PARMENSE","country_name":"Italy","cuisine_type":"Emilian","michelin_award":"MICHELIN_PLATE","name":"Al Cavallino Bianco","street":"via Sbrisi 3"},{"_geoloc":{"lat":44.04829,"lng":10.139887},"city_name":"MASSA","country_name":"Italy","cuisine_type":"Modern cuisine","michelin_award":"MICHELIN_PLATE","name":"Il Trillo","street":"via Bergiola Vecchia 30"},{"_geoloc":{"lat":38.1139931,"lng":15.6505925},"city_name":"Reggio di Calabria","country_name":"Italy","cuisine_type":"Seafood","michelin_award":"MICHELIN_PLATE","name":"L'A Gourmet L'Accademia","street":"via Largo C. Colombo 6"},{"_geoloc":{"lat":45.3950673,"lng":11.2707075},"city_name":"SAN BONIFACIO","country_name":"Italy","cuisine_type":"Creative","michelin_award":"ONE_STAR","name":"Degusto Cuisine","street":"via Camporosolo 9/a"},{"_geoloc":{"lat":45.0688068,"lng":11.7918426},"city_name":"ROVIGO","country_name":"Italy","cuisine_type":"Regional cuisine","michelin_award":"MICHELIN_PLATE","name":"Tavernetta Dante 1936","street":"corso del Popolo 212"},{"_geoloc":{"lat":44.493474,"lng":11.3412365},"city_name":"Bologna","country_name":"Italy","cuisine_type":"Regional cuisine","michelin_award":"MICHELIN_PLATE","name":"Trattoria Battibecco","street":"via Battibecco 4"},{"_geoloc":{"lat":40.6274841,"lng":14.4893297},"city_name":"POSITANO","country_name":"Italy","cuisine_type":"Modern cuisine","michelin_award":"MICHELIN_PLATE","name":"Rada","street":"via Grotte dell'Incanto 51"},{"_geoloc":{"lat":45.5208125,"lng":10.2753217},"city_name":"SANT'EUFEMIA DELLA FONTE","country_name":"Italy","cuisine_type":"Seafood","michelin_award":"MICHELIN_PLATE","name":"La Piazzetta","street":"via Indipendenza 87/c"},{"_geoloc":{"lat":41.280422,"lng":16.422161},"city_name":"TRANI","country_name":"Italy","cuisine_type":"Mediterranean","michelin_award":"MICHELIN_PLATE","name":"Le Lampare al Fortino","street":"via Statuti Marittimi 124 (molo S. Antonio)"},{"_geoloc":{"lat":46.3655335,"lng":11.3530961},"city_name":"Aldein/Aldino","country_name":"Italy","cuisine_type":"Seafood","michelin_award":"MICHELIN_PLATE","name":"Ploner","street":"via Dachselweg 1"},{"_geoloc":{"lat":43.8722767,"lng":10.2482771},"city_name":"VIAREGGIO","country_name":"Italy","cuisine_type":"Seafood","michelin_award":"ONE_STAR","name":"Romano","street":"via Mazzini 120"},{"_geoloc":{"lat":38.55863,"lng":14.87111},"city_name":"Santa Marina Salina","country_name":"Italy","cuisine_type":"Seafood","michelin_award":"MICHELIN_PLATE","name":"Nni Lausta","street":"via Risorgimento 188, località Santa Marina Salina"},{"_geoloc":{"lat":40.54961,"lng":14.24475},"city_name":"CAPRI","country_name":"Italy","cuisine_type":"Modern cuisine","michelin_award":"MICHELIN_PLATE","name":"Rendez Vous","street":"via Camerelle 2"},{"_geoloc":{"lat":45.4800057,"lng":9.1953646},"city_name":"Milano","country_name":"Italy","cuisine_type":"Modern cuisine","michelin_award":"MICHELIN_PLATE","name":"Tre Cristi","street":"via Galileo Galilei 5"},{"_geoloc":{"lat":42.8055611,"lng":10.2000785},"city_name":"MARCIANA MARINA","country_name":"Italy","cuisine_type":"Seafood","michelin_award":"MICHELIN_PLATE","name":"SaleGrosso","street":"piazza della Vittoria 14"},{"_geoloc":{"lat":46.1511,"lng":10.76764},"city_name":"GIUSTINO","country_name":"Italy","cuisine_type":"Regional cuisine","michelin_award":"MICHELIN_PLATE","name":"Mildas","street":"via Rosmini 7, località Vadaione"},{"_geoloc":{"lat":45.51408,"lng":10.47697},"city_name":"Carzago Riviera","country_name":"Italy","cuisine_type":"Modern cuisine","michelin_award":"MICHELIN_PLATE","name":"Il Moretto","street":"via Arzaga 1, località Calvagese della Riviera"},{"_geoloc":{"lat":40.6283391,"lng":14.4841948},"city_name":"POSITANO","country_name":"Italy","cuisine_type":"Modern cuisine","michelin_award":"MICHELIN_PLATE","name":"Li Galli","street":"viale Pasitea 318"},{"_geoloc":{"lat":41.89051,"lng":12.471355},"city_name":"Roma","country_name":"Italy","cuisine_type":"Seafood","michelin_award":"MICHELIN_PLATE","name":"Vizi Capitali","street":"vicolo dell'Arenella 94"},{"_geoloc":{"lat":41.9198005,"lng":12.4812511},"city_name":"Parioli","country_name":"Italy","cuisine_type":"Italian","michelin_award":"MICHELIN_PLATE","name":"Sapori del Lord Byron","street":"via G. De Notaris 5"},{"_geoloc":{"lat":45.5701204,"lng":12.1244128},"city_name":"SCORZÈ","country_name":"Italy","cuisine_type":"Regional cuisine","michelin_award":"MICHELIN_PLATE","name":"Osteria Perbacco","street":"via Moglianese 37"},{"_geoloc":{"lat":45.44995,"lng":9.20763},"city_name":"Milano","country_name":"Italy","cuisine_type":"Japanese","michelin_award":"MICHELIN_PLATE","name":"Finger's","street":"via San Gerolamo Emiliani 2"},{"_geoloc":{"lat":45.8147902,"lng":9.5328321},"city_name":"Sant'Omobono Terme","country_name":"Italy","cuisine_type":"Lombardian","michelin_award":"MICHELIN_PLATE","name":"Posta","street":"viale Vittorio Veneto 169"},{"_geoloc":{"lat":44.1452613,"lng":9.6465188},"city_name":"MONTEROSSO AL MARE","country_name":"Italy","cuisine_type":"Seafood","michelin_award":"MICHELIN_PLATE","name":"Da Miky","street":"via Fegina 104"},{"_geoloc":{"lat":45.6756778,"lng":9.7692511},"city_name":"BRUSAPORTO","country_name":"Italy","cuisine_type":"Modern cuisine","michelin_award":"THREE_STARS","name":"Da Vittorio","street":"via Cantalupa 17"},{"_geoloc":{"lat":45.477122,"lng":9.2042234},"city_name":"Milano","country_name":"Italy","cuisine_type":"Modern cuisine","michelin_award":"MICHELIN_PLATE","name":"Trattoria Trombetta","street":"largo Bellintani 1"},{"_geoloc":{"lat":45.49088,"lng":9.19528},"city_name":"Milano","country_name":"Italy","cuisine_type":"Grills","michelin_award":"MICHELIN_PLATE","name":"Barbacoa","street":"via delle Abbadesse 30"},{"_geoloc":{"lat":45.07593,"lng":7.68199},"city_name":"Torino","country_name":"Italy","cuisine_type":"Country","michelin_award":"MICHELIN_PLATE","name":"Tre Galline","street":"via Bellezia 37"},{"_geoloc":{"lat":40.72736,"lng":13.959096},"city_name":"ISCHIA","country_name":"Italy","cuisine_type":"Seafood","michelin_award":"MICHELIN_PLATE","name":"Giardino Eden","street":"via Nuova Cartaromana 62"},{"_geoloc":{"lat":44.0105909,"lng":10.0990077},"city_name":"Marina di Massa","country_name":"Italy","cuisine_type":"Seafood","michelin_award":"MICHELIN_PLATE","name":"La Péniche","street":"via Lungo Brugiano 3"},{"_geoloc":{"lat":45.44358,"lng":10.99927},"city_name":"Verona","country_name":"Italy","cuisine_type":"Seafood","michelin_award":"MICHELIN_PLATE","name":"Arche","street":"via Arche Scaligere 6"},{"_geoloc":{"lat":46.12505,"lng":12.21239},"city_name":"BELLUNO","country_name":"Italy","cuisine_type":"Regional cuisine","michelin_award":"BIB_GOURMAND","name":"Al Borgo","street":"via Anconetta 8"},{"_geoloc":{"lat":40.60421,"lng":17.22898},"city_name":"Crispiano","country_name":"Italy","cuisine_type":"Apulian","michelin_award":"BIB_GOURMAND","name":"La Cuccagna","street":"corso Umberto I° 168"},{"_geoloc":{"lat":45.4821805,"lng":9.1944159},"city_name":"Milano","country_name":"Italy","cuisine_type":"Creative","michelin_award":"ONE_STAR","name":"Berton","street":"via Mike Bongiorno 13"},{"_geoloc":{"lat":46.0348797,"lng":12.6814506},"city_name":"SAN QUIRINO","country_name":"Italy","cuisine_type":"Modern cuisine","michelin_award":"ONE_STAR","name":"La Primula","street":"via San Rocco 47"},{"_geoloc":{"lat":44.2699348,"lng":9.393904},"city_name":"SESTRI LEVANTE","country_name":"Italy","cuisine_type":"Contemporary","michelin_award":"MICHELIN_PLATE","name":"Baia del Silenzio","street":"via Cappellini 9"},{"_geoloc":{"lat":45.7068992,"lng":9.6562867},"city_name":"Bergamo","country_name":"Italy","cuisine_type":"Creative","michelin_award":"ONE_STAR","name":"Casual","street":"via San Vigilio 1"},{"_geoloc":{"lat":41.6893365,"lng":13.6051717},"city_name":"CARNELLO","country_name":"Italy","cuisine_type":"Italian","michelin_award":"BIB_GOURMAND","name":"Mingone","street":"via Pietro Nenni 96"},{"_geoloc":{"lat":45.6487674,"lng":12.2357736},"city_name":"TREVISO","country_name":"Italy","cuisine_type":"Seafood","michelin_award":"MICHELIN_PLATE","name":"MAR diVINO","street":"Strada del Nascimben 1a"},{"_geoloc":{"lat":43.1827997,"lng":12.1721093},"city_name":"PASSIGNANO SUL TRASIMENO","country_name":"Italy","cuisine_type":"Seafood","michelin_award":"MICHELIN_PLATE","name":"Il Fischio del Merlo","street":"località Calcinaio 17/A"},{"_geoloc":{"lat":45.47122,"lng":11.35448},"city_name":"SELVA","country_name":"Italy","cuisine_type":"Seafood","michelin_award":"MICHELIN_PLATE","name":"La Marescialla","street":"via Capitello 3"},{"_geoloc":{"lat":42.9952602,"lng":12.5831366},"city_name":"CANNARA","country_name":"Italy","cuisine_type":"Regional cuisine","michelin_award":"BIB_GOURMAND","name":"Perbacco-Vini e Cucina","street":"via Umberto I°, 14"},{"_geoloc":{"lat":45.4492275,"lng":11.0006288},"city_name":"Verona","country_name":"Italy","cuisine_type":"Creative","michelin_award":"ONE_STAR","name":"Osteria la Fontanina","street":"Portichetti Fontanelle Santo Stefano 3"},{"_geoloc":{"lat":44.17155,"lng":9.64716},"city_name":"LEVANTO","country_name":"Italy","cuisine_type":"Traditional cuisine","michelin_award":"MICHELIN_PLATE","name":"La Sosta di Ottone III","street":"località Chiesanuova 39"},{"_geoloc":{"lat":45.650925,"lng":13.091744},"city_name":"LIGNANO SABBIADORO","country_name":"Italy","cuisine_type":"Seafood","michelin_award":"MICHELIN_PLATE","name":"Al Cason","street":"corso dei Continenti 167"},{"_geoloc":{"lat":45.6934038,"lng":9.6465415},"city_name":"Bergamo","country_name":"Italy","cuisine_type":"Country","michelin_award":"MICHELIN_PLATE","name":"Osteria Al GiGianca","street":"via Broseta 113"},{"_geoloc":{"lat":46.05616,"lng":10.966688},"city_name":"CASTEL TOBLINO","country_name":"Italy","cuisine_type":"Modern cuisine","michelin_award":"MICHELIN_PLATE","name":"Castel Toblino","street":"Località Castel Toblino 1"},{"_geoloc":{"lat":45.07737,"lng":6.70559},"city_name":"Bardonècchia","country_name":"Italy","cuisine_type":"Regional cuisine","michelin_award":"MICHELIN_PLATE","name":"Locanda Biovey","street":"via General Cantore 2"},{"_geoloc":{"lat":44.6987609,"lng":8.0340111},"city_name":"ALBA","country_name":"Italy","cuisine_type":"Piedmontese","michelin_award":"MICHELIN_PLATE","name":"Lalibera","street":"via Pertinace 24/a"},{"_geoloc":{"lat":38.06843,"lng":14.86763},"city_name":"SINAGRA","country_name":"Italy","cuisine_type":"Regional cuisine","michelin_award":"BIB_GOURMAND","name":"Trattoria da Angelo Borrello","street":"strada principale 139 per Ucria"},{"_geoloc":{"lat":45.4827671,"lng":8.6103409},"city_name":"Novara","country_name":"Italy","cuisine_type":"Creative","michelin_award":"ONE_STAR","name":"Tantris","street":"corso Risorgimento 384"},{"_geoloc":{"lat":44.7132,"lng":8.8251},"city_name":"GAVI","country_name":"Italy","cuisine_type":"Piedmontese","michelin_award":"MICHELIN_PLATE","name":"La Gallina","street":"frazione Monterotondo 56"},{"_geoloc":{"lat":45.4606301,"lng":9.2799407},"city_name":"SEGRATE","country_name":"Italy","cuisine_type":"Modern cuisine","michelin_award":"MICHELIN_PLATE","name":"Michelangelo Restaurant","street":"viale Enrico Forlanini"},{"_geoloc":{"lat":44.4969539,"lng":11.338136},"city_name":"Bologna","country_name":"Italy","cuisine_type":"Emilian","michelin_award":"MICHELIN_PLATE","name":"Oltre.","street":"via Majani 1/b"},{"_geoloc":{"lat":45.9975067,"lng":12.2470269},"city_name":"REVINE","country_name":"Italy","cuisine_type":"Venetian","michelin_award":"MICHELIN_PLATE","name":"Ai Cadelach","street":"via Grava 2"},{"_geoloc":{"lat":45.458435,"lng":9.130776},"city_name":"Milano","country_name":"Italy","cuisine_type":"Creative","michelin_award":"TWO_STARS","name":"Il Luogo di Aimo e Nadia","street":"via Montecuccoli 6"},{"_geoloc":{"lat":41.04876,"lng":15.800578},"city_name":"Lavello","country_name":"Italy","cuisine_type":"Country","michelin_award":"MICHELIN_PLATE","name":"Forentum","street":"piazza Plebiscito 16"},{"_geoloc":{"lat":44.62647,"lng":10.66672},"city_name":"SCANDIANO","country_name":"Italy","cuisine_type":"Contemporary","michelin_award":"MICHELIN_PLATE","name":"Bosco","street":"via Bosco 133"},{"_geoloc":{"lat":45.8464,"lng":8.667485},"city_name":"BESOZZO","country_name":"Italy","cuisine_type":"Modern cuisine","michelin_award":"MICHELIN_PLATE","name":"Osteria del Sass","street":"via Sant'Antonio 17/B, località Besozzo Superiore"},{"_geoloc":{"lat":40.7689224,"lng":14.7048003},"city_name":"Mercato San Severino","country_name":"Italy","cuisine_type":"Creative","michelin_award":"ONE_STAR","name":"Casa del Nonno 13","street":"via Caracciolo 13, località Sant'Eustachio"},{"_geoloc":{"lat":43.7718676,"lng":11.2455075},"city_name":"Firenze","country_name":"Italy","cuisine_type":"Creative","michelin_award":"MICHELIN_PLATE","name":"SE.STO on Arno","street":"piazza Ognissanti 3"},{"_geoloc":{"lat":44.39134,"lng":8.96498},"city_name":"Genova","country_name":"Italy","cuisine_type":"Seafood","michelin_award":"MICHELIN_PLATE","name":"Santamonica","street":"lungomare Lombardo 27"},{"_geoloc":{"lat":46.5185245,"lng":10.1230055},"city_name":"LIVIGNO","country_name":"Italy","cuisine_type":"Modern cuisine","michelin_award":"MICHELIN_PLATE","name":"Cuore di Cembro","street":"via Saroch 1274"},{"_geoloc":{"lat":45.57613,"lng":8.43808},"city_name":"SIZZANO","country_name":"Italy","cuisine_type":"Regional cuisine","michelin_award":"BIB_GOURMAND","name":"Impero","street":"via Roma 13"},{"_geoloc":{"lat":46.5716562,"lng":11.9310461},"city_name":"San Cassiano/Sankt Kassian","country_name":"Italy","cuisine_type":"Classic cuisine","michelin_award":"MICHELIN_PLATE","name":"Wine Bar \u0026 Grill","street":"strada Micura de Rue 20"},{"_geoloc":{"lat":45.4369536,"lng":10.9936108},"city_name":"Verona","country_name":"Italy","cuisine_type":"Seafood","michelin_award":"MICHELIN_PLATE","name":"Al Capitan della Cittadella","street":"piazza Cittadella 7/a"},{"_geoloc":{"lat":45.9525845,"lng":12.1180814},"city_name":"FOLLINA","country_name":"Italy","cuisine_type":"Modern cuisine","michelin_award":"ONE_STAR","name":"La Corte","street":"via Roma 24"},{"_geoloc":{"lat":42.8089482,"lng":10.1934175},"city_name":"MARCIANA MARINA","country_name":"Italy","cuisine_type":"Seafood","michelin_award":"MICHELIN_PLATE","name":"Capo Nord","street":"al porto, località La Fenicia 69"},{"_geoloc":{"lat":46.0025426,"lng":13.4631925},"city_name":"DOLEGNA DEL COLLIO","country_name":"Italy","cuisine_type":"Creative","michelin_award":"ONE_STAR","name":"L'Argine a Vencò","street":"località Vencò 15"},{"_geoloc":{"lat":39.929253,"lng":8.529492},"city_name":"Cabras","country_name":"Italy","cuisine_type":"Seafood","michelin_award":"MICHELIN_PLATE","name":"Il Caminetto","street":"via Battisti 8"},{"_geoloc":{"lat":40.908688,"lng":9.513562},"city_name":"Olbia","country_name":"Italy","cuisine_type":"Modern cuisine","michelin_award":"MICHELIN_PLATE","name":"Bacchus","street":"via degli Astronauti 2"},{"_geoloc":{"lat":44.42064,"lng":12.191586},"city_name":"Ravenna","country_name":"Italy","cuisine_type":"Classic cuisine","michelin_award":"MICHELIN_PLATE","name":"Antica Trattoria al Gallo 1909","street":"via Maggiore 87"},{"_geoloc":{"lat":45.77262,"lng":13.63543},"city_name":"SISTIANA","country_name":"Italy","cuisine_type":"Seafood","michelin_award":"MICHELIN_PLATE","name":"Antica Trattoria Gaudemus","street":"Sistiana 57"},{"_geoloc":{"lat":40.83244,"lng":14.25088},"city_name":"Napoli","country_name":"Italy","cuisine_type":"Regional cuisine","michelin_award":"MICHELIN_PLATE","name":"La Cantinella","street":"via Cuma 42"},{"_geoloc":{"lat":44.9922314,"lng":9.4694233},"city_name":"BORGONOVO VAL TIDONE","country_name":"Italy","cuisine_type":"Creative","michelin_award":"ONE_STAR","name":"La Palta","street":"località Bilegno"},{"_geoloc":{"lat":46.8511074,"lng":11.5204481},"city_name":"Mauls/Mules","country_name":"Italy","cuisine_type":"Creative","michelin_award":"TWO_STARS","name":"Gourmetstube Einhorn","street":"Campo di Trens"},{"_geoloc":{"lat":45.57304,"lng":10.755601},"city_name":"Villa Albarè","country_name":"Italy","cuisine_type":"Modern cuisine","michelin_award":"MICHELIN_PLATE","name":"Osteria dai Coghi","street":"via Alcide De Gasperi 9/13"},{"_geoloc":{"lat":41.9059417,"lng":12.4836585},"city_name":"Roma","country_name":"Italy","cuisine_type":"Modern cuisine","michelin_award":"ONE_STAR","name":"Imàgo","street":"piazza Trinità dei Monti 6"},{"_geoloc":{"lat":42.472985,"lng":14.2096135},"city_name":"Pescara","country_name":"Italy","cuisine_type":"Regional cuisine","michelin_award":"BIB_GOURMAND","name":"Estrò","street":"Piazza della Rinascita 23"},{"_geoloc":{"lat":45.78102,"lng":10.04397},"city_name":"ZORZINO","country_name":"Italy","cuisine_type":"Modern cuisine","michelin_award":"MICHELIN_PLATE","name":"Miranda","street":"via Cornello 8"},{"_geoloc":{"lat":43.986595,"lng":12.54202},"city_name":"Coriano","country_name":"Italy","cuisine_type":"Cuisine from Romagna","michelin_award":"BIB_GOURMAND","name":"Vite","street":"via Montepirolo 7 località San Patrignano"},{"_geoloc":{"lat":45.7057228,"lng":9.3752374},"city_name":"MONTEVECCHIA","country_name":"Italy","cuisine_type":"Lombardian","michelin_award":"MICHELIN_PLATE","name":"La Piazzetta","street":"largo Agnesi 3"},{"_geoloc":{"lat":46.765349,"lng":11.8674408},"city_name":"San Lorenzo di Sebato/Sankt Lorenzen","country_name":"Italy","cuisine_type":"Regional cuisine","michelin_award":"MICHELIN_PLATE","name":"Saalerwirt","street":"località Sares"},{"_geoloc":{"lat":41.1026839,"lng":15.0526832},"city_name":"MELITO IRPINO","country_name":"Italy","cuisine_type":"Regional cuisine","michelin_award":"MICHELIN_PLATE","name":"Antica Trattoria Di Pietro","street":"corso Italia 8"},{"_geoloc":{"lat":39.97018,"lng":15.724499},"city_name":"FIUMICELLO SANTA VENERE","country_name":"Italy","cuisine_type":"Seafood","michelin_award":"MICHELIN_PLATE","name":"Zà Mariuccia","street":"via Grotte 2"},{"_geoloc":{"lat":41.89783,"lng":12.467349},"city_name":"Roma","country_name":"Italy","cuisine_type":"Creative","michelin_award":"TWO_STARS","name":"Il Pagliaccio","street":"via dei Banchi Vecchi 129/a"},{"_geoloc":{"lat":41.9038473,"lng":12.4890349},"city_name":"Roma","country_name":"Italy","cuisine_type":"Contemporary","michelin_award":"MICHELIN_PLATE","name":"The Flair","street":"piazza Barberini 23"},{"_geoloc":{"lat":41.1363679,"lng":9.5219499},"city_name":"Arzachena","country_name":"Italy","cuisine_type":"Seafood","michelin_award":"MICHELIN_PLATE","name":"Lu Pisantinu","street":""},{"_geoloc":{"lat":41.4102602,"lng":13.0433461},"city_name":"Pontinia","country_name":"Italy","cuisine_type":"Italian contemporary","michelin_award":"MICHELIN_PLATE","name":"Mater1apr1ma","street":"via Sardegna 8"},{"_geoloc":{"lat":44.98268,"lng":10.01189},"city_name":"BERSANO","country_name":"Italy","cuisine_type":"Regional cuisine","michelin_award":"MICHELIN_PLATE","name":"La Fiaschetteria","street":"via Bersano 59/bis"},{"_geoloc":{"lat":43.506123,"lng":11.176454},"city_name":"Poggibonsi","country_name":"Italy","cuisine_type":"Tuscan","michelin_award":"MICHELIN_PLATE","name":"Osteria 1126","street":"loacalità Cinciano 2"},{"_geoloc":{"lat":42.8945529,"lng":10.786093},"city_name":"FOLLONICA","country_name":"Italy","cuisine_type":"Seafood","michelin_award":"MICHELIN_PLATE","name":"Il Veliero","street":"via delle Collacchie 20, località Puntone Vecchio"},{"_geoloc":{"lat":44.3973,"lng":8.9453},"city_name":"Genova","country_name":"Italy","cuisine_type":"Seafood","michelin_award":"MICHELIN_PLATE","name":"Ippogrifo","street":"via Gestro 9 r"},{"_geoloc":{"lat":46.4991536,"lng":11.3524552},"city_name":"Bolzano/Bozen","country_name":"Italy","cuisine_type":"Regional cuisine","michelin_award":"BIB_GOURMAND","name":"Vögele","street":"via Goethe 3"},{"_geoloc":{"lat":46.544327,"lng":12.150794},"city_name":"CORTINA D'AMPEZZO","country_name":"Italy","cuisine_type":"Regional cuisine","michelin_award":"MICHELIN_PLATE","name":"Al Camin","street":"località Alverà 99"},{"_geoloc":{"lat":46.6786056,"lng":11.0874087},"city_name":"Rablà","country_name":"Italy","cuisine_type":"Regional cuisine","michelin_award":"MICHELIN_PLATE","name":"Roessl","street":"via Venosta 26"},{"_geoloc":{"lat":42.7333583,"lng":12.7369924},"city_name":"SPOLETO","country_name":"Italy","cuisine_type":"Modern cuisine","michelin_award":"BIB_GOURMAND","name":"Il Tempio del Gusto","street":"via Arco di Druso 11"},{"_geoloc":{"lat":45.409725,"lng":11.452485},"city_name":"Spiazzo","country_name":"Italy","cuisine_type":"Creative","michelin_award":"MICHELIN_PLATE","name":"Trequarti","street":"piazza del Donatore 3/4 località Spiazzo"},{"_geoloc":{"lat":36.856315,"lng":14.7596559},"city_name":"MODICA","country_name":"Italy","cuisine_type":"Modern cuisine","michelin_award":"MICHELIN_PLATE","name":"Fattoria delle Torri","street":"vico Napolitano 14"},{"_geoloc":{"lat":45.4426529,"lng":9.1760641},"city_name":"Milano","country_name":"Italy","cuisine_type":"Modern cuisine","michelin_award":"MICHELIN_PLATE","name":"Chic'n Quick","street":"via Ascanio Sforza 77"},{"_geoloc":{"lat":44.06018,"lng":12.58953},"city_name":"Rimini","country_name":"Italy","cuisine_type":"Creative","michelin_award":"MICHELIN_PLATE","name":"i-Fame","street":"Lungomare Murri 65"},{"_geoloc":{"lat":45.8414,"lng":8.746811},"city_name":"COMERIO","country_name":"Italy","cuisine_type":"Italian","michelin_award":"MICHELIN_PLATE","name":"Movida","street":"via Garibaldi 3"},{"_geoloc":{"lat":44.3563305,"lng":12.0786464},"city_name":"SAN PANCRAZIO","country_name":"Italy","cuisine_type":"Seafood","michelin_award":"BIB_GOURMAND","name":"La Cucoma","street":"via Molinaccio 175"},{"_geoloc":{"lat":45.37994,"lng":10.50919},"city_name":"CASTIGLIONE DELLE STIVIERE","country_name":"Italy","cuisine_type":"Mantuan","michelin_award":"BIB_GOURMAND","name":"Hostaria Viola","street":"via Verdi 32"},{"_geoloc":{"lat":43.0109461,"lng":11.6131413},"city_name":"CASTIGLIONE D'ORCIA","country_name":"Italy","cuisine_type":"Modern cuisine","michelin_award":"ONE_STAR","name":"Osteria Perillà","street":"via Borgo Maestro 74"},{"_geoloc":{"lat":46.1736379,"lng":12.3601001},"city_name":"PIEVE D'ALPAGO","country_name":"Italy","cuisine_type":"Modern cuisine","michelin_award":"ONE_STAR","name":"Dolada","street":"via Dolada 21, località Plois alt. 870"},{"_geoloc":{"lat":45.46535,"lng":9.189977},"city_name":"Milano","country_name":"Italy","cuisine_type":"Modern cuisine","michelin_award":"ONE_STAR","name":"Cracco","street":"Galleria Vitttorio Emauele II"},{"_geoloc":{"lat":42.7141448,"lng":12.2655765},"city_name":"Baschi","country_name":"Italy","cuisine_type":"Creative","michelin_award":"ONE_STAR","name":"Casa Vissani","street":"Vocabolo Cannitello"},{"_geoloc":{"lat":45.4068367,"lng":8.9067192},"city_name":"ABBIATEGRASSO","country_name":"Italy","cuisine_type":"Lombardian","michelin_award":"MICHELIN_PLATE","name":"Il Ristorante di Agostino Campari","street":"via Novara 81"},{"_geoloc":{"lat":43.0847324,"lng":12.700215},"city_name":"Armenzano","country_name":"Italy","cuisine_type":"Modern cuisine","michelin_award":"MICHELIN_PLATE","name":"Armentum","street":"località Armezzano"},{"_geoloc":{"lat":45.00911,"lng":10.97975},"city_name":"QUISTELLO","country_name":"Italy","cuisine_type":"Classic cuisine","michelin_award":"MICHELIN_PLATE","name":"All'Angelo","street":"via Cantone, 60"},{"_geoloc":{"lat":45.7330874,"lng":9.1314982},"city_name":"Cantù","country_name":"Italy","cuisine_type":"Modern cuisine","michelin_award":"MICHELIN_PLATE","name":"La Scaletta","street":"via Milano 30"},{"_geoloc":{"lat":46.22516,"lng":10.8279},"city_name":"MADONNA DI CAMPIGLIO","country_name":"Italy","cuisine_type":"Regional cuisine","michelin_award":"MICHELIN_PLATE","name":"Da Alfiero","street":"via Vallesinella 5"},{"_geoloc":{"lat":45.8405204,"lng":9.077252},"city_name":"CERNOBBIO","country_name":"Italy","cuisine_type":"Country","michelin_award":"MICHELIN_PLATE","name":"Trattoria del Vapore","street":"via Garibaldi 17"},{"_geoloc":{"lat":44.3557172,"lng":11.7124431},"city_name":"IMOLA","country_name":"Italy","cuisine_type":"Classic cuisine","michelin_award":"TWO_STARS","name":"San Domenico","street":"via Sacchi 1"},{"_geoloc":{"lat":43.2428162,"lng":12.0407638},"city_name":"CORTONA","country_name":"Italy","cuisine_type":"Modern cuisine","michelin_award":"MICHELIN_PLATE","name":"L'Antica Casina di Caccia","street":"località Piazzano 7"},{"_geoloc":{"lat":45.66908,"lng":8.87049},"city_name":"FAGNANO OLONA","country_name":"Italy","cuisine_type":"Creative","michelin_award":"ONE_STAR","name":"Acquerello","street":"via Patrioti 5"},{"_geoloc":{"lat":41.880543,"lng":12.484601},"city_name":"Roma","country_name":"Italy","cuisine_type":"Creative","michelin_award":"ONE_STAR","name":"Marco Martini Restaurant","street":"viale Aventino 121"},{"_geoloc":{"lat":43.210065,"lng":13.7824585},"city_name":"FERMO","country_name":"Italy","cuisine_type":"Seafood","michelin_award":"MICHELIN_PLATE","name":"Emilio","street":"via Girardi 1, località Casabianca"},{"_geoloc":{"lat":41.8271255,"lng":12.7081654},"city_name":"Monte Porzio Catone","country_name":"Italy","cuisine_type":"Creative","michelin_award":"MICHELIN_PLATE","name":"Barrique by Oliver Glowig","street":"via di Fontana Candida 3"},{"_geoloc":{"lat":45.4511034,"lng":9.2114879},"city_name":"Milano","country_name":"Italy","cuisine_type":"Organic","michelin_award":"MICHELIN_PLATE","name":"Un Posto a Milano","street":"via Cuccagna 2"},{"_geoloc":{"lat":45.07883,"lng":10.88133},"city_name":"BAGNOLO SAN VITO","country_name":"Italy","cuisine_type":"Mantuan","michelin_award":"MICHELIN_PLATE","name":"Villa Eden","street":"via Gazzo 6"},{"_geoloc":{"lat":41.58163,"lng":12.64848},"city_name":"APRILIA","country_name":"Italy","cuisine_type":"Classic cuisine","michelin_award":"MICHELIN_PLATE","name":"Il Focarile","street":"via Pontina al km 46,5"},{"_geoloc":{"lat":43.07136,"lng":12.6123142},"city_name":"ASSISI","country_name":"Italy","cuisine_type":"Regional cuisine","michelin_award":"MICHELIN_PLATE","name":"Buca di San Francesco","street":"via Brizi 1"},{"_geoloc":{"lat":44.353622,"lng":12.088254},"city_name":"RAGONE","country_name":"Italy","cuisine_type":"Regional cuisine","michelin_award":"BIB_GOURMAND","name":"Trattoria Flora","street":"via Ragone 104"},{"_geoloc":{"lat":38.31031,"lng":16.37146},"city_name":"Roccella Ionica","country_name":"Italy","cuisine_type":"Italian","michelin_award":"MICHELIN_PLATE","name":"La Cascina","street":"strada statale 106"},{"_geoloc":{"lat":45.3850361,"lng":9.0403897},"city_name":"Barate","country_name":"Italy","cuisine_type":"Modern cuisine","michelin_award":"MICHELIN_PLATE","name":"Antica Osteria Magenes","street":"via Cavour 7, località Barate"},{"_geoloc":{"lat":44.6969031,"lng":8.0339102},"city_name":"ALBA","country_name":"Italy","cuisine_type":"Piedmontese","michelin_award":"MICHELIN_PLATE","name":"Enoclub","street":"piazza Michele Ferrero 4"},{"_geoloc":{"lat":44.28398,"lng":7.80504},"city_name":"FRABOSA SOPRANA","country_name":"Italy","cuisine_type":"Modern cuisine","michelin_award":"MICHELIN_PLATE","name":"Ezzelino","street":"via Roma 84"},{"_geoloc":{"lat":44.0328073,"lng":12.6219953},"city_name":"MIRAMARE","country_name":"Italy","cuisine_type":"Seafood","michelin_award":"ONE_STAR","name":"Guido","street":"lungomare Spadazzi 12"},{"_geoloc":{"lat":43.7810218,"lng":7.6732415},"city_name":"BORDIGHERA","country_name":"Italy","cuisine_type":"Ligurian","michelin_award":"MICHELIN_PLATE","name":"Magiargè Vini e Cucina","street":"piazza Giacomo Viale"},{"_geoloc":{"lat":44.77973,"lng":10.88186},"city_name":"CARPI","country_name":"Italy","cuisine_type":"Modern cuisine","michelin_award":"MICHELIN_PLATE","name":"Il 25","street":"via San Francesco 20"},{"_geoloc":{"lat":45.05228,"lng":9.69108},"city_name":"Piacenza","country_name":"Italy","cuisine_type":"Emilian","michelin_award":"MICHELIN_PLATE","name":"Trattoria San Giovanni","street":"via Garibaldi 49/a"},{"_geoloc":{"lat":45.44367,"lng":10.9968},"city_name":"Verona","country_name":"Italy","cuisine_type":"Classic cuisine","michelin_award":"MICHELIN_PLATE","name":"Maffei","street":"piazza delle Erbe 38"},{"_geoloc":{"lat":46.59478,"lng":11.16242},"city_name":"Lana","country_name":"Italy","cuisine_type":"Contemporary","michelin_award":"MICHELIN_PLATE","name":"Gutshof","street":"via Brandis 13, golf club"},{"_geoloc":{"lat":45.4961,"lng":9.134268},"city_name":"Milano","country_name":"Italy","cuisine_type":"Lombardian","michelin_award":"MICHELIN_PLATE","name":"La Pobbia 1850","street":"via Gallarate 92"},{"_geoloc":{"lat":45.6565587,"lng":9.988215},"city_name":"CLUSANE SUL LAGO","country_name":"Italy","cuisine_type":"Classic cuisine","michelin_award":"MICHELIN_PLATE","name":"Conte di Carmagnola","street":"via Mirabella 34"},{"_geoloc":{"lat":45.54023,"lng":9.23452},"city_name":"Sesto San Giovanni","country_name":"Italy","cuisine_type":"Italian","michelin_award":"MICHELIN_PLATE","name":"Villa Campari","street":"via Campari 23"},{"_geoloc":{"lat":44.7792987,"lng":10.6762816},"city_name":"BAGNOLO IN PIANO","country_name":"Italy","cuisine_type":"Emilian","michelin_award":"BIB_GOURMAND","name":"Trattoria da Probo","street":"via Provinciale Nord 13"},{"_geoloc":{"lat":43.7983351,"lng":7.7272822},"city_name":"OSPEDALETTI","country_name":"Italy","cuisine_type":"Seafood","michelin_award":"MICHELIN_PLATE","name":"Byblos","street":"lungomare Colombo 6/8"},{"_geoloc":{"lat":44.8730606,"lng":10.033081},"city_name":"Fidenza","country_name":"Italy","cuisine_type":"Emilian","michelin_award":"BIB_GOURMAND","name":"Podere San Faustino","street":"via San Faustino 33 (strada statale Emilia nord)"},{"_geoloc":{"lat":45.615921,"lng":9.5914181},"city_name":"Osio Sotto","country_name":"Italy","cuisine_type":"Meats and grills","michelin_award":"MICHELIN_PLATE","name":"La Braseria","street":"via Risorgimento 15/17"},{"_geoloc":{"lat":43.563553,"lng":13.59564},"city_name":"PORTONOVO","country_name":"Italy","cuisine_type":"Creative","michelin_award":"MICHELIN_PLATE","name":"Clandestino Susci Bar","street":"via Portonovo, località Poggio"},{"_geoloc":{"lat":38.1951299,"lng":13.3299635},"city_name":"MONDELLO","country_name":"Italy","cuisine_type":"Creative","michelin_award":"ONE_STAR","name":"Bye Bye Blues","street":"via del Garofalo 23"},{"_geoloc":{"lat":40.47417,"lng":17.23898},"city_name":"Taranto","country_name":"Italy","cuisine_type":"Seafood","michelin_award":"MICHELIN_PLATE","name":"Gatto Rosso","street":"via Cavour 2"},{"_geoloc":{"lat":44.44512,"lng":9.71757},"city_name":"Albareto","country_name":"Italy","cuisine_type":"Creative","michelin_award":"MICHELIN_PLATE","name":"Casimiro e voi","street":"località Casale"},{"_geoloc":{"lat":42.764017,"lng":10.8831779},"city_name":"CASTIGLIONE DELLA PESCAIA","country_name":"Italy","cuisine_type":"Modern cuisine","michelin_award":"BIB_GOURMAND","name":"Osteria del mare già Il Votapentole","street":"via IV Novembre 15"},{"_geoloc":{"lat":45.63691,"lng":10.09984},"city_name":"Parmezzana Calzana","country_name":"Italy","cuisine_type":"Regional cuisine","michelin_award":"MICHELIN_PLATE","name":"Hostaria Uva Rara","street":"via Foina 42"},{"_geoloc":{"lat":45.6091814,"lng":7.3538732},"city_name":"COGNE","country_name":"Italy","cuisine_type":"Classic cuisine","michelin_award":"MICHELIN_PLATE","name":"Coeur de Bois","street":"viale Cavagnet 31"},{"_geoloc":{"lat":40.4292596,"lng":14.9845016},"city_name":"PAESTUM","country_name":"Italy","cuisine_type":"Modern cuisine","michelin_award":"MICHELIN_PLATE","name":"Tre Olivi","street":"via Poseidonia 41"},{"_geoloc":{"lat":40.678535,"lng":14.437112},"city_name":"VICO EQUENSE","country_name":"Italy","cuisine_type":"Seafood","michelin_award":"MICHELIN_PLATE","name":"Il Bikini","street":"strada statale 145 Sorrentina, al km 13,900"},{"_geoloc":{"lat":45.32864,"lng":11.7678},"city_name":"MONTEGROTTO TERME","country_name":"Italy","cuisine_type":"Regional cuisine","michelin_award":"MICHELIN_PLATE","name":"Al Bosco","street":"via Cogolo 8"},{"_geoloc":{"lat":40.736454,"lng":17.685165},"city_name":"CAROVIGNO","country_name":"Italy","cuisine_type":"Apulian","michelin_award":"MICHELIN_PLATE","name":"Osteria Casale Ferrovia","street":"via Stazione 1, sulla SP 34"},{"_geoloc":{"lat":45.8289297,"lng":8.5659778},"city_name":"Lesa","country_name":"Italy","cuisine_type":"Modern cuisine","michelin_award":"MICHELIN_PLATE","name":"Battipalo","street":"viale Vittorio Veneto 2"},{"_geoloc":{"lat":44.0717345,"lng":12.3230214},"city_name":"LONGIANO","country_name":"Italy","cuisine_type":"Regional cuisine","michelin_award":"BIB_GOURMAND","name":"Dei Cantoni","street":"via Santa Maria 19"},{"_geoloc":{"lat":43.315418,"lng":13.2535306},"city_name":"SAN LORENZO","country_name":"Italy","cuisine_type":"Cuisine from the Marches","michelin_award":"BIB_GOURMAND","name":"Il Casolare dei Segreti","street":"contrada San Lorenzo 28"},{"_geoloc":{"lat":46.06579,"lng":11.12291},"city_name":"Trento","country_name":"Italy","cuisine_type":"Modern cuisine","michelin_award":"MICHELIN_PLATE","name":"Ai Tre Garofani - Antica Trattoria","street":"via Mazzini 33"},{"_geoloc":{"lat":42.10399,"lng":14.70562},"city_name":"VASTO","country_name":"Italy","cuisine_type":"Seafood","michelin_award":"MICHELIN_PLATE","name":"Castello Aragona","street":"via San Michele 105"},{"_geoloc":{"lat":46.26423,"lng":11.79958},"city_name":"SAN MARTINO DI CASTROZZA","country_name":"Italy","cuisine_type":"Regional cuisine","michelin_award":"MICHELIN_PLATE","name":"Chalet Pra delle Nasse-da Anita","street":"via Cavallazza 24, località Pra delle Nasse"},{"_geoloc":{"lat":45.4377705,"lng":12.1370968},"city_name":"MIRA","country_name":"Italy","cuisine_type":"Classic cuisine","michelin_award":"MICHELIN_PLATE","name":"Margherita","street":"via Don Minzoni 28"},{"_geoloc":{"lat":41.88177,"lng":16.18076},"city_name":"VIESTE","country_name":"Italy","cuisine_type":"Regional cuisine","michelin_award":"BIB_GOURMAND","name":"Al Dragone","street":"via Duomo 8"},{"_geoloc":{"lat":45.4058591,"lng":8.0924402},"city_name":"Cavaglià","country_name":"Italy","cuisine_type":"Regional cuisine","michelin_award":"MICHELIN_PLATE","name":"Osteria dell'Oca Bianca","street":"via Umberto I 2"},{"_geoloc":{"lat":43.1065133,"lng":12.4316475},"city_name":"Casaglia","country_name":"Italy","cuisine_type":"Country","michelin_award":"MICHELIN_PLATE","name":"Stella","street":"via dei Narcisi 47/a"},{"_geoloc":{"lat":45.4419173,"lng":10.9979256},"city_name":"Verona","country_name":"Italy","cuisine_type":"Regional cuisine","michelin_award":"MICHELIN_PLATE","name":"Trattoria al Pompiere","street":"vicolo Regina d'Ungheria 5"},{"_geoloc":{"lat":45.7564348,"lng":10.0790684},"city_name":"VELLO","country_name":"Italy","cuisine_type":"Regional cuisine","michelin_award":"MICHELIN_PLATE","name":"Trattoria Glisenti","street":"via Provinciale 34"},{"_geoloc":{"lat":44.58454,"lng":7.96862},"city_name":"MONFORTE D'ALBA","country_name":"Italy","cuisine_type":"Regional cuisine","michelin_award":"MICHELIN_PLATE","name":"Le Case della Saracca","street":"via Cavour 5"},{"_geoloc":{"lat":40.88087,"lng":9.61759},"city_name":"Olbia","country_name":"Italy","cuisine_type":"Regional cuisine","michelin_award":"MICHELIN_PLATE","name":"S'Ollastu","street":"località Costa Corallina"},{"_geoloc":{"lat":43.7684515,"lng":11.2547889},"city_name":"Firenze","country_name":"Italy","cuisine_type":"Modern cuisine","michelin_award":"ONE_STAR","name":"Ora D'Aria","street":"via dei Georgofili 11r"},{"_geoloc":{"lat":45.469845,"lng":9.191208},"city_name":"Milano","country_name":"Italy","cuisine_type":"Creative","michelin_award":"TWO_STARS","name":"Seta by Antonio Guida","street":"via Monte di Pietà 18"},{"_geoloc":{"lat":44.6345523,"lng":8.1104721},"city_name":"BENEVELLO","country_name":"Italy","cuisine_type":"Modern cuisine","michelin_award":"ONE_STAR","name":"Damiano Nigro","street":"località Manera 1"},{"_geoloc":{"lat":44.6861251,"lng":12.2400641},"city_name":"PORTO GARIBALDI","country_name":"Italy","cuisine_type":"Seafood","michelin_award":"MICHELIN_PLATE","name":"Da Pericle","street":"via dei Mille 203"},{"_geoloc":{"lat":43.816418,"lng":13.069138},"city_name":"FANO","country_name":"Italy","cuisine_type":"Seafood","michelin_award":"MICHELIN_PLATE","name":"Alla Lanterna","street":"località Metaurilia"},{"_geoloc":{"lat":45.4804651,"lng":9.1912581},"city_name":"Milano","country_name":"Italy","cuisine_type":"Creative","michelin_award":"MICHELIN_PLATE","name":"Il Liberty","street":"viale Monte Grappa 6"},{"_geoloc":{"lat":42.778145,"lng":10.888977},"city_name":"CASTIGLIONE DELLA PESCAIA","country_name":"Italy","cuisine_type":"Regional cuisine","michelin_award":"MICHELIN_PLATE","name":"La Terra di Nello","street":"località Poggetto"},{"_geoloc":{"lat":41.86271,"lng":12.48495},"city_name":"Roma","country_name":"Italy","cuisine_type":"Roman","michelin_award":"BIB_GOURMAND","name":"Al Ristoro degli Angeli","street":"via Luigi Orlando 2"},{"_geoloc":{"lat":41.0348692,"lng":15.7714997},"city_name":"Lavello","country_name":"Italy","cuisine_type":"Modern cuisine","michelin_award":"MICHELIN_PLATE","name":"Don Alfonso 1890 San Barbato","street":"Strada Statale 93"},{"_geoloc":{"lat":41.907112,"lng":12.4900875},"city_name":"Roma","country_name":"Italy","cuisine_type":"Modern cuisine","michelin_award":"MICHELIN_PLATE","name":"Brunello Lounge \u0026 Restaurant","street":"via Vittorio Veneto 72"},{"_geoloc":{"lat":41.9104307,"lng":12.4733204},"city_name":"Roma","country_name":"Italy","cuisine_type":"Peruvian","michelin_award":"MICHELIN_PLATE","name":"Pacifico Roma","street":"lungotevere Arnaldo da Brescia 2"},{"_geoloc":{"lat":45.4663112,"lng":12.0995204},"city_name":"Vetrego","country_name":"Italy","cuisine_type":"Venetian","michelin_award":"BIB_GOURMAND","name":"Il Sogno","street":"via Vetrego 8"},{"_geoloc":{"lat":46.6243231,"lng":11.3629335},"city_name":"SARENTINO","country_name":"Italy","cuisine_type":"Modern cuisine","michelin_award":"MICHELIN_PLATE","name":"Ristorante Alpes \u0026 La FuGa","street":"Sud: 2 Km"},{"_geoloc":{"lat":44.7112661,"lng":11.3059943},"city_name":"Pieve di Cento","country_name":"Italy","cuisine_type":"Modern cuisine","michelin_award":"MICHELIN_PLATE","name":"Buriani dal 1967","street":"via provinciale 2/a, ang. via Matteotti 66"},{"_geoloc":{"lat":40.417763,"lng":17.599371},"city_name":"Manduria","country_name":"Italy","cuisine_type":"Modern cuisine","michelin_award":"ONE_STAR","name":"Casamatta","street":"contrada Scrasciosa"},{"_geoloc":{"lat":45.01968,"lng":6.8695},"city_name":"Sauze d'Oulx","country_name":"Italy","cuisine_type":"Regional cuisine","michelin_award":"MICHELIN_PLATE","name":"Naskira","street":"via Case Sparse 21, località Le Clotes"},{"_geoloc":{"lat":44.696484,"lng":8.035489},"city_name":"ALBA","country_name":"Italy","cuisine_type":"Creative","michelin_award":"ONE_STAR","name":"Larossa","street":"via Alberione 10/D"},{"_geoloc":{"lat":40.66569,"lng":16.61261},"city_name":"MATERA","country_name":"Italy","cuisine_type":"Modern cuisine","michelin_award":"MICHELIN_PLATE","name":"Baccanti","street":"via Sant'Angelo 58/61"},{"_geoloc":{"lat":40.92192,"lng":9.19373},"city_name":"Calangianus","country_name":"Italy","cuisine_type":"Regional cuisine","michelin_award":"MICHELIN_PLATE","name":"Il Tirabusciò","street":"via Nino Bixio 5"},{"_geoloc":{"lat":40.8214143,"lng":14.214533},"city_name":"Napoli","country_name":"Italy","cuisine_type":"Creative","michelin_award":"ONE_STAR","name":"Palazzo Petrucci","street":"via Posillipo 16 b/c"},{"_geoloc":{"lat":42.6142651,"lng":14.0610184},"city_name":"PINETO","country_name":"Italy","cuisine_type":"Seafood","michelin_award":"MICHELIN_PLATE","name":"La Conchiglia d'Oro","street":"via Nazionale Adriatica nord (Complesso Poseidon)"},{"_geoloc":{"lat":44.1791461,"lng":8.366972},"city_name":"FINALE LIGURE","country_name":"Italy","cuisine_type":"Ligurian","michelin_award":"MICHELIN_PLATE","name":"Rosita","street":"via Mànie 67"},{"_geoloc":{"lat":43.3635471,"lng":12.3268121},"city_name":"MONTONE","country_name":"Italy","cuisine_type":"Regional cuisine","michelin_award":"BIB_GOURMAND","name":"Tipico \u0026 La Locanda del Capitano","street":"via Roma 7"},{"_geoloc":{"lat":43.0679963,"lng":11.7252054},"city_name":"MONTICCHIELLO","country_name":"Italy","cuisine_type":"Regional cuisine","michelin_award":"MICHELIN_PLATE","name":"Daria","street":"Via S. Luigi, 3"},{"_geoloc":{"lat":40.662186,"lng":16.610752},"city_name":"MATERA","country_name":"Italy","cuisine_type":"Cuisine from Basilicata","michelin_award":"MICHELIN_PLATE","name":"L'Abbondanza Lucana","street":"via Bruno Buozzi 11"},{"_geoloc":{"lat":40.6777141,"lng":14.7508842},"city_name":"Salerno","country_name":"Italy","cuisine_type":"Italian contemporary","michelin_award":"MICHELIN_PLATE","name":"Via Porto Bistrot","street":"via porto 5/7"},{"_geoloc":{"lat":44.7051429,"lng":8.2066746},"city_name":"SANTO STEFANO BELBO","country_name":"Italy","cuisine_type":"Piedmontese","michelin_award":"ONE_STAR","name":"Il Ristorante di Guido da Costigliole","street":"località San Maurizio 39"},{"_geoloc":{"lat":44.4921197,"lng":11.3440699},"city_name":"Bologna","country_name":"Italy","cuisine_type":"Modern cuisine","michelin_award":"MICHELIN_PLATE","name":"Emporio Armani Caffè e Ristorante","street":"galleria Cavour 1/d"},{"_geoloc":{"lat":44.35825,"lng":10.62214},"city_name":"MONTEFIORINO","country_name":"Italy","cuisine_type":"Emilian","michelin_award":"MICHELIN_PLATE","name":"Lucenti","street":"via Mazzini 38"},{"_geoloc":{"lat":45.68607,"lng":10.64646},"city_name":"GARGNANO","country_name":"Italy","cuisine_type":"Modern cuisine","michelin_award":"MICHELIN_PLATE","name":"La Grande Limonaia","street":"via Angelo Feltrinelli 136"},{"_geoloc":{"lat":45.88546,"lng":11.059657},"city_name":"ROVERETO","country_name":"Italy","cuisine_type":"Regional cuisine","michelin_award":"MICHELIN_PLATE","name":"San Colombano","street":"via Vicenza 30, strada statale 46"},{"_geoloc":{"lat":45.54936,"lng":8.9925},"city_name":"NERVIANO","country_name":"Italy","cuisine_type":"Regional cuisine","michelin_award":"MICHELIN_PLATE","name":"La Guardia","street":"via 20 Settembre 73, ang. statale Sempione"},{"_geoloc":{"lat":41.1870717,"lng":9.3800111},"city_name":"Palau","country_name":"Italy","cuisine_type":"Seafood","michelin_award":"MICHELIN_PLATE","name":"La Gritta","street":"località Porto Faro"},{"_geoloc":{"lat":43.6806944,"lng":13.2821211},"city_name":"Marzocca","country_name":"Italy","cuisine_type":"Creative","michelin_award":"TWO_STARS","name":"Madonnina del Pescatore","street":"via Lungomare Italia 11"},{"_geoloc":{"lat":44.697,"lng":8.0345512},"city_name":"ALBA","country_name":"Italy","cuisine_type":"Piedmontese","michelin_award":"MICHELIN_PLATE","name":"Osteria dell'Arco","street":"piazza Michele Ferrero 5"},{"_geoloc":{"lat":45.69837,"lng":9.59097},"city_name":"Ponte San Pietro","country_name":"Italy","cuisine_type":"Modern cuisine","michelin_award":"MICHELIN_PLATE","name":"Cucina Cereda","street":"via Piazzini 33"},{"_geoloc":{"lat":43.7194609,"lng":13.2206503},"city_name":"SENIGALLIA","country_name":"Italy","cuisine_type":"Modern cuisine","michelin_award":"THREE_STARS","name":"Uliassi","street":"banchina di Levante 6"},{"_geoloc":{"lat":42.00556,"lng":14.99737},"city_name":"TERMOLI","country_name":"Italy","cuisine_type":"Mediterranean","michelin_award":"MICHELIN_PLATE","name":"Svevia","street":"via Giudicato Vecchio 24"},{"_geoloc":{"lat":41.918625,"lng":12.484892},"city_name":"Parioli","country_name":"Italy","cuisine_type":"Mediterranean","michelin_award":"ONE_STAR","name":"Assaje","street":"via Ulisse Aldrovandi 15"},{"_geoloc":{"lat":44.5638925,"lng":7.9622354},"city_name":"MONFORTE D'ALBA","country_name":"Italy","cuisine_type":"Creative","michelin_award":"ONE_STAR","name":"Fre","street":"loc. San Sebastiano 68"},{"_geoloc":{"lat":44.2075887,"lng":8.4163876},"city_name":"NOLI","country_name":"Italy","cuisine_type":"Modern cuisine","michelin_award":"ONE_STAR","name":"Il Vescovado","street":"piazzale Rosselli"},{"_geoloc":{"lat":44.92783,"lng":11.51125},"city_name":"RAVALLE","country_name":"Italy","cuisine_type":"Modern cuisine","michelin_award":"MICHELIN_PLATE","name":"L'Antico Giardino","street":"via Martelli 28"},{"_geoloc":{"lat":41.8973035,"lng":12.46747},"city_name":"Roma","country_name":"Italy","cuisine_type":"Creative","michelin_award":"ONE_STAR","name":"Per Me Giulio Terrinoni","street":"vicolo del Malpasso 9"},{"_geoloc":{"lat":43.88595,"lng":10.7689},"city_name":"MONTECATINI TERME","country_name":"Italy","cuisine_type":"Seafood","michelin_award":"MICHELIN_PLATE","name":"Gourmet","street":"viale Amendola 6"},{"_geoloc":{"lat":45.62217,"lng":10.56199},"city_name":"GARDONE RIVIERA","country_name":"Italy","cuisine_type":"Modern cuisine","michelin_award":"MICHELIN_PLATE","name":"Osteria Antico Brolo","street":"via Carere 10"},{"_geoloc":{"lat":43.5465123,"lng":10.8573527},"city_name":"MONTAIONE","country_name":"Italy","cuisine_type":"Creative","michelin_award":"MICHELIN_PLATE","name":"La Rocca di Castelfalfi","street":"via Castelfalfi Castello 85"},{"_geoloc":{"lat":41.9187946,"lng":12.4461151},"city_name":"Roma","country_name":"Italy","cuisine_type":"Modern cuisine","michelin_award":"THREE_STARS","name":"La Pergola","street":"via Cadlolo 101"},{"_geoloc":{"lat":43.2187801,"lng":10.611003},"city_name":"Bolgheri","country_name":"Italy","cuisine_type":"Regional cuisine","michelin_award":"BIB_GOURMAND","name":"Osteria Magona","street":"località Vallone dei Messi 199, strada provinciale 16/b al km 2.400"},{"_geoloc":{"lat":46.6411433,"lng":11.5723151},"city_name":"Chiusa/Klausen","country_name":"Italy","cuisine_type":"Creative","michelin_award":"TWO_STARS","name":"Jasmin","street":"via Gries 4"},{"_geoloc":{"lat":45.66076,"lng":8.79337},"city_name":"Gallarate","country_name":"Italy","cuisine_type":"Modern cuisine","michelin_award":"MICHELIN_PLATE","name":"Radici Osteria Contemporanea","street":"via Alessandro Manzoni 13"},{"_geoloc":{"lat":45.3634877,"lng":9.6842952},"city_name":"Crema","country_name":"Italy","cuisine_type":"Modern cuisine","michelin_award":"MICHELIN_PLATE","name":"Botero","street":"via G. Verdi 7"},{"_geoloc":{"lat":36.8599639,"lng":14.7606251},"city_name":"MODICA","country_name":"Italy","cuisine_type":"Creative","michelin_award":"ONE_STAR","name":"Accursio","street":"via Grimaldi 41"},{"_geoloc":{"lat":44.6961302,"lng":7.8551043},"city_name":"BRA","country_name":"Italy","cuisine_type":"Piedmontese","michelin_award":"BIB_GOURMAND","name":"Boccondivino","street":"via Mendicità Istruita 14"},{"_geoloc":{"lat":45.44692,"lng":9.03405},"city_name":"CUSAGO","country_name":"Italy","cuisine_type":"Regional cuisine","michelin_award":"MICHELIN_PLATE","name":"Brindo by Orlando","street":"via Libertà 18"},{"_geoloc":{"lat":46.5366668,"lng":11.7791315},"city_name":"SELVA DI VAL GARDENA","country_name":"Italy","cuisine_type":"Regional cuisine","michelin_award":"MICHELIN_PLATE","name":"Chalet Gerard","street":"via Plan de Gralba 37"},{"_geoloc":{"lat":42.58808,"lng":14.033627},"city_name":"MUTIGNANO","country_name":"Italy","cuisine_type":"Regional cuisine","michelin_award":"BIB_GOURMAND","name":"Bacucco d'Oro","street":"via del Pozzo 10"},{"_geoloc":{"lat":45.4670438,"lng":9.1892084},"city_name":"Milano","country_name":"Italy","cuisine_type":"Modern cuisine","michelin_award":"ONE_STAR","name":"Il Ristorante Trussardi alla Scala","street":"piazza della Scala 5"},{"_geoloc":{"lat":44.85284,"lng":9.87018},"city_name":"CASTELL'ARQUATO","country_name":"Italy","cuisine_type":"Modern cuisine","michelin_award":"MICHELIN_PLATE","name":"Maps","street":"piazza Europa 3"},{"_geoloc":{"lat":43.92788,"lng":12.87693},"city_name":"Pesaro","country_name":"Italy","cuisine_type":"Seafood","michelin_award":"MICHELIN_PLATE","name":"Gibas","street":"strada Panoramica Adriatica"},{"_geoloc":{"lat":45.435544,"lng":12.3364804},"city_name":"Venezia","country_name":"Italy","cuisine_type":"Venetian","michelin_award":"MICHELIN_PLATE","name":"Bistrot de Venise","street":"calle dei Fabbri 4685, San Marco"},{"_geoloc":{"lat":42.4544457,"lng":14.2399653},"city_name":"Pescara","country_name":"Italy","cuisine_type":"Modern cuisine","michelin_award":"MICHELIN_PLATE","name":"Café Les Paillotes","street":"piazza Le Laudi 2"},{"_geoloc":{"lat":43.2749644,"lng":11.9841148},"city_name":"CORTONA","country_name":"Italy","cuisine_type":"Regional cuisine","michelin_award":"BIB_GOURMAND","name":"La Bucaccia","street":"via Ghibellina 17"},{"_geoloc":{"lat":45.4659341,"lng":12.4563383},"city_name":"CAVALLINO","country_name":"Italy","cuisine_type":"Seafood","michelin_award":"MICHELIN_PLATE","name":"Ai Do Campanili","street":"piazza Santissima Trinità 5"},{"_geoloc":{"lat":44.05761,"lng":8.0357},"city_name":"RANZO","country_name":"Italy","cuisine_type":"Regional cuisine","michelin_award":"MICHELIN_PLATE","name":"Il Gallo della Checca","street":"località Ponterotto 31"},{"_geoloc":{"lat":40.6767873,"lng":14.7634393},"city_name":"Salerno","country_name":"Italy","cuisine_type":"Seafood","michelin_award":"MICHELIN_PLATE","name":"Pescheria","street":"corso Giuseppe Garibaldi 227"},{"_geoloc":{"lat":43.7647,"lng":13.07162},"city_name":"SAN COSTANZO","country_name":"Italy","cuisine_type":"Country","michelin_award":"MICHELIN_PLATE","name":"Da Rolando","street":"corso Matteotti 125"},{"_geoloc":{"lat":43.894723,"lng":10.5364035},"city_name":"MARLIA","country_name":"Italy","cuisine_type":"Modern cuisine","michelin_award":"ONE_STAR","name":"Butterfly","street":"strada statale 12 dell'Abetone"},{"_geoloc":{"lat":45.44066,"lng":11.01995},"city_name":"Verona","country_name":"Italy","cuisine_type":"Regional cuisine","michelin_award":"BIB_GOURMAND","name":"San Basilio alla Pergola","street":"via Pisano 9"},{"_geoloc":{"lat":43.94974,"lng":10.2428},"city_name":"PIETRASANTA","country_name":"Italy","cuisine_type":"Italian","michelin_award":"MICHELIN_PLATE","name":"La Martinatica","street":"via della Martinatica 20"},{"_geoloc":{"lat":45.8734842,"lng":11.5098715},"city_name":"ASIAGO","country_name":"Italy","cuisine_type":"Creative","michelin_award":"ONE_STAR","name":"Stube Gourmet","street":"corso IV Novembre 65/67"},{"_geoloc":{"lat":46.295876,"lng":11.452433},"city_name":"CAVALESE","country_name":"Italy","cuisine_type":"Regional cuisine","michelin_award":"MICHELIN_PLATE","name":"Costa Salici","street":"via Costa dei Salici 10"},{"_geoloc":{"lat":45.5256528,"lng":9.3289372},"city_name":"CERNUSCO SUL NAVIGLIO","country_name":"Italy","cuisine_type":"Modern cuisine","michelin_award":"MICHELIN_PLATE","name":"Due Spade","street":"via Pietro da Cernusco 2/a"},{"_geoloc":{"lat":41.3222121,"lng":16.2844164},"city_name":"Barletta","country_name":"Italy","cuisine_type":"Regional cuisine","michelin_award":"MICHELIN_PLATE","name":"Antica Cucina 1983","street":"Piazza Marina 5"},{"_geoloc":{"lat":37.5156609,"lng":15.0827623},"city_name":"Catania","country_name":"Italy","cuisine_type":"Sicilian","michelin_award":"MICHELIN_PLATE","name":"Km.0","street":"via Antonino Longo 26/28"},{"_geoloc":{"lat":40.7068,"lng":-73.92877},"city_name":"Brooklyn","country_name":"United States","cuisine_type":"Vietnamese","michelin_award":"BIB_GOURMAND","name":"Falansai","street":"112 Harrison Pl."},{"_geoloc":{"lat":40.7324592,"lng":-73.9878454},"city_name":"New York","country_name":"United States","cuisine_type":"Contemporary","michelin_award":"MICHELIN_PLATE","name":"feast","street":"102 Third Ave."},{"_geoloc":{"lat":40.743793,"lng":-74.00633},"city_name":"New York","country_name":"United States","cuisine_type":"Japanese","michelin_award":"ONE_STAR","name":"Okuda","street":"458 W. 17th St."},{"_geoloc":{"lat":40.78131,"lng":-73.96028},"city_name":"New York","country_name":"United States","cuisine_type":"Austrian","michelin_award":"MICHELIN_PLATE","name":"Cafe Sabarsky","street":"1048 Fifth Ave."},{"_geoloc":{"lat":40.7260526,"lng":-74.0083592},"city_name":"New York","country_name":"United States","cuisine_type":"Italian","michelin_award":"MICHELIN_PLATE","name":"Giorgione","street":"307 Spring St."},{"_geoloc":{"lat":40.85438,"lng":-73.8888},"city_name":"Bronx","country_name":"United States","cuisine_type":"Italian","michelin_award":"MICHELIN_PLATE","name":"Enzo's of Arthur Ave","street":"2339 Arthur Ave."},{"_geoloc":{"lat":41.2096808,"lng":-73.5749339},"city_name":"Pound Ridge","country_name":"United States","cuisine_type":"American","michelin_award":"MICHELIN_PLATE","name":"The Inn at Pound Ridge","street":"258 Westchester Ave."},{"_geoloc":{"lat":40.6870784,"lng":-73.9629764},"city_name":"Brooklyn","country_name":"United States","cuisine_type":"American","michelin_award":"ONE_STAR","name":"The Finch","street":"212 Greene Ave."},{"_geoloc":{"lat":40.7245579,"lng":-73.983626},"city_name":"New York","country_name":"United States","cuisine_type":"Pizza","michelin_award":"BIB_GOURMAND","name":"Violet","street":"511 E. 5th St."},{"_geoloc":{"lat":40.7375731,"lng":-73.9911981},"city_name":"New York","country_name":"United States","cuisine_type":"Asian","michelin_award":"MICHELIN_PLATE","name":"Laut","street":"15 E. 17th St."},{"_geoloc":{"lat":40.76106,"lng":-73.97628},"city_name":"New York","country_name":"United States","cuisine_type":"Contemporary","michelin_award":"TWO_STARS","name":"The Modern","street":"9 W. 53rd St."},{"_geoloc":{"lat":40.714237,"lng":-73.96154},"city_name":"Brooklyn","country_name":"United States","cuisine_type":"Seafood","michelin_award":"MICHELIN_PLATE","name":"Maison Premiere","street":"298 Bedford Ave."},{"_geoloc":{"lat":40.9349701,"lng":-73.9041524},"city_name":"Yonkers","country_name":"United States","cuisine_type":"French","michelin_award":"MICHELIN_PLATE","name":"X20 Xaviars On the Hudson","street":"71 Water Grant St."},{"_geoloc":{"lat":40.7316561,"lng":-73.9857206},"city_name":"New York","country_name":"United States","cuisine_type":"Contemporary","michelin_award":"BIB_GOURMAND","name":"Momofuku Ssäm Bar","street":"207 Second Ave."},{"_geoloc":{"lat":40.63343,"lng":-74.01442},"city_name":"Brooklyn","country_name":"United States","cuisine_type":"Chinese","michelin_award":"BIB_GOURMAND","name":"East Harbor Seafood Palace","street":"714-726 65th St."},{"_geoloc":{"lat":40.76627,"lng":-73.991},"city_name":"New York","country_name":"United States","cuisine_type":"Middle Eastern","michelin_award":"MICHELIN_PLATE","name":"Taboon","street":"773 Tenth Ave."},{"_geoloc":{"lat":40.81217,"lng":-73.9515},"city_name":"New York","country_name":"United States","cuisine_type":"French","michelin_award":"MICHELIN_PLATE","name":"Maison Harlem","street":"341 St. Nicholas Ave."},{"_geoloc":{"lat":40.7501,"lng":-73.98443},"city_name":"New York","country_name":"United States","cuisine_type":"Japanese","michelin_award":"BIB_GOURMAND","name":"Tonchin","street":"13 W. 36th St."},{"_geoloc":{"lat":40.77241,"lng":-73.95539},"city_name":"New York","country_name":"United States","cuisine_type":"Italian","michelin_award":"MICHELIN_PLATE","name":"Lusardi's","street":"1494 Second Ave."},{"_geoloc":{"lat":40.725246,"lng":-73.95156},"city_name":"Brooklyn","country_name":"United States","cuisine_type":"Polish","michelin_award":"MICHELIN_PLATE","name":"Krolewskie Jadlo","street":"694 Manhattan Ave."},{"_geoloc":{"lat":40.7257542,"lng":-73.9509876},"city_name":"Brooklyn","country_name":"United States","cuisine_type":"French","michelin_award":"MICHELIN_PLATE","name":"Le Fond","street":"105 Norman Ave."},{"_geoloc":{"lat":40.7093651,"lng":-73.9557659},"city_name":"Brooklyn","country_name":"United States","cuisine_type":"Fusion","michelin_award":"BIB_GOURMAND","name":"Shalom Japan","street":"301 S. 4th St."},{"_geoloc":{"lat":40.7878802,"lng":-73.9747537},"city_name":"New York","country_name":"United States","cuisine_type":"Deli","michelin_award":"MICHELIN_PLATE","name":"Barney Greengrass","street":"541 Amsterdam Ave."},{"_geoloc":{"lat":40.7227804,"lng":-73.9831107},"city_name":"New York","country_name":"United States","cuisine_type":"Japanese","michelin_award":"MICHELIN_PLATE","name":"Secchu Yokota","street":"199 E. 3rd St."},{"_geoloc":{"lat":40.7129264,"lng":-73.9574999},"city_name":"New York","country_name":"United States","cuisine_type":"American","michelin_award":"ONE_STAR","name":"The Four Horsemen","street":"295 Grand St."},{"_geoloc":{"lat":40.7381964,"lng":-73.9894202},"city_name":"New York","country_name":"United States","cuisine_type":"Vegetarian","michelin_award":"MICHELIN_PLATE","name":"abcV","street":"38 E. 19th St."},{"_geoloc":{"lat":40.75133,"lng":-73.971725},"city_name":"New York","country_name":"United States","cuisine_type":"Japanese","michelin_award":"MICHELIN_PLATE","name":"Mifune","street":"245 E. 44th St."},{"_geoloc":{"lat":40.7141754,"lng":-73.9903202},"city_name":"New York","country_name":"United States","cuisine_type":"Mexican","michelin_award":"MICHELIN_PLATE","name":"Jajaja","street":"162 E. Broadway"},{"_geoloc":{"lat":40.72452,"lng":-74.003006},"city_name":"New York","country_name":"United States","cuisine_type":"Japanese","michelin_award":"ONE_STAR","name":"Hirohisa","street":"73 Thompson St."},{"_geoloc":{"lat":40.981802,"lng":-73.7760616},"city_name":"Scarsdale","country_name":"United States","cuisine_type":"American","michelin_award":"MICHELIN_PLATE","name":"Meritage","street":"1505 Weaver St."},{"_geoloc":{"lat":40.7295987,"lng":-73.9879379},"city_name":"New York","country_name":"United States","cuisine_type":"Japanese","michelin_award":"BIB_GOURMAND","name":"Soba-Ya","street":"229 E. 9th St."},{"_geoloc":{"lat":40.7691365,"lng":-73.9568423},"city_name":"New York","country_name":"United States","cuisine_type":"Czech","michelin_award":"BIB_GOURMAND","name":"Bohemian Spirit","street":"321 E. 73rd St."},{"_geoloc":{"lat":40.7522094,"lng":-73.977864},"city_name":"New York","country_name":"United States","cuisine_type":"Scandinavian","michelin_award":"ONE_STAR","name":"Agern","street":"89 E. 42nd St."},{"_geoloc":{"lat":40.729053,"lng":-74.00354},"city_name":"New York","country_name":"United States","cuisine_type":"Italian","michelin_award":"BIB_GOURMAND","name":"Cotenna","street":"21 Bedford St."},{"_geoloc":{"lat":40.613163,"lng":-74.06545},"city_name":"Staten Island","country_name":"United States","cuisine_type":"Contemporary","michelin_award":"MICHELIN_PLATE","name":"Bin 5","street":"1233 Bay St."},{"_geoloc":{"lat":40.76442,"lng":-73.98052},"city_name":"New York","country_name":"United States","cuisine_type":"Greek","michelin_award":"MICHELIN_PLATE","name":"Molyvos","street":"871 Seventh Ave."},{"_geoloc":{"lat":40.727924,"lng":-74.00166},"city_name":"New York","country_name":"United States","cuisine_type":"Japanese","michelin_award":"BIB_GOURMAND","name":"DOMODOMO","street":"138 W. Houston St."},{"_geoloc":{"lat":40.7417,"lng":-73.98712},"city_name":"New York","country_name":"United States","cuisine_type":"Contemporary","michelin_award":"THREE_STARS","name":"Eleven Madison Park","street":"11 Madison Ave."},{"_geoloc":{"lat":40.73128,"lng":-74.00198},"city_name":"New York","country_name":"United States","cuisine_type":"Seafood","michelin_award":"MICHELIN_PLATE","name":"Pearl Oyster Bar","street":"18 Cornelia St."},{"_geoloc":{"lat":40.6896523,"lng":-73.9723305},"city_name":"Brooklyn","country_name":"United States","cuisine_type":"Middle Eastern","michelin_award":"BIB_GOURMAND","name":"Miss Ada","street":"184 DeKalb Ave."},{"_geoloc":{"lat":40.7233393,"lng":-73.9828147},"city_name":"New York","country_name":"United States","cuisine_type":"Vietnamese","michelin_award":"BIB_GOURMAND","name":"Van Đa","street":"234 E. 4th St."},{"_geoloc":{"lat":40.72471,"lng":-73.9948},"city_name":"New York","country_name":"United States","cuisine_type":"Contemporary","michelin_award":"ONE_STAR","name":"Estela","street":"47 E. Houston St."},{"_geoloc":{"lat":40.726665,"lng":-73.992386},"city_name":"New York","country_name":"United States","cuisine_type":"Italian","michelin_award":"MICHELIN_PLATE","name":"Il Buco Alimentari e Vineria","street":"53 Great Jones St."},{"_geoloc":{"lat":40.747376,"lng":-73.9864717},"city_name":"New York","country_name":"United States","cuisine_type":"Korean","michelin_award":"MICHELIN_PLATE","name":"Miss Korea","street":"10 W. 32nd St."},{"_geoloc":{"lat":40.6729503,"lng":-73.9570574},"city_name":"Brooklyn","country_name":"United States","cuisine_type":"Contemporary","michelin_award":"MICHELIN_PLATE","name":"Hunky Dory","street":"747 Franklin Ave."},{"_geoloc":{"lat":40.733246,"lng":-73.9580518},"city_name":"New York","country_name":"United States","cuisine_type":"American","michelin_award":"MICHELIN_PLATE","name":"Anella","street":"222 Franklin St."},{"_geoloc":{"lat":40.804707,"lng":-73.94764},"city_name":"New York","country_name":"United States","cuisine_type":"Contemporary","michelin_award":"MICHELIN_PLATE","name":"Barawine","street":"200 Lenox Ave."},{"_geoloc":{"lat":40.810448,"lng":-73.943726},"city_name":"New York","country_name":"United States","cuisine_type":"Japanese","michelin_award":"ONE_STAR","name":"Sushi Inoue","street":"381 Lenox Ave."},{"_geoloc":{"lat":40.74307,"lng":-73.9209206},"city_name":"Sunnyside","country_name":"United States","cuisine_type":"Nepali","michelin_award":"MICHELIN_PLATE","name":"Bajeko Sekuwa","street":"43-16 Queens Blvd."},{"_geoloc":{"lat":40.67612,"lng":-73.97174},"city_name":"Brooklyn","country_name":"United States","cuisine_type":"Italian","michelin_award":"MICHELIN_PLATE","name":"Fausto","street":"348 Flatbush Ave."},{"_geoloc":{"lat":40.78042,"lng":-73.950096},"city_name":"New York","country_name":"United States","cuisine_type":"Italian","michelin_award":"BIB_GOURMAND","name":"San Matteo","street":"1739 Second Ave."},{"_geoloc":{"lat":40.760369,"lng":-73.96573},"city_name":"New York","country_name":"United States","cuisine_type":"Indian","michelin_award":"MICHELIN_PLATE","name":"Chola","street":"232 E. 58th St."},{"_geoloc":{"lat":40.733166,"lng":-73.993515},"city_name":"New York","country_name":"United States","cuisine_type":"Vegetarian","michelin_award":"ONE_STAR","name":"Nix","street":"72 University Pl."},{"_geoloc":{"lat":40.74067,"lng":-74.007744},"city_name":"New York","country_name":"United States","cuisine_type":"Contemporary","michelin_award":"MICHELIN_PLATE","name":"The Standard Grill","street":"848 Washington St."},{"_geoloc":{"lat":40.724194,"lng":-73.9828},"city_name":"New York","country_name":"United States","cuisine_type":"Fusion","michelin_award":"ONE_STAR","name":"Tuome","street":"536 E. 5th St."},{"_geoloc":{"lat":40.6884568,"lng":-73.9889416},"city_name":"Brooklyn","country_name":"United States","cuisine_type":"Pizza","michelin_award":"BIB_GOURMAND","name":"Sottocasa","street":"298 Atlantic Ave."},{"_geoloc":{"lat":40.720497,"lng":-73.98439},"city_name":"New York","country_name":"United States","cuisine_type":"Japanese","michelin_award":"MICHELIN_PLATE","name":"Ivan Ramen","street":"25 Clinton St."},{"_geoloc":{"lat":40.732174,"lng":-74.003494},"city_name":"New York","country_name":"United States","cuisine_type":"American","michelin_award":"MICHELIN_PLATE","name":"The Loyal","street":"289 Bleecker St."},{"_geoloc":{"lat":40.7466017,"lng":-73.8927534},"city_name":"Jackson Heights","country_name":"United States","cuisine_type":"Tibetan","michelin_award":"MICHELIN_PLATE","name":"Himalayan Yak","street":"72-20 Roosevelt Ave."},{"_geoloc":{"lat":40.6874514,"lng":-74.0013993},"city_name":"Brooklyn","country_name":"United States","cuisine_type":"Italian","michelin_award":"MICHELIN_PLATE","name":"Popina","street":"127 Columbia St."},{"_geoloc":{"lat":40.815258,"lng":-73.90419},"city_name":"Bronx","country_name":"United States","cuisine_type":"Mexican","michelin_award":"MICHELIN_PLATE","name":"La Cueva Fonda Mexicana","street":"835 E. 152nd St."},{"_geoloc":{"lat":40.744446,"lng":-73.953606},"city_name":"Long Island City","country_name":"United States","cuisine_type":"Japanese","michelin_award":"MICHELIN_PLATE","name":"Sushi Daizen","street":"47-38 Vernon Blvd."},{"_geoloc":{"lat":40.75133,"lng":-73.971725},"city_name":"New York","country_name":"United States","cuisine_type":"Japanese","michelin_award":"ONE_STAR","name":"Sushi Amane","street":"245 E. 44th St."},{"_geoloc":{"lat":40.7604,"lng":-73.96512},"city_name":"New York","country_name":"United States","cuisine_type":"Italian","michelin_award":"MICHELIN_PLATE","name":"Felidia","street":"243 E. 58th St."},{"_geoloc":{"lat":41.0142288,"lng":-73.8764403},"city_name":"Dobbs Ferry","country_name":"United States","cuisine_type":"Italian","michelin_award":"BIB_GOURMAND","name":"The Cookery","street":"39 Chestnut St."},{"_geoloc":{"lat":40.7217176,"lng":-73.9944078},"city_name":"New York","country_name":"United States","cuisine_type":"Italian","michelin_award":"MICHELIN_PLATE","name":"Peasant","street":"194 Elizabeth St."},{"_geoloc":{"lat":40.677395,"lng":-73.98615},"city_name":"Brooklyn","country_name":"United States","cuisine_type":"Mexican","michelin_award":"ONE_STAR","name":"Claro","street":"284 Third Ave."},{"_geoloc":{"lat":40.7327506,"lng":-74.0042557},"city_name":"New York","country_name":"United States","cuisine_type":"French","michelin_award":"MICHELIN_PLATE","name":"Buvette","street":"42 Grove St."},{"_geoloc":{"lat":41.1320052,"lng":-73.7914087},"city_name":"Pleasantville","country_name":"United States","cuisine_type":"Southern","michelin_award":"BIB_GOURMAND","name":"Southern Table","street":"2918, 29 Marble Ave."},{"_geoloc":{"lat":40.7383783,"lng":-73.9856367},"city_name":"New York","country_name":"United States","cuisine_type":"Italian","michelin_award":"MICHELIN_PLATE","name":"Maialino","street":"2 Lexington Ave."},{"_geoloc":{"lat":40.721302,"lng":-73.98908},"city_name":"New York","country_name":"United States","cuisine_type":"Japanese","michelin_award":"MICHELIN_PLATE","name":"Mr. Taka","street":"170 Allen St."},{"_geoloc":{"lat":40.7592586,"lng":-73.8332919},"city_name":"Flushing","country_name":"United States","cuisine_type":"Chinese","michelin_award":"MICHELIN_PLATE","name":"Asian Jewels","street":"133-30 39th Ave."},{"_geoloc":{"lat":40.726353,"lng":-74.003525},"city_name":"New York","country_name":"United States","cuisine_type":"Italian","michelin_award":"BIB_GOURMAND","name":"Ciccio","street":"190 Sixth Ave."},{"_geoloc":{"lat":40.7680545,"lng":-73.9825882},"city_name":"New York","country_name":"United States","cuisine_type":"Contemporary","michelin_award":"THREE_STARS","name":"Per Se","street":"10 Columbus Circle"},{"_geoloc":{"lat":40.71459,"lng":-73.9915},"city_name":"New York","country_name":"United States","cuisine_type":"Italian","michelin_award":"MICHELIN_PLATE","name":"Bacaro","street":"136 Division St."},{"_geoloc":{"lat":40.8015558,"lng":-73.9607087},"city_name":"New York","country_name":"United States","cuisine_type":"Southern","michelin_award":"BIB_GOURMAND","name":"Miss Mamie's Spoonbread Too","street":"366 W. 110th St./Cathedral Pkwy."},{"_geoloc":{"lat":40.740414,"lng":-73.990776},"city_name":"New York","country_name":"United States","cuisine_type":"Mediterranean","michelin_award":"MICHELIN_PLATE","name":"merakia","street":"5 W. 21st St."},{"_geoloc":{"lat":40.676001,"lng":-74.0142785},"city_name":"Brooklyn","country_name":"United States","cuisine_type":"Contemporary","michelin_award":"MICHELIN_PLATE","name":"The Good Fork","street":"391 Van Brunt St."},{"_geoloc":{"lat":40.7227024,"lng":-73.9981329},"city_name":"New York","country_name":"United States","cuisine_type":"French","michelin_award":"MICHELIN_PLATE","name":"Balthazar","street":"80 Spring St."},{"_geoloc":{"lat":40.7346,"lng":-74.00085},"city_name":"New York","country_name":"United States","cuisine_type":"American","michelin_award":"MICHELIN_PLATE","name":"Bell Book \u0026 Candle","street":"141 W. 10th St."},{"_geoloc":{"lat":40.76834,"lng":-73.91112},"city_name":"Astoria","country_name":"United States","cuisine_type":"Seafood","michelin_award":"MICHELIN_PLATE","name":"Sabry's","street":"24-25 Steinway St."},{"_geoloc":{"lat":40.737694,"lng":-73.95604},"city_name":"Brooklyn","country_name":"United States","cuisine_type":"Middle Eastern","michelin_award":"BIB_GOURMAND","name":"Glasserie","street":"95 Commercial St."},{"_geoloc":{"lat":40.6878747,"lng":-73.995614},"city_name":"Brooklyn","country_name":"United States","cuisine_type":"Seafood","michelin_award":"BIB_GOURMAND","name":"Saint Julivert Fisherie","street":"264 Clinton St."},{"_geoloc":{"lat":40.7261364,"lng":-73.9840047},"city_name":"New York","country_name":"United States","cuisine_type":"Greek","michelin_award":"MICHELIN_PLATE","name":"Pylos","street":"128 E. 7th St."},{"_geoloc":{"lat":41.259844,"lng":-73.684386},"city_name":"Katonah","country_name":"United States","cuisine_type":"American","michelin_award":"MICHELIN_PLATE","name":"The Whitlock","street":"17 Katonah Ave."},{"_geoloc":{"lat":40.74487,"lng":-73.95333},"city_name":"Long Island City","country_name":"United States","cuisine_type":"Contemporary","michelin_award":"BIB_GOURMAND","name":"Bellwether","street":"47-25 Vernon Blvd."},{"_geoloc":{"lat":40.738202,"lng":-73.9891506},"city_name":"New York","country_name":"United States","cuisine_type":"American","michelin_award":"MICHELIN_PLATE","name":"Craft","street":"43 E. 19th St."},{"_geoloc":{"lat":40.720938,"lng":-73.9589096},"city_name":"Brooklyn","country_name":"United States","cuisine_type":"Contemporary","michelin_award":"BIB_GOURMAND","name":"Klein's","street":"97 Wythe Ave."},{"_geoloc":{"lat":40.7649884,"lng":-73.9882319},"city_name":"New York","country_name":"United States","cuisine_type":"American","michelin_award":"MICHELIN_PLATE","name":"Casellula","street":"401 W. 52nd St."},{"_geoloc":{"lat":40.7533468,"lng":-73.8218584},"city_name":"Flushing","country_name":"United States","cuisine_type":"Indian","michelin_award":"MICHELIN_PLATE","name":"Hyderabadi Biryani \u0026 Chat","street":"44-27 Kissena Blvd."},{"_geoloc":{"lat":40.764088,"lng":-73.9868},"city_name":"New York","country_name":"United States","cuisine_type":"Korean","michelin_award":"MICHELIN_PLATE","name":"Danji","street":"346 W. 52nd St."},{"_geoloc":{"lat":40.74351,"lng":-73.97972},"city_name":"New York","country_name":"United States","cuisine_type":"Italian","michelin_award":"BIB_GOURMAND","name":"Norma Gastronomia Siciliana","street":"438 Third Ave."},{"_geoloc":{"lat":40.714058,"lng":-73.98977},"city_name":"New York","country_name":"United States","cuisine_type":"Chinese","michelin_award":"MICHELIN_PLATE","name":"Mission Chinese","street":"171 East Broadway"},{"_geoloc":{"lat":40.7331146,"lng":-74.0035517},"city_name":"New York","country_name":"United States","cuisine_type":"Italian","michelin_award":"MICHELIN_PLATE","name":"Via Carota","street":"51 Grove St."},{"_geoloc":{"lat":40.7615485,"lng":-73.9867528},"city_name":"New York","country_name":"United States","cuisine_type":"Chinese","michelin_award":"BIB_GOURMAND","name":"Kung Fu Little Steamed Buns Ramen","street":"811 Eighth Ave."},{"_geoloc":{"lat":40.7297441,"lng":-73.9887831},"city_name":"New York","country_name":"United States","cuisine_type":"Japanese","michelin_award":"MICHELIN_PLATE","name":"Hasaki","street":"210 E. 9th St."},{"_geoloc":{"lat":40.7188148,"lng":-73.9903234},"city_name":"New York","country_name":"United States","cuisine_type":"Chinese","michelin_award":"BIB_GOURMAND","name":"Congee Village","street":"100 Allen St."},{"_geoloc":{"lat":40.7583678,"lng":-73.9828638},"city_name":"New York","country_name":"United States","cuisine_type":"Japanese","michelin_award":"ONE_STAR","name":"Satsuki","street":"114 W. 47th St."},{"_geoloc":{"lat":41.1007146,"lng":-73.8292966},"city_name":"Tarrytown","country_name":"United States","cuisine_type":"American","michelin_award":"TWO_STARS","name":"Blue Hill at Stone Barns","street":"630 Bedford Rd."},{"_geoloc":{"lat":40.7253206,"lng":-74.0075486},"city_name":"New York","country_name":"United States","cuisine_type":"Italian","michelin_award":"BIB_GOURMAND","name":"Nonna Beppa","street":"290 Hudson St."},{"_geoloc":{"lat":40.70986,"lng":-73.96263},"city_name":"Brooklyn","country_name":"United States","cuisine_type":"Steakhouse","michelin_award":"ONE_STAR","name":"Peter Luger","street":"178 Broadway"},{"_geoloc":{"lat":40.7320616,"lng":-74.0051734},"city_name":"New York","country_name":"United States","cuisine_type":"Gastropub","michelin_award":"MICHELIN_PLATE","name":"Chumley’s","street":"86 Bedford St."},{"_geoloc":{"lat":40.7136659,"lng":-73.9960893},"city_name":"New York","country_name":"United States","cuisine_type":"Chinese","michelin_award":"BIB_GOURMAND","name":"Hwa Yuan","street":"42 East Broadway"},{"_geoloc":{"lat":40.7502,"lng":-73.98616},"city_name":"New York","country_name":"United States","cuisine_type":"Korean","michelin_award":"BIB_GOURMAND","name":"Cho Dang Gol","street":"55 W. 35th St."},{"_geoloc":{"lat":40.76041,"lng":-73.97699},"city_name":"New York","country_name":"United States","cuisine_type":"American","michelin_award":"MICHELIN_PLATE","name":"21 Club","street":"21 W. 52nd St."},{"_geoloc":{"lat":40.7267617,"lng":-73.9834994},"city_name":"New York","country_name":"United States","cuisine_type":"Japanese","michelin_award":"MICHELIN_PLATE","name":"Kura","street":"130 St. Marks Pl."},{"_geoloc":{"lat":40.76196,"lng":-73.9606},"city_name":"New York","country_name":"United States","cuisine_type":"Japanese","michelin_award":"MICHELIN_PLATE","name":"Sushi Seki","street":"1143 First Ave."},{"_geoloc":{"lat":40.7616112,"lng":-73.9247673},"city_name":"Queens","country_name":"United States","cuisine_type":"Turkish","michelin_award":"BIB_GOURMAND","name":"Lokanta","street":"3116 Broadway"},{"_geoloc":{"lat":40.7305,"lng":-73.98349},"city_name":"New York","country_name":"United States","cuisine_type":"Pizza","michelin_award":"BIB_GOURMAND","name":"Luzzo's","street":"211-13 First Ave."},{"_geoloc":{"lat":40.72786,"lng":-74.00143},"city_name":"New York","country_name":"United States","cuisine_type":"Jamaican","michelin_award":"MICHELIN_PLATE","name":"Miss Lily’s","street":"132 W. Houston St."},{"_geoloc":{"lat":40.71443,"lng":-73.99207},"city_name":"New York","country_name":"United States","cuisine_type":"Japanese","michelin_award":"MICHELIN_PLATE","name":"Shabushabu Mayumon","street":"115 Division St."},{"_geoloc":{"lat":40.7297253,"lng":-74.0045102},"city_name":"New York","country_name":"United States","cuisine_type":"Japanese","michelin_award":"MICHELIN_PLATE","name":"Toriko","street":"76 Carmine St."},{"_geoloc":{"lat":40.639496,"lng":-73.96797},"city_name":"Brooklyn","country_name":"United States","cuisine_type":"Italian","michelin_award":"BIB_GOURMAND","name":"Lea","street":"1022 Cortelyou Rd."},{"_geoloc":{"lat":40.7584124,"lng":-73.9827188},"city_name":"New York","country_name":"United States","cuisine_type":"Japanese","michelin_award":"MICHELIN_PLATE","name":"Suzuki","street":"114 W. 47th St."},{"_geoloc":{"lat":40.64047,"lng":-73.96565},"city_name":"Brooklyn","country_name":"United States","cuisine_type":"Asian","michelin_award":"BIB_GOURMAND","name":"Purple Yam","street":"1314 Cortelyou Rd."},{"_geoloc":{"lat":40.712986,"lng":-74.009476},"city_name":"New York","country_name":"United States","cuisine_type":"Steakhouse","michelin_award":"MICHELIN_PLATE","name":"Cut by Wolfgang Puck","street":"99 Church St."},{"_geoloc":{"lat":40.74114,"lng":-73.99242},"city_name":"New York","country_name":"United States","cuisine_type":"Contemporary","michelin_award":"ONE_STAR","name":"Bouley at Home","street":"31 W. 21st St."},{"_geoloc":{"lat":40.7246476,"lng":-73.9916056},"city_name":"New York","country_name":"United States","cuisine_type":"Contemporary","michelin_award":"TWO_STARS","name":"Ko","street":"8 Extra Pl."},{"_geoloc":{"lat":40.6734308,"lng":-73.9570421},"city_name":"Brooklyn","country_name":"United States","cuisine_type":"Mexican","michelin_award":"MICHELIN_PLATE","name":"Chavela’s","street":"736 Franklin Ave."},{"_geoloc":{"lat":40.7768,"lng":-73.957054},"city_name":"New York","country_name":"United States","cuisine_type":"Contemporary","michelin_award":"MICHELIN_PLATE","name":"The Simone","street":"151 E. 82nd St."},{"_geoloc":{"lat":40.7258548,"lng":-73.9896269},"city_name":"New York","country_name":"United States","cuisine_type":"Mexican","michelin_award":"MICHELIN_PLATE","name":"The Black Ant","street":"60 Second Ave."},{"_geoloc":{"lat":40.7443058,"lng":-73.9826751},"city_name":"New York","country_name":"United States","cuisine_type":"Korean","michelin_award":"TWO_STARS","name":"Atomix","street":"104 E. 30th St."},{"_geoloc":{"lat":40.914265,"lng":-73.7736953},"city_name":"New Rochelle","country_name":"United States","cuisine_type":"Italian","michelin_award":"BIB_GOURMAND","name":"Maria Restaurant","street":"11 Huguenot St."},{"_geoloc":{"lat":40.6848836,"lng":-73.9629934},"city_name":"Brooklyn","country_name":"United States","cuisine_type":"Italian","michelin_award":"MICHELIN_PLATE","name":"Locanda Vini e Olii","street":"129 Gates Ave."},{"_geoloc":{"lat":40.7276991,"lng":-74.0001044},"city_name":"New York","country_name":"United States","cuisine_type":"Italian","michelin_award":"MICHELIN_PLATE","name":"Lupa","street":"170 Thompson St."},{"_geoloc":{"lat":40.7383451,"lng":-73.9986984},"city_name":"New York","country_name":"United States","cuisine_type":"Central Asian","michelin_award":"MICHELIN_PLATE","name":"Chama Mama","street":"149 W. 14th St."},{"_geoloc":{"lat":41.012353,"lng":-73.847581},"city_name":"Ardsley","country_name":"United States","cuisine_type":"Italian","michelin_award":"MICHELIN_PLATE","name":"L'inizio","street":"698 Saw Mill River Rd."},{"_geoloc":{"lat":40.7354574,"lng":-74.0081949},"city_name":"New York","country_name":"United States","cuisine_type":"Austrian","michelin_award":"ONE_STAR","name":"Wallsé","street":"344 W. 11th St."},{"_geoloc":{"lat":40.762607,"lng":-73.9866896},"city_name":"New York","country_name":"United States","cuisine_type":"Pizza","michelin_award":"BIB_GOURMAND","name":"Don Antonio by Starita","street":"309 W. 50th St."},{"_geoloc":{"lat":40.746166,"lng":-74.00148},"city_name":"New York","country_name":"United States","cuisine_type":"Indian","michelin_award":"MICHELIN_PLATE","name":"aRoqa","street":"206 Ninth Ave."},{"_geoloc":{"lat":40.76203,"lng":-73.83005},"city_name":"Flushing","country_name":"United States","cuisine_type":"Chinese","michelin_award":"MICHELIN_PLATE","name":"Joe's Shanghai","street":"136-21 37th Ave."},{"_geoloc":{"lat":40.6378423,"lng":-74.0797638},"city_name":"Staten Island","country_name":"United States","cuisine_type":"Sri Lankan","michelin_award":"BIB_GOURMAND","name":"Sagara","street":"98 Victory Blvd."},{"_geoloc":{"lat":40.73913,"lng":-73.99341},"city_name":"New York","country_name":"United States","cuisine_type":"Italian","michelin_award":"MICHELIN_PLATE","name":"Scampi","street":"30 W. 18th St."},{"_geoloc":{"lat":40.73233,"lng":-73.99916},"city_name":"New York","country_name":"United States","cuisine_type":"Italian","michelin_award":"MICHELIN_PLATE","name":"Babbo","street":"110 Waverly Pl."},{"_geoloc":{"lat":40.625412,"lng":-74.03022},"city_name":"Brooklyn","country_name":"United States","cuisine_type":"Central Asian","michelin_award":"BIB_GOURMAND","name":"Georgian Cuisine","street":"8309 Third Ave."},{"_geoloc":{"lat":40.7218513,"lng":-73.9901348},"city_name":"New York","country_name":"United States","cuisine_type":"Japanese","michelin_award":"ONE_STAR","name":"Bar Uchū","street":"217 Eldridge St."},{"_geoloc":{"lat":40.7154,"lng":-74.00901},"city_name":"New York","country_name":"United States","cuisine_type":"American","michelin_award":"MICHELIN_PLATE","name":"Little Park","street":"85 W. Broadway"},{"_geoloc":{"lat":40.735895,"lng":-73.9873421},"city_name":"New York","country_name":"United States","cuisine_type":"Spanish","michelin_award":"ONE_STAR","name":"Casa Mono","street":"52 Irving Pl."},{"_geoloc":{"lat":40.677097,"lng":-73.968994},"city_name":"Brooklyn","country_name":"United States","cuisine_type":"Contemporary","michelin_award":"BIB_GOURMAND","name":"Olmsted","street":"659 Vanderbilt Ave."},{"_geoloc":{"lat":40.738815,"lng":-74.005615},"city_name":"New York","country_name":"United States","cuisine_type":"American","michelin_award":"BIB_GOURMAND","name":"High Street on Hudson","street":"637 Hudson St."},{"_geoloc":{"lat":40.9035486,"lng":-73.7890443},"city_name":"New Rochelle","country_name":"United States","cuisine_type":"Balkan","michelin_award":"BIB_GOURMAND","name":"Dubrovnik","street":"721 Main St."},{"_geoloc":{"lat":40.7687398,"lng":-73.9539469},"city_name":"New York","country_name":"United States","cuisine_type":"Japanese","michelin_award":"MICHELIN_PLATE","name":"Sushi Ishikawa","street":"419 E. 74th St."},{"_geoloc":{"lat":40.7718825,"lng":-73.9817937},"city_name":"New York","country_name":"United States","cuisine_type":"Mediterranean","michelin_award":"MICHELIN_PLATE","name":"Boulud Sud","street":"20 W. 64th St."},{"_geoloc":{"lat":40.81618,"lng":-73.945946},"city_name":"New York","country_name":"United States","cuisine_type":"Ethiopian","michelin_award":"MICHELIN_PLATE","name":"Abyssinia","street":"268 W. 135th St."},{"_geoloc":{"lat":40.7512396,"lng":-73.9733497},"city_name":"New York","country_name":"United States","cuisine_type":"Japanese","michelin_award":"MICHELIN_PLATE","name":"Soba Totto","street":"211 E. 43rd St."},{"_geoloc":{"lat":40.726143,"lng":-73.98395},"city_name":"New York","country_name":"United States","cuisine_type":"Vegan","michelin_award":"MICHELIN_PLATE","name":"Avant Garden","street":"130 E. 7th St."},{"_geoloc":{"lat":40.84899,"lng":-73.86226},"city_name":"Bronx","country_name":"United States","cuisine_type":"Italian","michelin_award":"MICHELIN_PLATE","name":"F \u0026 J Pine Restaurant","street":"1913 Bronxdale Ave."},{"_geoloc":{"lat":40.727062,"lng":-73.9861004},"city_name":"New York","country_name":"United States","cuisine_type":"Japanese","michelin_award":"MICHELIN_PLATE","name":"Suki","street":"86 E. 7th St."},{"_geoloc":{"lat":40.8855188,"lng":-73.909595},"city_name":"Bronx","country_name":"United States","cuisine_type":"Deli","michelin_award":"MICHELIN_PLATE","name":"Liebman's","street":"552 W. 235th St."},{"_geoloc":{"lat":40.7142164,"lng":-73.9653572},"city_name":"Brooklyn","country_name":"United States","cuisine_type":"American","michelin_award":"MICHELIN_PLATE","name":"Sunday in Brooklyn","street":"348 Wythe Ave."},{"_geoloc":{"lat":40.7301084,"lng":-74.0031562},"city_name":"New York","country_name":"United States","cuisine_type":"African","michelin_award":"MICHELIN_PLATE","name":"Berber Street Food","street":"35 Carmine St."},{"_geoloc":{"lat":40.67618,"lng":-73.95041},"city_name":"Brooklyn","country_name":"United States","cuisine_type":"Japanese","michelin_award":"MICHELIN_PLATE","name":"Uotora","street":"1075 Bergen St."},{"_geoloc":{"lat":40.765182,"lng":-73.9656},"city_name":"New York","country_name":"United States","cuisine_type":"Contemporary","michelin_award":"MICHELIN_PLATE","name":"JoJo","street":"160 E. 64th St."},{"_geoloc":{"lat":40.7579756,"lng":-73.9712766},"city_name":"New York","country_name":"United States","cuisine_type":"French","michelin_award":"ONE_STAR","name":"Le Jardinier","street":"610 Lexington Ave."},{"_geoloc":{"lat":40.7724746,"lng":-73.9605803},"city_name":"New York","country_name":"United States","cuisine_type":"French","michelin_award":"MICHELIN_PLATE","name":"Orsay","street":"1057 Lexington Ave."},{"_geoloc":{"lat":41.0533687,"lng":-73.8153372},"city_name":"Elmsford","country_name":"United States","cuisine_type":"Persian","michelin_award":"BIB_GOURMAND","name":"Shiraz Kitchen","street":"83 E. Main St."},{"_geoloc":{"lat":40.7229139,"lng":-73.9852386},"city_name":"New York","country_name":"United States","cuisine_type":"Italian","michelin_award":"MICHELIN_PLATE","name":"Supper","street":"156 E. 2nd St."},{"_geoloc":{"lat":41.0040884,"lng":-73.6595684},"city_name":"Port Chester","country_name":"United States","cuisine_type":"Italian","michelin_award":"MICHELIN_PLATE","name":"Tarry Lodge","street":"18 Mill St."},{"_geoloc":{"lat":40.90527,"lng":-73.90048},"city_name":"Bronx","country_name":"United States","cuisine_type":"Italian","michelin_award":"MICHELIN_PLATE","name":"Beccofino","street":"5704 Mosholu Ave."},{"_geoloc":{"lat":40.74183,"lng":-73.98119},"city_name":"New York","country_name":"United States","cuisine_type":"Turkish","michelin_award":"BIB_GOURMAND","name":"Turkish Kitchen","street":"386 Third Ave."},{"_geoloc":{"lat":40.752396,"lng":-73.981575},"city_name":"New York","country_name":"United States","cuisine_type":"Japanese","michelin_award":"ONE_STAR","name":"Sushi Ginza Onodera","street":"461 Fifth Ave."},{"_geoloc":{"lat":40.74497,"lng":-73.988075},"city_name":"New York","country_name":"United States","cuisine_type":"Japanese","michelin_award":"ONE_STAR","name":"Noda","street":"6 W. 28th St."},{"_geoloc":{"lat":40.767647,"lng":-73.95298},"city_name":"New York","country_name":"United States","cuisine_type":"Japanese","michelin_award":"MICHELIN_PLATE","name":"Tanoshi","street":"1372 York Ave."},{"_geoloc":{"lat":40.76819,"lng":-73.98234},"city_name":"New York","country_name":"United States","cuisine_type":"Japanese","michelin_award":"THREE_STARS","name":"Masa","street":"10 Columbus Circle"},{"_geoloc":{"lat":40.721203,"lng":-73.99441},"city_name":"New York","country_name":"United States","cuisine_type":"Thai","michelin_award":"ONE_STAR","name":"Uncle Boons","street":"7 Spring St."},{"_geoloc":{"lat":40.755937,"lng":-73.9927903},"city_name":"New York","country_name":"United States","cuisine_type":"Italian","michelin_award":"MICHELIN_PLATE","name":"Mercato","street":"352 W. 39th St."},{"_geoloc":{"lat":40.7242644,"lng":-73.9953023},"city_name":"New York","country_name":"United States","cuisine_type":"Contemporary","michelin_award":"MICHELIN_PLATE","name":"Chefs Club","street":"275 Mulberry St."},{"_geoloc":{"lat":40.6759873,"lng":-73.9991027},"city_name":"Brooklyn","country_name":"United States","cuisine_type":"American","michelin_award":"BIB_GOURMAND","name":"Buttermilk Channel","street":"524 Court St."},{"_geoloc":{"lat":40.7381144,"lng":-73.9877488},"city_name":"New York","country_name":"United States","cuisine_type":"American","michelin_award":"MICHELIN_PLATE","name":"Gramercy Farmer \u0026 the Fish","street":"245 Park Ave. South"},{"_geoloc":{"lat":40.7314887,"lng":-74.0064664},"city_name":"New York","country_name":"United States","cuisine_type":"Japanese","michelin_award":"MICHELIN_PLATE","name":"Takashi","street":"456 Hudson St."},{"_geoloc":{"lat":40.764107,"lng":-73.97863},"city_name":"New York","country_name":"United States","cuisine_type":"Indian","michelin_award":"MICHELIN_PLATE","name":"Indian Accent","street":"123 W. 56th St."},{"_geoloc":{"lat":40.7326,"lng":-74.00218},"city_name":"New York","country_name":"United States","cuisine_type":"Japanese","michelin_award":"MICHELIN_PLATE","name":"Rockmeisha","street":"11 Barrow St."},{"_geoloc":{"lat":40.7211213,"lng":-73.9965468},"city_name":"New York","country_name":"United States","cuisine_type":"Italian","michelin_award":"MICHELIN_PLATE","name":"Pasquale Jones","street":"187 Mulberry St."},{"_geoloc":{"lat":40.7213106,"lng":-73.9838213},"city_name":"New York","country_name":"United States","cuisine_type":"American","michelin_award":"MICHELIN_PLATE","name":"Clinton St. Baking Company","street":"4 Clinton St."},{"_geoloc":{"lat":40.671658,"lng":-73.95772},"city_name":"Brooklyn","country_name":"United States","cuisine_type":"Caribbean","michelin_award":"BIB_GOURMAND","name":"Glady's","street":"788 Franklin Ave."},{"_geoloc":{"lat":40.7180877,"lng":-73.9899335},"city_name":"New York","country_name":"United States","cuisine_type":"American","michelin_award":"MICHELIN_PLATE","name":"Devon","street":"252 Broome St."},{"_geoloc":{"lat":40.788353,"lng":-73.95335},"city_name":"New York","country_name":"United States","cuisine_type":"Italian","michelin_award":"MICHELIN_PLATE","name":"Tre Otto","street":"1410 Madison Ave."},{"_geoloc":{"lat":40.76155,"lng":-73.97859},"city_name":"New York","country_name":"United States","cuisine_type":"Steakhouse","michelin_award":"MICHELIN_PLATE","name":"Nusr-Et","street":"60 W. 53rd St."},{"_geoloc":{"lat":40.74327,"lng":-74.0077},"city_name":"New York","country_name":"United States","cuisine_type":"Italian","michelin_award":"ONE_STAR","name":"Del Posto","street":"85 Tenth Ave."},{"_geoloc":{"lat":40.7266,"lng":-73.98526},"city_name":"New York","country_name":"United States","cuisine_type":"Japanese","michelin_award":"MICHELIN_PLATE","name":"Kyo Ya","street":"94 E. 7th St."},{"_geoloc":{"lat":40.7262802,"lng":-74.0020439},"city_name":"New York","country_name":"United States","cuisine_type":"French","michelin_award":"MICHELIN_PLATE","name":"Raoul's","street":"180 Prince St."},{"_geoloc":{"lat":40.7541251,"lng":-73.8276322},"city_name":"Flushing","country_name":"United States","cuisine_type":"Chinese","michelin_award":"MICHELIN_PLATE","name":"Hunan Kitchen","street":"42-47 Main St."},{"_geoloc":{"lat":40.6309,"lng":-74.02772},"city_name":"Brooklyn","country_name":"United States","cuisine_type":"Middle Eastern","michelin_award":"BIB_GOURMAND","name":"Tanoreen","street":"7523 Third Ave."},{"_geoloc":{"lat":40.67825,"lng":-73.968704},"city_name":"Brooklyn","country_name":"United States","cuisine_type":"Contemporary","michelin_award":"MICHELIN_PLATE","name":"Faun","street":"606 Vanderbilt Ave."},{"_geoloc":{"lat":40.7393284,"lng":-74.0067674},"city_name":"New York","country_name":"United States","cuisine_type":"French","michelin_award":"MICHELIN_PLATE","name":"Pastis","street":"52 Gansevoort St."},{"_geoloc":{"lat":40.83255,"lng":-73.86442},"city_name":"Bronx","country_name":"United States","cuisine_type":"Puerto Rican","michelin_award":"MICHELIN_PLATE","name":"Joe's Place","street":"1841 Westchester Ave."},{"_geoloc":{"lat":40.733818,"lng":-74.00516},"city_name":"New York","country_name":"United States","cuisine_type":"Italian","michelin_award":"MICHELIN_PLATE","name":"L'Artusi","street":"228 W. 10th St."},{"_geoloc":{"lat":40.721832,"lng":-73.99012},"city_name":"New York","country_name":"United States","cuisine_type":"Japanese","michelin_award":"TWO_STARS","name":"Ichimura at Uchū","street":"217 Eldridge St."},{"_geoloc":{"lat":40.7697817,"lng":-73.9277803},"city_name":"Astoria","country_name":"United States","cuisine_type":"Italian","michelin_award":"MICHELIN_PLATE","name":"Vesta Trattoria","street":"21-02 30th Ave."},{"_geoloc":{"lat":40.7260281,"lng":-74.0015621},"city_name":"New York","country_name":"United States","cuisine_type":"Italian","michelin_award":"MICHELIN_PLATE","name":"Coco Pazzo","street":"160 Prince St."},{"_geoloc":{"lat":40.7036307,"lng":-73.9905587},"city_name":"Brooklyn","country_name":"United States","cuisine_type":"Contemporary","michelin_award":"MICHELIN_PLATE","name":"Atrium DUMBO","street":"15 Main St."},{"_geoloc":{"lat":40.7067068,"lng":-74.0087206},"city_name":"New York","country_name":"United States","cuisine_type":"Contemporary","michelin_award":"ONE_STAR","name":"Crown Shy","street":"70 Pine St."},{"_geoloc":{"lat":40.6877663,"lng":-73.9956114},"city_name":"Brooklyn","country_name":"United States","cuisine_type":"Spanish","michelin_award":"MICHELIN_PLATE","name":"La Vara","street":"268 Clinton St."},{"_geoloc":{"lat":40.7888,"lng":-73.97444},"city_name":"New York","country_name":"United States","cuisine_type":"French","michelin_award":"BIB_GOURMAND","name":"Amelie","street":"566 Amsterdam Ave."},{"_geoloc":{"lat":40.733635,"lng":-73.9981292},"city_name":"New York","country_name":"United States","cuisine_type":"Italian","michelin_award":"MICHELIN_PLATE","name":"Casa Apicii","street":"62 W. 9th St."},{"_geoloc":{"lat":40.85501,"lng":-73.88687},"city_name":"Bronx","country_name":"United States","cuisine_type":"Italian","michelin_award":"BIB_GOURMAND","name":"Tra Di Noi","street":"622 E. 187th St."},{"_geoloc":{"lat":40.725758,"lng":-74.009155},"city_name":"New York","country_name":"United States","cuisine_type":"American","michelin_award":"MICHELIN_PLATE","name":"Houseman","street":"508 Greenwich St."},{"_geoloc":{"lat":40.727081,"lng":-73.9895261},"city_name":"New York","country_name":"United States","cuisine_type":"Japanese","michelin_award":"ONE_STAR","name":"Jewel Bako","street":"239 E. 5th St."},{"_geoloc":{"lat":41.1330118,"lng":-73.7931808},"city_name":"Pleasantville","country_name":"United States","cuisine_type":"Tex-Mex","michelin_award":"MICHELIN_PLATE","name":"Mission Taqueria","street":"472 Bedford Rd."},{"_geoloc":{"lat":40.7263268,"lng":-73.9839031},"city_name":"New York","country_name":"United States","cuisine_type":"French","michelin_award":"MICHELIN_PLATE","name":"Papilles","street":"127 E. 7th St."},{"_geoloc":{"lat":40.7743579,"lng":-73.9127312},"city_name":"Astoria","country_name":"United States","cuisine_type":"Italian","michelin_award":"MICHELIN_PLATE","name":"Via Vai","street":"31-09 23rd Ave."},{"_geoloc":{"lat":40.633095,"lng":-74.01176},"city_name":"Brooklyn","country_name":"United States","cuisine_type":"Chinese","michelin_award":"MICHELIN_PLATE","name":"Bamboo Garden","street":"6409 Eighth Ave."},{"_geoloc":{"lat":40.80635,"lng":-73.954},"city_name":"New York","country_name":"United States","cuisine_type":"Italian","michelin_award":"MICHELIN_PLATE","name":"Vinatería","street":"2211 Frederick Douglass Blvd."},{"_geoloc":{"lat":40.7753427,"lng":-73.9093282},"city_name":"Astoria","country_name":"United States","cuisine_type":"Greek","michelin_award":"MICHELIN_PLATE","name":"Taverna Kyclades","street":"33-07 Ditmars Blvd."},{"_geoloc":{"lat":40.716797,"lng":-74.00565},"city_name":"New York","country_name":"United States","cuisine_type":"Contemporary","michelin_award":"TWO_STARS","name":"Atera","street":"77 Worth St."},{"_geoloc":{"lat":40.72023,"lng":-74.00206},"city_name":"New York","country_name":"United States","cuisine_type":"French","michelin_award":"MICHELIN_PLATE","name":"La Mercerie","street":"53 Howard St."},{"_geoloc":{"lat":40.71822,"lng":-73.95231},"city_name":"Brooklyn","country_name":"United States","cuisine_type":"Mexican","michelin_award":"MICHELIN_PLATE","name":"Casa Pública","street":"594 Union Ave."},{"_geoloc":{"lat":40.724484,"lng":-73.9913},"city_name":"New York","country_name":"United States","cuisine_type":"Indian","michelin_award":"MICHELIN_PLATE","name":"Baar Baar","street":"13 E. 1st St."},{"_geoloc":{"lat":40.7194544,"lng":-73.9973999},"city_name":"New York","country_name":"United States","cuisine_type":"Italian","michelin_award":"MICHELIN_PLATE","name":"Gelso \u0026 Grand","street":"186 Grand St."},{"_geoloc":{"lat":40.77384,"lng":-73.958275},"city_name":"New York","country_name":"United States","cuisine_type":"Japanese","michelin_award":"ONE_STAR","name":"Sushi Noz","street":"181 E. 78th St."},{"_geoloc":{"lat":40.76316,"lng":-73.98481},