{"exhaustiveNbHits":false,"hits":[{"_geoloc":{"lat":46.6989735,"lng":0.4284568},"city_name":"Dissay","country_name":"France","cuisine_type":"Modern cuisine","michelin_award":"MICHELIN_PLATE","name":"Ô Dissay","street":"111 place Pierre-d'Amboise"},{"_geoloc":{"lat":48.8582083,"lng":2.3025758},"city_name":"Paris","country_name":"France","cuisine_type":"Basque","michelin_award":"BIB_GOURMAND","name":"Pottoka","street":"4 rue de l'Exposition"},{"_geoloc":{"lat":44.4007133,"lng":0.8101219},"city_name":"Saint-Sylvestre-sur-Lot","country_name":"France","cuisine_type":"Traditional cuisine","michelin_award":"MICHELIN_PLATE","name":"Le Bistrot du Stelsia","street":"Lieu-dit Lalande"},{"_geoloc":{"lat":43.9351279,"lng":0.6204403},"city_name":"Lectoure","country_name":"France","cuisine_type":"Traditional cuisine","michelin_award":"BIB_GOURMAND","name":"L'Auberge des Bouviers","street":"8 rue Montebello"},{"_geoloc":{"lat":48.859795,"lng":2.3086965},"city_name":"Paris","country_name":"France","cuisine_type":"Modern cuisine","michelin_award":"MICHELIN_PLATE","name":"Brasserie Thoumieux by Sylvestre","street":"79 rue St-Dominique"},{"_geoloc":{"lat":47.3298314,"lng":2.839141},"city_name":"Sancerre","country_name":"France","cuisine_type":"Traditional cuisine","michelin_award":"BIB_GOURMAND","name":"La Pomme d'Or","street":"Rue de la Panneterie"},{"_geoloc":{"lat":48.1905207,"lng":7.3251259},"city_name":"Ribeauvillé","country_name":"France","cuisine_type":"Modern cuisine","michelin_award":"BIB_GOURMAND","name":"Au Relais des Ménétriers","street":"10 avenue du Général-de-Gaulle"},{"_geoloc":{"lat":46.7231406,"lng":-2.3502747},"city_name":"Port-Joinville","country_name":"France","cuisine_type":"Modern cuisine","michelin_award":"MICHELIN_PLATE","name":"Les Bafouettes","street":"8 rue Gabriel-Guist'hau"},{"_geoloc":{"lat":47.3860962,"lng":0.8723196},"city_name":"Montlouis-sur-Loire","country_name":"France","cuisine_type":"Modern cuisine","michelin_award":"MICHELIN_PLATE","name":"La Cave","street":"63 quai Albert-Baillet"},{"_geoloc":{"lat":45.7423542,"lng":4.8402275},"city_name":"Lyon","country_name":"France","cuisine_type":"Modern cuisine","michelin_award":"MICHELIN_PLATE","name":"L'Écume","street":"119 avenue Jean-Jaurès"},{"_geoloc":{"lat":48.8706592,"lng":2.3114589},"city_name":"Paris","country_name":"France","cuisine_type":"Market cuisine","michelin_award":"BIB_GOURMAND","name":"Le Mermoz","street":"16 rue Jean-Mermoz"},{"_geoloc":{"lat":46.307847,"lng":4.8360062},"city_name":"Mâcon","country_name":"France","cuisine_type":"Market cuisine","michelin_award":"MICHELIN_PLATE","name":"Ma Table en Ville","street":"50 rue de Strasbourg"},{"_geoloc":{"lat":48.0056975,"lng":0.1955514},"city_name":"Le Mans","country_name":"France","cuisine_type":"Modern cuisine","michelin_award":"MICHELIN_PLATE","name":"Le Grenier à Sel","street":"26 place de l'Eperon"},{"_geoloc":{"lat":43.568752,"lng":4.667878},"city_name":"Arles","country_name":"France","cuisine_type":"Modern cuisine","michelin_award":"ONE_STAR","name":"La Chassagnette","street":"route du Sambuc"},{"_geoloc":{"lat":47.42305,"lng":-0.52604},"city_name":"Les Ponts-de-Cé","country_name":"France","cuisine_type":"Creative","michelin_award":"MICHELIN_PLATE","name":"Les 3 Lieux","street":"10 rue du Port-des-Noues"},{"_geoloc":{"lat":45.9181,"lng":6.14438},"city_name":"Annecy","country_name":"France","cuisine_type":"Creative","michelin_award":"THREE_STARS","name":"Le Clos des Sens","street":"13 rue Jean-Mermoz - à Annecy-le-Vieux"},{"_geoloc":{"lat":48.8501215,"lng":2.3781195},"city_name":"Paris","country_name":"France","cuisine_type":"Modern cuisine","michelin_award":"ONE_STAR","name":"Virtus","street":"29 rue de Cotte"},{"_geoloc":{"lat":48.283897,"lng":7.303226},"city_name":"La Vancelle","country_name":"France","cuisine_type":"Modern cuisine","michelin_award":"ONE_STAR","name":"Auberge Frankenbourg","street":"13 rue du Général-de-Gaulle"},{"_geoloc":{"lat":47.0269835,"lng":4.836212},"city_name":"Beaune","country_name":"France","cuisine_type":"Modern cuisine","michelin_award":"MICHELIN_PLATE","name":"Le Clos du Cèdre","street":"12 boulevard du Maréchal-Foch"},{"_geoloc":{"lat":43.582328,"lng":7.1266388},"city_name":"Antibes","country_name":"France","cuisine_type":"Seafood","michelin_award":"MICHELIN_PLATE","name":"Chez Jules Le Don Juan","street":"17 rue Thuret"},{"_geoloc":{"lat":48.87125,"lng":2.3118615},"city_name":"Paris","country_name":"France","cuisine_type":"Modern cuisine","michelin_award":"MICHELIN_PLATE","name":"24 - Le Restaurant","street":"24 rue Jean-Mermoz"},{"_geoloc":{"lat":43.5483167,"lng":7.1216544},"city_name":"Antibes","country_name":"France","cuisine_type":"Modern cuisine","michelin_award":"MICHELIN_PLATE","name":"Eden Roc","street":"boulevard JF-Kennedy"},{"_geoloc":{"lat":49.432699,"lng":0.8189962},"city_name":"Jumièges","country_name":"France","cuisine_type":"Modern cuisine","michelin_award":"MICHELIN_PLATE","name":"Auberge des Ruines","street":"17 place de la Mairie"},{"_geoloc":{"lat":45.90452,"lng":6.42312},"city_name":"La Clusaz","country_name":"France","cuisine_type":"Modern cuisine","michelin_award":"MICHELIN_PLATE","name":"Le Cinq","street":"26 Montée du Château"},{"_geoloc":{"lat":48.39088,"lng":-4.483675},"city_name":"Brest","country_name":"France","cuisine_type":"Japanese","michelin_award":"MICHELIN_PLATE","name":"Hinoki","street":"6 rue des Onze-Martyrs"},{"_geoloc":{"lat":42.64611,"lng":2.38674},"city_name":"Molitg-les-Bains","country_name":"France","cuisine_type":"Traditional cuisine","michelin_award":"MICHELIN_PLATE","name":"Café Casals","street":""},{"_geoloc":{"lat":47.371565,"lng":-2.3275021},"city_name":"Saint-Lyphard","country_name":"France","cuisine_type":"Modern cuisine","michelin_award":"BIB_GOURMAND","name":"Auberge le Nézil","street":"route de St-Nazaire"},{"_geoloc":{"lat":47.4718901,"lng":-0.5529908},"city_name":"Angers","country_name":"France","cuisine_type":"Traditional cuisine","michelin_award":"MICHELIN_PLATE","name":"Chez Rémi","street":"5 rue des Deux-Haies"},{"_geoloc":{"lat":45.3192547,"lng":3.1704854},"city_name":"Blesle","country_name":"France","cuisine_type":"Classic cuisine","michelin_award":"MICHELIN_PLATE","name":"La Bougnate","street":"place du Vallat"},{"_geoloc":{"lat":49.1883459,"lng":-0.3599146},"city_name":"Caen","country_name":"France","cuisine_type":"Modern cuisine","michelin_award":"MICHELIN_PLATE","name":"Fragments","street":"2 rue Léon-Lecornu"},{"_geoloc":{"lat":46.05922,"lng":-1.0893763},"city_name":"Châtelaillon-Plage","country_name":"France","cuisine_type":"Seafood","michelin_award":"MICHELIN_PLATE","name":"Gaya - Cuisine de Bords de Mer","street":"avenue de la Falaise"},{"_geoloc":{"lat":48.530766,"lng":-2.7259717},"city_name":"Sous-la-Tour","country_name":"France","cuisine_type":"Modern cuisine","michelin_award":"ONE_STAR","name":"La Vieille Tour","street":"75 rue de la Tour"},{"_geoloc":{"lat":49.1149573,"lng":6.1828514},"city_name":"Metz","country_name":"France","cuisine_type":"Modern cuisine","michelin_award":"MICHELIN_PLATE","name":"À Table","street":"20 rue Vigne-Saint-Avold"},{"_geoloc":{"lat":48.0729273,"lng":6.8703306},"city_name":"Gérardmer","country_name":"France","cuisine_type":"Modern cuisine","michelin_award":"MICHELIN_PLATE","name":"La Table du Rouan","street":"2 boulevard de la Jamagne"},{"_geoloc":{"lat":42.51978,"lng":3.11103},"city_name":"Port-Vendres","country_name":"France","cuisine_type":"Seafood","michelin_award":"MICHELIN_PLATE","name":"Côte Vermeille","street":"Quai du Fanal"},{"_geoloc":{"lat":47.8693,"lng":1.89302},"city_name":"Olivet","country_name":"France","cuisine_type":"Modern cuisine","michelin_award":"MICHELIN_PLATE","name":"Le Pavillon Bleu","street":"315 rue de la Reine Blanche"},{"_geoloc":{"lat":43.4019,"lng":5.0578},"city_name":"Martigues","country_name":"France","cuisine_type":"Modern cuisine","michelin_award":"MICHELIN_PLATE","name":"Le Garage","street":"20 avenue Frédéric-Mistral"},{"_geoloc":{"lat":48.19589,"lng":3.27418},"city_name":"Sens","country_name":"France","cuisine_type":"Modern cuisine","michelin_award":"ONE_STAR","name":"La Madeleine","street":"35 quai Boffrand"},{"_geoloc":{"lat":45.1547373,"lng":5.3146654},"city_name":"Saint-Marcellin","country_name":"France","cuisine_type":"Modern cuisine","michelin_award":"MICHELIN_PLATE","name":"La Tivollière","street":"Château du Mollard"},{"_geoloc":{"lat":48.8730687,"lng":2.3807795},"city_name":"Paris","country_name":"France","cuisine_type":"Asian","michelin_award":"MICHELIN_PLATE","name":"Lao Siam","street":"49 rue de Belleville"},{"_geoloc":{"lat":45.8621099,"lng":-1.2288191},"city_name":"Le Grand-Village-Plage","country_name":"France","cuisine_type":"Seafood","michelin_award":"BIB_GOURMAND","name":"Le Relais des Salines","street":"Port-des-Salines"},{"_geoloc":{"lat":47.70331,"lng":-2.95083},"city_name":"Sainte-Anne-d'Auray","country_name":"France","cuisine_type":"Classic cuisine","michelin_award":"MICHELIN_PLATE","name":"L'Aubergine","street":"8 rue de Vannes"},{"_geoloc":{"lat":43.53501,"lng":5.44906},"city_name":"Aix-en-Provence","country_name":"France","cuisine_type":"Traditional cuisine","michelin_award":"MICHELIN_PLATE","name":"Villa Gallici","street":"18 bis avenue de la Violette"},{"_geoloc":{"lat":48.6115,"lng":7.74722},"city_name":"Schiltigheim","country_name":"France","cuisine_type":"Modern cuisine","michelin_award":"MICHELIN_PLATE","name":"La Fabrique","street":"32 rue de la Gare"},{"_geoloc":{"lat":46.2420122,"lng":4.7503574},"city_name":"Saint-Amour-Bellevue","country_name":"France","cuisine_type":"Creative","michelin_award":"MICHELIN_PLATE","name":"Auberge du Paradis","street":"Le Plâtre-Durand"},{"_geoloc":{"lat":43.7096891,"lng":7.1046876},"city_name":"Saint-Paul-de-Vence","country_name":"France","cuisine_type":"Modern cuisine","michelin_award":"MICHELIN_PLATE","name":"Au Jardin de la Vague","street":"chemin des Salettes"},{"_geoloc":{"lat":48.85951,"lng":2.35409},"city_name":"Paris","country_name":"France","cuisine_type":"Modern cuisine","michelin_award":"MICHELIN_PLATE","name":"GrandCœur","street":"41 rue du Temple"},{"_geoloc":{"lat":43.23355,"lng":0.07432},"city_name":"Tarbes","country_name":"France","cuisine_type":"Creative","michelin_award":"MICHELIN_PLATE","name":"L'Arpège","street":"22 place de Verdun"},{"_geoloc":{"lat":43.7014072,"lng":7.2718302},"city_name":"Nice","country_name":"France","cuisine_type":"Creative","michelin_award":"TWO_STARS","name":"Flaveur","street":"25 rue Gubernatis"},{"_geoloc":{"lat":43.590664,"lng":6.7319345},"city_name":"Tourrettes","country_name":"France","cuisine_type":"Modern cuisine","michelin_award":"ONE_STAR","name":"Faventia","street":"3100 route de Bagnols-en-Forêt"},{"_geoloc":{"lat":48.84643,"lng":2.283606},"city_name":"Paris","country_name":"France","cuisine_type":"Korean","michelin_award":"MICHELIN_PLATE","name":"Yido","street":"54 avenue Émile-Zola"},{"_geoloc":{"lat":43.6274264,"lng":6.2257807},"city_name":"Aups","country_name":"France","cuisine_type":"Traditional cuisine","michelin_award":"MICHELIN_PLATE","name":"Restaurant des Gourmets","street":"5 rue Voltaire"},{"_geoloc":{"lat":48.259735,"lng":7.45365},"city_name":"Sélestat","country_name":"France","cuisine_type":"Traditional cuisine","michelin_award":"MICHELIN_PLATE","name":"La Vieille Tour","street":"8 rue de la Jauge"},{"_geoloc":{"lat":46.3696185,"lng":4.6314401},"city_name":"Bourgvilain","country_name":"France","cuisine_type":"Modern cuisine","michelin_award":"MICHELIN_PLATE","name":"Auberge Larochette","street":"Le Bourg"},{"_geoloc":{"lat":45.91949,"lng":3.3299274},"city_name":"Maringues","country_name":"France","cuisine_type":"Modern cuisine","michelin_award":"MICHELIN_PLATE","name":"Le Carrousel","street":"14 rue du Pont-de-Morge"},{"_geoloc":{"lat":48.8692782,"lng":2.3298612},"city_name":"Paris","country_name":"France","cuisine_type":"Modern cuisine","michelin_award":"MICHELIN_PLATE","name":"Bistro Volnay","street":"8 rue Volney"},{"_geoloc":{"lat":44.17219,"lng":4.57075},"city_name":"Bagnols-sur-Cèze","country_name":"France","cuisine_type":"Modern cuisine","michelin_award":"MICHELIN_PLATE","name":"Le Cèdre de Montcaud","street":"Hameau de Combe"},{"_geoloc":{"lat":45.79213,"lng":-1.17944},"city_name":"La Tremblade","country_name":"France","cuisine_type":"Market cuisine","michelin_award":"BIB_GOURMAND","name":"La Plage de la Ribaudière","street":"52  avenue de la Cèpe"},{"_geoloc":{"lat":48.042424,"lng":7.3038726},"city_name":"Eguisheim","country_name":"France","cuisine_type":"Traditional cuisine","michelin_award":"MICHELIN_PLATE","name":"Au Vieux Porche","street":"16 rue des Trois-Châteaux"},{"_geoloc":{"lat":48.8868972,"lng":2.3328308},"city_name":"Paris","country_name":"France","cuisine_type":"Creative","michelin_award":"ONE_STAR","name":"Ken Kawasaki","street":"15 rue Caulaincourt"},{"_geoloc":{"lat":47.39547,"lng":0.65635},"city_name":"Saint-Cyr-sur-Loire","country_name":"France","cuisine_type":"Modern cuisine","michelin_award":"BIB_GOURMAND","name":"L'Atelier d'Olivier Arlot","street":"55 quai des Maisons-Blanches"},{"_geoloc":{"lat":43.29616,"lng":5.37357},"city_name":"Marseille","country_name":"France","cuisine_type":"Modern cuisine","michelin_award":"ONE_STAR","name":"Une Table au Sud","street":"2 quai du Port"},{"_geoloc":{"lat":46.0363329,"lng":4.044465},"city_name":"Riorges","country_name":"France","cuisine_type":"Modern cuisine","michelin_award":"MICHELIN_PLATE","name":"Le Bistro du Beaulieu","street":"10 rue St-André"},{"_geoloc":{"lat":43.69781,"lng":-0.37776},"city_name":"Eugénie-les-Bains","country_name":"France","cuisine_type":"Traditional cuisine","michelin_award":"MICHELIN_PLATE","name":"La Ferme aux Grives","street":"place de l'Impératrice"},{"_geoloc":{"lat":49.2906519,"lng":-0.1139667},"city_name":"Cabourg","country_name":"France","cuisine_type":"Seafood","michelin_award":"MICHELIN_PLATE","name":"Le Baligan","street":"8 Avenue Alfred Piat"},{"_geoloc":{"lat":48.746774,"lng":1.4162886},"city_name":"Cherisy","country_name":"France","cuisine_type":"Traditional cuisine","michelin_award":"BIB_GOURMAND","name":"Le Vallon de Chérisy","street":"12 route de Paris"},{"_geoloc":{"lat":48.8333,"lng":2.3243},"city_name":"Paris","country_name":"France","cuisine_type":"Classic cuisine","michelin_award":"MICHELIN_PLATE","name":"L'Assiette","street":"181 rue du Château"},{"_geoloc":{"lat":45.0664793,"lng":1.1638838},"city_name":"Montignac","country_name":"France","cuisine_type":"Modern cuisine","michelin_award":"MICHELIN_PLATE","name":"Hostellerie la Roseraie","street":"11 place d'Armes"},{"_geoloc":{"lat":48.79769,"lng":1.95139},"city_name":"Plaisir","country_name":"France","cuisine_type":"Traditional cuisine","michelin_award":"MICHELIN_PLATE","name":"La Maison des Bois","street":"1467 Avenue d'Armorique"},{"_geoloc":{"lat":43.3369314,"lng":3.219751},"city_name":"Béziers","country_name":"France","cuisine_type":"Modern cuisine","michelin_award":"MICHELIN_PLATE","name":"L'Ambassade","street":"22 boulevard de Verdun"},{"_geoloc":{"lat":48.4324181,"lng":0.0888908},"city_name":"Alençon","country_name":"France","cuisine_type":"Modern cuisine","michelin_award":"MICHELIN_PLATE","name":"La Suite","street":"13 place Auguste-Poulet-Malassis"},{"_geoloc":{"lat":45.77847,"lng":3.0868},"city_name":"Clermont-Ferrand","country_name":"France","cuisine_type":"Italian","michelin_award":"MICHELIN_PLATE","name":"Il Visconti","street":"9 rue du Terrail"},{"_geoloc":{"lat":45.1649583,"lng":5.7426839},"city_name":"Eybens","country_name":"France","cuisine_type":"Traditional cuisine","michelin_award":"MICHELIN_PLATE","name":"La Table du 20","street":"20 avenue Jean-Jaurès"},{"_geoloc":{"lat":46.19906,"lng":5.15595},"city_name":"Buellas","country_name":"France","cuisine_type":"Traditional cuisine","michelin_award":"MICHELIN_PLATE","name":"L'Auberge Bressane de Buellas","street":"10 route de Buesle"},{"_geoloc":{"lat":49.2277429,"lng":0.225582},"city_name":"Le Breuil-en-Auge","country_name":"France","cuisine_type":"Modern cuisine","michelin_award":"MICHELIN_PLATE","name":"Le Dauphin","street":"2 rue de L'Eglise"},{"_geoloc":{"lat":43.6665141,"lng":7.1447431},"city_name":"Haut-de-Cagnes","country_name":"France","cuisine_type":"Modern cuisine","michelin_award":"MICHELIN_PLATE","name":"Château Le Cagnard","street":"45 rue Sous-Barri"},{"_geoloc":{"lat":43.6324663,"lng":2.2726178},"city_name":"Castres","country_name":"France","cuisine_type":"Modern cuisine","michelin_award":"BIB_GOURMAND","name":"Les Mets d'Adélaïde","street":"28 avenue Georges-Alquier"},{"_geoloc":{"lat":43.2510951,"lng":6.6595532},"city_name":"Ramatuelle","country_name":"France","cuisine_type":"Mediterranean","michelin_award":"MICHELIN_PLATE","name":"La Table d'Augustin","street":"979 route de Tahiti"},{"_geoloc":{"lat":48.11632,"lng":-1.6051126},"city_name":"Cesson-Sévigné","country_name":"France","cuisine_type":"Traditional cuisine","michelin_award":"MICHELIN_PLATE","name":"Le Germinal","street":"9 cours de la Vilaine"},{"_geoloc":{"lat":48.8448337,"lng":2.3058563},"city_name":"Paris","country_name":"France","cuisine_type":"Traditional cuisine","michelin_award":"MICHELIN_PLATE","name":"Le Troquet","street":"21 rue François-Bonvin"},{"_geoloc":{"lat":48.9177196,"lng":2.2761878},"city_name":"Bois-Colombes","country_name":"France","cuisine_type":"Traditional cuisine","michelin_award":"MICHELIN_PLATE","name":"Le Chefson","street":"17 rue Charles-Chefson"},{"_geoloc":{"lat":46.2080096,"lng":-1.5164018},"city_name":"Ars-en-Ré","country_name":"France","cuisine_type":"Traditional cuisine","michelin_award":"MICHELIN_PLATE","name":"Ô de Mer","street":"5 rue Thiers"},{"_geoloc":{"lat":48.86321,"lng":2.33378},"city_name":"Paris","country_name":"France","cuisine_type":"Italian","michelin_award":"MICHELIN_PLATE","name":"Loulou","street":"107 rue Rivoli"},{"_geoloc":{"lat":43.56555,"lng":7.115675},"city_name":"Juan-les-Pins","country_name":"France","cuisine_type":"Creative","michelin_award":"ONE_STAR","name":"La Passagère","street":"33 boulevard Édouard-Baudoin"},{"_geoloc":{"lat":48.5813,"lng":7.75271},"city_name":"Strasbourg","country_name":"France","cuisine_type":"Traditional cuisine","michelin_award":"MICHELIN_PLATE","name":"Pierre Bois \u0026 Feu","street":"6 rue du Bain-aux-Roses"},{"_geoloc":{"lat":43.7017309,"lng":7.2756234},"city_name":"Nice","country_name":"France","cuisine_type":"Modern cuisine","michelin_award":"MICHELIN_PLATE","name":"Eau de Vie","street":"11 rue Delille"},{"_geoloc":{"lat":46.45929,"lng":-1.71507},"city_name":"Château-d'Olonne","country_name":"France","cuisine_type":"Modern cuisine","michelin_award":"MICHELIN_PLATE","name":"Cayola","street":"76 promenade de Cayola"},{"_geoloc":{"lat":45.77898,"lng":3.080394},"city_name":"Clermont-Ferrand","country_name":"France","cuisine_type":"Modern cuisine","michelin_award":"BIB_GOURMAND","name":"L'Écureuil","street":"18 rue St-Adjutor"},{"_geoloc":{"lat":48.8361274,"lng":2.2913415},"city_name":"Paris","country_name":"France","cuisine_type":"Modern cuisine","michelin_award":"BIB_GOURMAND","name":"Biscotte","street":"22 rue Desnouettes"},{"_geoloc":{"lat":47.22997,"lng":-1.6281},"city_name":"Saint-Herblain","country_name":"France","cuisine_type":"Traditional cuisine","michelin_award":"MICHELIN_PLATE","name":"Les Pellières","street":"Esplanade Georges-Brassens"},{"_geoloc":{"lat":42.618313,"lng":2.4291591},"city_name":"Prades","country_name":"France","cuisine_type":"Modern cuisine","michelin_award":"MICHELIN_PLATE","name":"Le Galie","street":"3 avenue du Général-de-Gaulle"},{"_geoloc":{"lat":45.45616,"lng":6.89849},"city_name":"Tignes","country_name":"France","cuisine_type":"Regional cuisine","michelin_award":"MICHELIN_PLATE","name":"La Table de Jeanne","street":"14 avenue de la Grande-Motte"},{"_geoloc":{"lat":42.99973,"lng":6.172104},"city_name":"Hyères","country_name":"France","cuisine_type":"Modern cuisine","michelin_award":"MICHELIN_PLATE","name":"La Pinède","street":""},{"_geoloc":{"lat":47.851331,"lng":-0.3027512},"city_name":"Solesmes","country_name":"France","cuisine_type":"Classic cuisine","michelin_award":"MICHELIN_PLATE","name":"Grand Hôtel de Solesmes","street":"16 place Dom-Guéranger"},{"_geoloc":{"lat":46.5571514,"lng":4.7364544},"city_name":"Chapaize","country_name":"France","cuisine_type":"Modern cuisine","michelin_award":"MICHELIN_PLATE","name":"La Table de Chapaize","street":"Le Bourg"},{"_geoloc":{"lat":48.11264,"lng":-1.68457},"city_name":"Rennes","country_name":"France","cuisine_type":"Modern cuisine","michelin_award":"MICHELIN_PLATE","name":"Le Carré","street":"34 place des Lices"},{"_geoloc":{"lat":47.65406,"lng":1.52179},"city_name":"Muides-sur-Loire","country_name":"France","cuisine_type":"Traditional cuisine","michelin_award":"MICHELIN_PLATE","name":"Auberge du Bon Terroir","street":"20 rue du 8-Mai-1945"},{"_geoloc":{"lat":47.644108,"lng":-2.81347},"city_name":"Arradon","country_name":"France","cuisine_type":"Modern cuisine","michelin_award":"MICHELIN_PLATE","name":"L'Arlequin","street":"3 allée Denis-Papin, parc d'activités de Botquelen"},{"_geoloc":{"lat":48.8429138,"lng":2.3207894},"city_name":"Paris","country_name":"France","cuisine_type":"Creative","michelin_award":"MICHELIN_PLATE","name":"Le Clos Y","street":"27 avenue du Maine"},{"_geoloc":{"lat":49.429867,"lng":2.084757},"city_name":"Beauvais","country_name":"France","cuisine_type":"Modern cuisine","michelin_award":"MICHELIN_PLATE","name":"Le Senso","street":"25 rue d'Agincourt"},{"_geoloc":{"lat":48.8612956,"lng":2.275163},"city_name":"Paris","country_name":"France","cuisine_type":"Mediterranean","michelin_award":"MICHELIN_PLATE","name":"Brach","street":"1-7 rue Jean Richepin"},{"_geoloc":{"lat":43.611336,"lng":3.87512},"city_name":"Montpellier","country_name":"France","cuisine_type":"Modern cuisine","michelin_award":"BIB_GOURMAND","name":"Anga","street":"19 rue du Palais-des-Guilhem"},{"_geoloc":{"lat":48.65005,"lng":7.80879},"city_name":"La Wantzenau","country_name":"France","cuisine_type":"Classic cuisine","michelin_award":"MICHELIN_PLATE","name":"Au Moulin","street":"2 impasse du Moulin"},{"_geoloc":{"lat":48.94853,"lng":2.1488},"city_name":"Maisons-Laffitte","country_name":"France","cuisine_type":"Classic cuisine","michelin_award":"MICHELIN_PLATE","name":"Le Tastevin","street":"9 avenue Eglé"},{"_geoloc":{"lat":46.9471896,"lng":3.0694275},"city_name":"Le Guétin","country_name":"France","cuisine_type":"Traditional cuisine","michelin_award":"MICHELIN_PLATE","name":"Auberge du Pont-Canal","street":"37 rue des Écluses"},{"_geoloc":{"lat":47.1659776,"lng":0.2407273},"city_name":"Chinon","country_name":"France","cuisine_type":"Seafood","michelin_award":"MICHELIN_PLATE","name":"L'Océanic","street":"13 rue Rabelais"},{"_geoloc":{"lat":47.42523,"lng":1.10598},"city_name":"Vallières-les-Grandes","country_name":"France","cuisine_type":"Traditional cuisine","michelin_award":"MICHELIN_PLATE","name":"Les Closeaux","street":"Lieu-dit les Closeaux"},{"_geoloc":{"lat":50.6579513,"lng":3.1030744},"city_name":"Marcq-en-Barœul","country_name":"France","cuisine_type":"Modern cuisine","michelin_award":"MICHELIN_PLATE","name":"La Salle à Manger","street":"287 boulevard Clemenceau"},{"_geoloc":{"lat":44.6635348,"lng":-1.163999},"city_name":"Arcachon","country_name":"France","cuisine_type":"Seafood","michelin_award":"MICHELIN_PLATE","name":"Chez Pierre","street":"1 boulevard Veyrier-Montagnères"},{"_geoloc":{"lat":48.63526,"lng":-2.04977},"city_name":"Dinard","country_name":"France","cuisine_type":"Modern cuisine","michelin_award":"ONE_STAR","name":"Le Pourquoi Pas","street":"17 avenue George-V"},{"_geoloc":{"lat":48.8793235,"lng":2.3346319},"city_name":"Paris","country_name":"France","cuisine_type":"Modern cuisine","michelin_award":"BIB_GOURMAND","name":"Les Canailles Pigalle","street":"25 rue La Bruyère"},{"_geoloc":{"lat":44.9787356,"lng":1.8383361},"city_name":"Beaulieu-sur-Dordogne","country_name":"France","cuisine_type":"Modern cuisine","michelin_award":"BIB_GOURMAND","name":"Le Turenne","street":"boulevard Saint-Rodolphe-de-Turenne"},{"_geoloc":{"lat":48.8518603,"lng":2.3388008},"city_name":"Paris","country_name":"France","cuisine_type":"Traditional cuisine","michelin_award":"MICHELIN_PLATE","name":"Le Comptoir du Relais","street":"5 carrefour de l'Odéon"},{"_geoloc":{"lat":48.8977307,"lng":2.1008078},"city_name":"Saint-Germain-en-Laye","country_name":"France","cuisine_type":"Classic cuisine","michelin_award":"MICHELIN_PLATE","name":"Pavillon Henri IV","street":"19 Rue Thiers"},{"_geoloc":{"lat":47.8217465,"lng":1.9114269},"city_name":"Ardon","country_name":"France","cuisine_type":"Modern cuisine","michelin_award":"ONE_STAR","name":"La Table d'à Côté","street":"200 allée des Quatre-Vents"},{"_geoloc":{"lat":44.9325175,"lng":4.886576},"city_name":"Valence","country_name":"France","cuisine_type":"Creative","michelin_award":"ONE_STAR","name":"La Cachette","street":"16 Rue des Cévennes"},{"_geoloc":{"lat":48.8379358,"lng":2.2817809},"city_name":"Paris","country_name":"France","cuisine_type":"Traditional cuisine","michelin_award":"MICHELIN_PLATE","name":"L'Os à Moelle","street":"3 rue Vasco-de-Gama"},{"_geoloc":{"lat":48.8546356,"lng":2.3408499},"city_name":"Paris","country_name":"France","cuisine_type":"Classic cuisine","michelin_award":"ONE_STAR","name":"Relais Louis XIII","street":"8 rue des Grands-Augustins"},{"_geoloc":{"lat":48.8686785,"lng":2.3250523},"city_name":"Paris","country_name":"France","cuisine_type":"Traditional cuisine","michelin_award":"MICHELIN_PLATE","name":"Chez Monsieur","street":"11 rue du Chevalier-de-Saint-George"},{"_geoloc":{"lat":48.1148181,"lng":-1.675896},"city_name":"Rennes","country_name":"France","cuisine_type":"Market cuisine","michelin_award":"MICHELIN_PLATE","name":"Bercail","street":"33 rue Saint-Melaine"},{"_geoloc":{"lat":45.7515118,"lng":4.8539268},"city_name":"Lyon","country_name":"France","cuisine_type":"Classic cuisine","michelin_award":"MICHELIN_PLATE","name":"Le Suprême","street":"106 cours Gambetta"},{"_geoloc":{"lat":48.85283,"lng":2.3602097},"city_name":"Paris","country_name":"France","cuisine_type":"Thai","michelin_award":"MICHELIN_PLATE","name":"Thaï Spices","street":"5-7 rue de l'Ave-Maria"},{"_geoloc":{"lat":48.8876647,"lng":2.3182189},"city_name":"Paris","country_name":"France","cuisine_type":"Modern cuisine","michelin_award":"BIB_GOURMAND","name":"Comme Chez Maman","street":"5 rue des Moines"},{"_geoloc":{"lat":43.5283234,"lng":5.4538258},"city_name":"Aix-en-Provence","country_name":"France","cuisine_type":"Seafood","michelin_award":"MICHELIN_PLATE","name":"Molène de Mickaël Féval","street":"31 bis rue Manuel"},{"_geoloc":{"lat":48.8502565,"lng":2.3186047},"city_name":"Paris","country_name":"France","cuisine_type":"Modern cuisine","michelin_award":"MICHELIN_PLATE","name":"L'Inconnu","street":"4 rue Pierre-Leroux"},{"_geoloc":{"lat":47.7486709,"lng":-3.3578633},"city_name":"Lorient","country_name":"France","cuisine_type":"Traditional cuisine","michelin_award":"BIB_GOURMAND","name":"Le Tire Bouchon","street":"45 rue Jules-le-Grand"},{"_geoloc":{"lat":45.5489,"lng":3.74304},"city_name":"Ambert","country_name":"France","cuisine_type":"Traditional cuisine","michelin_award":"MICHELIN_PLATE","name":"Les Copains","street":"42 boulevard Henri-IV"},{"_geoloc":{"lat":43.75853,"lng":-1.33722},"city_name":"Soustons","country_name":"France","cuisine_type":"Traditional cuisine","michelin_award":"MICHELIN_PLATE","name":"Auberge Batby","street":"63 avenue Galleben"},{"_geoloc":{"lat":48.85883,"lng":2.3645},"city_name":"Paris","country_name":"France","cuisine_type":"Modern cuisine","michelin_award":"MICHELIN_PLATE","name":"Raw","street":"57 rue de Turenne"},{"_geoloc":{"lat":45.77926,"lng":3.08993},"city_name":"Clermont-Ferrand","country_name":"France","cuisine_type":"Modern cuisine","michelin_award":"BIB_GOURMAND","name":"Smørrebrød","street":"10-12 rue des Archers"},{"_geoloc":{"lat":44.70659,"lng":6.608109},"city_name":"Saint-Crépin","country_name":"France","cuisine_type":"Modern cuisine","michelin_award":"ONE_STAR","name":"Les Tables de Gaspard","street":"rue Principale"},{"_geoloc":{"lat":48.867379,"lng":2.2976031},"city_name":"Paris","country_name":"France","cuisine_type":"Modern cuisine","michelin_award":"MICHELIN_PLATE","name":"Substance","street":"18 rue de Chaillot"},{"_geoloc":{"lat":43.7316508,"lng":7.1066248},"city_name":"Vence","country_name":"France","cuisine_type":"Modern cuisine","michelin_award":"ONE_STAR","name":"Le Saint-Martin","street":"2490 Avenue des Templiers"},{"_geoloc":{"lat":48.8714069,"lng":2.3252971},"city_name":"Paris","country_name":"France","cuisine_type":"Creative","michelin_award":"ONE_STAR","name":"Akrame","street":"7 rue Tronchet"},{"_geoloc":{"lat":48.8593481,"lng":2.4053637},"city_name":"Paris","country_name":"France","cuisine_type":"Modern cuisine","michelin_award":"BIB_GOURMAND","name":"Sadarnac","street":"17 rue Saint-Blaise"},{"_geoloc":{"lat":44.486043,"lng":1.8435946},"city_name":"Cajarc","country_name":"France","cuisine_type":"Modern cuisine","michelin_award":"BIB_GOURMAND","name":"Jeu de Quilles","street":"7 boulevard Tour-de-Ville"},{"_geoloc":{"lat":45.7713266,"lng":4.8372232},"city_name":"Lyon","country_name":"France","cuisine_type":"Modern cuisine","michelin_award":"MICHELIN_PLATE","name":"Monsieur P","street":"8 place des Célestins"},{"_geoloc":{"lat":43.0891229,"lng":2.6196977},"city_name":"Lagrasse","country_name":"France","cuisine_type":"Modern cuisine","michelin_award":"BIB_GOURMAND","name":"Le Bastion","street":"50 boulevard de la Promenade"},{"_geoloc":{"lat":44.92986,"lng":2.446885},"city_name":"Aurillac","country_name":"France","cuisine_type":"Modern cuisine","michelin_award":"BIB_GOURMAND","name":"Quatre Saisons","street":"10 rue Jean-Baptiste Champeil"},{"_geoloc":{"lat":50.210193,"lng":3.9489885},"city_name":"Beaufort","country_name":"France","cuisine_type":"Traditional cuisine","michelin_award":"MICHELIN_PLATE","name":"Le Relais de Beaufort","street":"RN 2"},{"_geoloc":{"lat":47.7119734,"lng":5.8879472},"city_name":"Combeaufontaine","country_name":"France","cuisine_type":"Traditional cuisine","michelin_award":"BIB_GOURMAND","name":"Le Balcon","street":"2 Grande-Rue"},{"_geoloc":{"lat":22.15102,"lng":113.553795},"city_name":"Macau","country_name":"Macao","cuisine_type":"Italian","michelin_award":"MICHELIN_PLATE","name":"Terrazza","street":"路氹城望德聖母灣大馬路澳門銀河綜合渡假城銀河酒店2樓201號舖"},{"_geoloc":{"lat":22.2011387,"lng":113.5372218},"city_name":"Macau","country_name":"Macao","cuisine_type":"Noodles and congee","michelin_award":"BIB_GOURMAND","name":"Lok Kei Noodle","street":"澳門沙梨頭仁慕巷1號D"},{"_geoloc":{"lat":22.1476053,"lng":113.5725889},"city_name":"Macau","country_name":"Macao","cuisine_type":"Sichuan","michelin_award":"TWO_STARS","name":"Sichuan Moon","street":"路氹體育館大馬路永利皇宮北名店街地面層"},{"_geoloc":{"lat":22.149635,"lng":113.56397},"city_name":"Macau","country_name":"Macao","cuisine_type":"Shanghainese","michelin_award":"BIB_GOURMAND","name":"Din Tai Fung (COD)","street":"路氹連貫公路新濠天地2樓蘇濠"},{"_geoloc":{"lat":22.1466458,"lng":113.5556283},"city_name":"Macau","country_name":"Macao","cuisine_type":"Italian","michelin_award":"ONE_STAR","name":"8 1/2 Otto e Mezzo - Bombana","street":"路氹城澳門銀河綜合渡假城1樓1031號舖"},{"_geoloc":{"lat":22.194904,"lng":113.55707},"city_name":"Macau","country_name":"Macao","cuisine_type":"Noodles and congee","michelin_award":"MICHELIN_PLATE","name":"Wong Kun Sio Kung (Broadway)","street":"路氹城蓮花海濱大馬路澳門百老匯百老匯美食街A-G017舖"},{"_geoloc":{"lat":22.1484753,"lng":113.5598605},"city_name":"Macau","country_name":"Macao","cuisine_type":"Indian","michelin_award":"ONE_STAR","name":"The Golden Peacock","street":"氹仔望德聖母灣大馬路威尼斯人酒店大運河購物中心1樓1037號舖"},{"_geoloc":{"lat":22.188755,"lng":113.54488},"city_name":"Macau","country_name":"Macao","cuisine_type":"Japanese","michelin_award":"TWO_STARS","name":"Mizumi (Macau)","street":"澳門外港新填海區仙德麗街永利酒店地下"},{"_geoloc":{"lat":22.204422,"lng":113.54413},"city_name":"Macau","country_name":"Macao","cuisine_type":"Street Food","michelin_award":"MICHELIN_PLATE","name":"Chong Shing","street":"澳門新橋道咩啤利士街11號地下"},{"_geoloc":{"lat":22.1499231,"lng":113.5650238},"city_name":"Macau","country_name":"Macao","cuisine_type":"French contemporary","michelin_award":"TWO_STARS","name":"The Tasting Room","street":"路氹連貫公路新濠天地頤居3樓"},{"_geoloc":{"lat":22.150902,"lng":113.55416},"city_name":"Macau","country_name":"Macao","cuisine_type":"French","michelin_award":"MICHELIN_PLATE","name":"The Ritz-Carlton Café","street":"路氹城望德聖母灣大馬路澳門銀河綜合渡假城麗思卡爾頓酒店地下"},{"_geoloc":{"lat":22.2000023,"lng":113.5374411},"city_name":"Macau","country_name":"Macao","cuisine_type":"Noodles and congee","michelin_award":"MICHELIN_PLATE","name":"Ngao Kei Ka Lei Chon (Macau)","street":"澳門十月初五街1號地下"},{"_geoloc":{"lat":22.146591,"lng":113.564285},"city_name":"Macau","country_name":"Macao","cuisine_type":"Cantonese","michelin_award":"MICHELIN_PLATE","name":"Dynasty 8","street":"路氹連貫公路康萊德酒店1樓"},{"_geoloc":{"lat":22.185957,"lng":113.548454},"city_name":"Macau","country_name":"Macao","cuisine_type":"Cantonese","michelin_award":"MICHELIN_PLATE","name":"Imperial Court","street":"澳門外港新填海區孫逸仙大馬路澳門美高梅酒店地下"},{"_geoloc":{"lat":22.145418,"lng":113.56152},"city_name":"Macau","country_name":"Macao","cuisine_type":"Cantonese","michelin_award":"ONE_STAR","name":"Zi Yat Heen","street":"路氹望德聖母灣大馬路四季酒店地下"},{"_geoloc":{"lat":22.150077,"lng":113.5673912},"city_name":"Macau","country_name":"Macao","cuisine_type":"French contemporary","michelin_award":"TWO_STARS","name":"Alain Ducasse at Morpheus","street":"路氹連貫公路新濠天地摩珀斯3樓"},{"_geoloc":{"lat":22.1475177,"lng":113.5702912},"city_name":"Macau","country_name":"Macao","cuisine_type":"Cantonese","michelin_award":"MICHELIN_PLATE","name":"Wing Lei Palace","street":"路氹城體育路大馬路永利皇宮西名店街地面層"},{"_geoloc":{"lat":22.149635,"lng":113.56397},"city_name":"Macau","country_name":"Macao","cuisine_type":"Sushi","michelin_award":"ONE_STAR","name":"Shinji by Kanesaka","street":"路氹連貫公路新濠天地頤居1樓"},{"_geoloc":{"lat":22.118433,"lng":113.55149},"city_name":"Macau","country_name":"Macao","cuisine_type":"Portuguese","michelin_award":"MICHELIN_PLATE","name":"Espaço Lisboa","street":"路環水鴨街8號"},{"_geoloc":{"lat":22.148754,"lng":113.551926},"city_name":"Macau","country_name":"Macao","cuisine_type":"Cantonese","michelin_award":"ONE_STAR","name":"Lai Heen","street":"路氹城望德聖母灣大馬路銀河綜合渡假城麗思卡爾頓酒店51樓"},{"_geoloc":{"lat":22.1466268,"lng":113.5538849},"city_name":"Macau","country_name":"Macao","cuisine_type":"Cantonese","michelin_award":"MICHELIN_PLATE","name":"Fook Lam Moon","street":"路氹城澳門銀河綜合渡假城二期商場2樓2008號舖"},{"_geoloc":{"lat":22.14857,"lng":113.56542},"city_name":"Macau","country_name":"Macao","cuisine_type":"Pekingese","michelin_award":"MICHELIN_PLATE","name":"Beijing Kitchen","street":"路氹連貫公路新濠天地君悅酒店1樓"},{"_geoloc":{"lat":22.153482,"lng":113.55707},"city_name":"Macau","country_name":"Macao","cuisine_type":"Street Food","michelin_award":"MICHELIN_PLATE","name":"Ving Kei (Macau)","street":"澳門果欄街47號地下"},{"_geoloc":{"lat":22.194235,"lng":113.54116},"city_name":"Macau","country_name":"Macao","cuisine_type":"Street Food","michelin_award":"MICHELIN_PLATE","name":"Kika","street":"澳門大堂巷11A號地下"},{"_geoloc":{"lat":22.149446,"lng":113.552185},"city_name":"Macau","country_name":"Macao","cuisine_type":"Japanese","michelin_award":"MICHELIN_PLATE","name":"Yamazato","street":"路氹城蓮花海濱大馬路澳門銀河綜合渡假城大倉酒店28樓"},{"_geoloc":{"lat":22.18996,"lng":113.54794},"city_name":"Macau","country_name":"Macao","cuisine_type":"Hunanese and Sichuan","michelin_award":"TWO_STARS","name":"Feng Wei Ju","street":"澳門友誼大馬路星際酒店5樓"},{"_geoloc":{"lat":22.1528741,"lng":113.5565986},"city_name":"Macau","country_name":"Macao","cuisine_type":"Portuguese","michelin_award":"MICHELIN_PLATE","name":"António","street":"氹仔木鐸街7號"},{"_geoloc":{"lat":22.149137,"lng":113.56715},"city_name":"Macau","country_name":"Macao","cuisine_type":"Cantonese","michelin_award":"THREE_STARS","name":"Jade Dragon","street":"路氹連貫公路新濠天地新濠大道2樓"},{"_geoloc":{"lat":22.187729,"lng":113.5483},"city_name":"Macau","country_name":"Macao","cuisine_type":"Macanese","michelin_award":"MICHELIN_PLATE","name":"Café Encore","street":"澳門外港新填海區仙德麗街萬利酒店地下"},{"_geoloc":{"lat":22.156275,"lng":113.559494},"city_name":"Macau","country_name":"Macao","cuisine_type":"Portuguese","michelin_award":"MICHELIN_PLATE","name":"Manuel Cozinha Portuguesa","street":"氹仔飛能便度街90號"},{"_geoloc":{"lat":22.20696,"lng":113.548256},"city_name":"Macau","country_name":"Macao","cuisine_type":"Macanese","michelin_award":"BIB_GOURMAND","name":"IFT Educational Restaurant","street":"澳門望廈山望廈迎賓館"},{"_geoloc":{"lat":22.153482,"lng":113.55707},"city_name":"Macau","country_name":"Macao","cuisine_type":"Street Food","michelin_award":"MICHELIN_PLATE","name":"Yi Shun (Macau)","street":"澳門新馬路381號"},{"_geoloc":{"lat":22.1911977,"lng":113.5432276},"city_name":"Macau","country_name":"Macao","cuisine_type":"Steakhouse","michelin_award":"ONE_STAR","name":"The Kitchen","street":"澳門葡京路新葡京酒店3樓"},{"_geoloc":{"lat":22.188412,"lng":113.54567},"city_name":"Macau","country_name":"Macao","cuisine_type":"Noodles","michelin_award":"MICHELIN_PLATE","name":"99 Noodles (Macau)","street":"澳門外港新填海區仙德麗街萬利酒店地下"},{"_geoloc":{"lat":22.195272,"lng":113.54463},"city_name":"Macau","country_name":"Macao","cuisine_type":"Noodles and congee","michelin_award":"MICHELIN_PLATE","name":"Wong Kun Sio Kung (Rua do Campo)","street":"澳門水坑尾街308-310號A"},{"_geoloc":{"lat":22.116873,"lng":113.55135},"city_name":"Macau","country_name":"Macao","cuisine_type":"Cantonese","michelin_award":"BIB_GOURMAND","name":"Chan Seng Kei","street":"路環計單奴街21號"},{"_geoloc":{"lat":22.189949,"lng":113.54395},"city_name":"Macau","country_name":"Macao","cuisine_type":"French contemporary","michelin_award":"THREE_STARS","name":"Robuchon au Dôme","street":"澳門葡京路新葡京酒店43樓"},{"_geoloc":{"lat":22.153435,"lng":113.55706},"city_name":"Macau","country_name":"Macao","cuisine_type":"Street Food","michelin_award":"MICHELIN_PLATE","name":"Mok Yee Kei","street":"氹仔官也街9號"},{"_geoloc":{"lat":22.18753,"lng":113.54806},"city_name":"Macau","country_name":"Macao","cuisine_type":"Beijing-Cantonese","michelin_award":"TWO_STARS","name":"Golden Flower","street":"澳門外港新填海區仙德麗街萬利酒店地下"},{"_geoloc":{"lat":22.187046,"lng":113.53116},"city_name":"Macau","country_name":"Macao","cuisine_type":"Portuguese","michelin_award":"MICHELIN_PLATE","name":"A Lorcha","street":"河邊新街289號"},{"_geoloc":{"lat":22.142918,"lng":113.56385},"city_name":"Macau","country_name":"Macao","cuisine_type":"French","michelin_award":"MICHELIN_PLATE","name":"Voyages by Alain Ducasse","street":"路氹連貫公路新濠天地摩珀斯3樓"},{"_geoloc":{"lat":22.188028,"lng":113.54578},"city_name":"Macau","country_name":"Macao","cuisine_type":"Cantonese","michelin_award":"TWO_STARS","name":"Wing Lei","street":"澳門外港新填海區仙德麗街永利酒店地下"},{"_geoloc":{"lat":22.19277,"lng":113.553246},"city_name":"Macau","country_name":"Macao","cuisine_type":"Cantonese","michelin_award":"MICHELIN_PLATE","name":"Kam Lai Heen","street":"澳門友誼大馬路956-1110號金麗華酒店2樓"},{"_geoloc":{"lat":22.2058929,"lng":113.5449579},"city_name":"Macau","country_name":"Macao","cuisine_type":"Cantonese","michelin_award":"MICHELIN_PLATE","name":"Lung Wah Tea House","street":"澳門提督市北街3號"},{"_geoloc":{"lat":22.198725,"lng":113.53753},"city_name":"Macau","country_name":"Macao","cuisine_type":"Street Food","michelin_award":"MICHELIN_PLATE","name":"Leong Heng Kei","street":"澳門十月初五日街51號地舖"},{"_geoloc":{"lat":22.1457276,"lng":113.5680458},"city_name":"Macau","country_name":"Macao","cuisine_type":"Sichuan","michelin_award":"MICHELIN_PLATE","name":"Five Foot Road","street":"路氹體育館大馬路美獅美高梅地下"},{"_geoloc":{"lat":22.153698,"lng":113.558304},"city_name":"Macau","country_name":"Macao","cuisine_type":"Portuguese","michelin_award":"BIB_GOURMAND","name":"O Castiço","street":"氹仔施督憲正街65號B"},{"_geoloc":{"lat":22.1403,"lng":113.56237},"city_name":"Macau","country_name":"Macao","cuisine_type":"Cantonese-Sichuan","michelin_award":"MICHELIN_PLATE","name":"Bi Ying","street":"路氹連貫公路新濠影匯娛樂場1樓1182號舖"},{"_geoloc":{"lat":22.161308,"lng":113.55551},"city_name":"Macau","country_name":"Macao","cuisine_type":"Japanese","michelin_award":"MICHELIN_PLATE","name":"Tenmasa","street":"氹仔廣東大馬路新濠鋒酒店11樓"},{"_geoloc":{"lat":22.1499419,"lng":113.5665969},"city_name":"Macau","country_name":"Macao","cuisine_type":"Chinese contemporary","michelin_award":"MICHELIN_PLATE","name":"Yi","street":"路氹連貫公路新濠天地摩珀斯21樓"},{"_geoloc":{"lat":22.192223,"lng":113.5526},"city_name":"Macau","country_name":"Macao","cuisine_type":"Thai","michelin_award":"MICHELIN_PLATE","name":"Naam","street":"澳門友誼大馬路956-1110號金麗華酒店地下"},{"_geoloc":{"lat":22.147928,"lng":113.56047},"city_name":"Macau","country_name":"Macao","cuisine_type":"Cantonese","michelin_award":"MICHELIN_PLATE","name":"Lei Garden","street":"氹仔望德聖母灣大馬路威尼斯人酒店大運河購物中心3樓855號舖"},{"_geoloc":{"lat":22.147837,"lng":113.56085},"city_name":"Macau","country_name":"Macao","cuisine_type":"Cantonese","michelin_award":"MICHELIN_PLATE","name":"Canton","street":"氹仔望德聖母灣大馬路威尼斯人酒店娛樂場1樓1018號舖"},{"_geoloc":{"lat":22.2084446,"lng":113.5436374},"city_name":"Macau","country_name":"Macao","cuisine_type":"Cantonese","michelin_award":"BIB_GOURMAND","name":"Lou Kei (Fai Chi Kei)","street":"澳門和樂大馬路12號宏基大廈第4座H及M舖"},{"_geoloc":{"lat":22.1415956,"lng":113.5610548},"city_name":"Macau","country_name":"Macao","cuisine_type":"Cantonese","michelin_award":"ONE_STAR","name":"Pearl Dragon","street":"路氹連貫公路新濠影匯酒店星匯2樓2111號"},{"_geoloc":{"lat":22.158823,"lng":113.55077},"city_name":"Macau","country_name":"Macao","cuisine_type":"Portuguese","michelin_award":"MICHELIN_PLATE","name":"Banza","street":"氹仔廣東大馬路154A及154B號南新花園第5座地下G、H座"},{"_geoloc":{"lat":22.1619565,"lng":113.5551252},"city_name":"Macau","country_name":"Macao","cuisine_type":"Cantonese","michelin_award":"ONE_STAR","name":"Ying","street":"氹仔廣東大馬路新濠鋒酒店11樓"},{"_geoloc":{"lat":22.190178,"lng":113.54028},"city_name":"Macau","country_name":"Macao","cuisine_type":"Cantonese","michelin_award":"ONE_STAR","name":"King","street":"澳門商業大馬路251A-301號友邦廣場地下G05-07"},{"_geoloc":{"lat":22.190475,"lng":113.54341},"city_name":"Macau","country_name":"Macao","cuisine_type":"Cantonese","michelin_award":"THREE_STARS","name":"The Eight","street":"澳門葡京路新葡京酒店2樓"},{"_geoloc":{"lat":22.189898,"lng":113.5439},"city_name":"Macau","country_name":"Macao","cuisine_type":"Cantonese","michelin_award":"ONE_STAR","name":"Tim's Kitchen","street":"澳門葡京路2-4號葡京酒店東翼地下F25號舖"},{"_geoloc":{"lat":22.118105,"lng":113.55148},"city_name":"Macau","country_name":"Macao","cuisine_type":"Street Food","michelin_award":"MICHELIN_PLATE","name":"Lord Stow's Bakery (Rua do Tassara)","street":"路環市中心戴紳禮街1號"},{"_geoloc":{"lat":22.195152,"lng":113.54047},"city_name":"Macau","country_name":"Macao","cuisine_type":"Street Food","michelin_award":"MICHELIN_PLATE","name":"Sei Kee Café (Rua da Palha)","street":"澳門賣草地街乾草圍15號D"},{"_geoloc":{"lat":22.153482,"lng":113.55707},"city_name":"Macau","country_name":"Macao","cuisine_type":"Street Food","michelin_award":"MICHELIN_PLATE","name":"Fong Kei","street":"氹仔官也街14號"},{"_geoloc":{"lat":22.194918,"lng":113.53757},"city_name":"Macau","country_name":"Macao","cuisine_type":"Noodles","michelin_award":"BIB_GOURMAND","name":"Cheong Kei","street":"澳門福隆新街68號"},{"_geoloc":{"lat":22.188116,"lng":113.54587},"city_name":"Macau","country_name":"Macao","cuisine_type":"Italian","michelin_award":"MICHELIN_PLATE","name":"Il Teatro","street":"澳門外港新填海區仙德麗街永利酒店1樓"},{"_geoloc":{"lat":22.2781199,"lng":114.1707918},"city_name":"Hong Kong","country_name":"Hong Kong","cuisine_type":"Shanghainese","michelin_award":"ONE_STAR","name":"Liu Yuan Pavilion","street":"灣仔駱克道54-62號博匯大廈3樓"},{"_geoloc":{"lat":22.2850017,"lng":114.15291},"city_name":"Hong Kong","country_name":"Hong Kong","cuisine_type":"Innovative","michelin_award":"ONE_STAR","name":"Vea","street":"中環威靈頓街198號The Wellington 30樓"},{"_geoloc":{"lat":22.2792455,"lng":114.1817038},"city_name":"Hong Kong","country_name":"Hong Kong","cuisine_type":"Shanghainese","michelin_award":"MICHELIN_PLATE","name":"Shanghai Yu Yuan","street":"銅鑼灣登龍街18號 V Point 26樓"},{"_geoloc":{"lat":22.2960349,"lng":114.1683295},"city_name":"Hong Kong","country_name":"Hong Kong","cuisine_type":"French contemporary","michelin_award":"ONE_STAR","name":"Épure","street":"尖沙咀廣東道海港城海洋中心4樓403號舖"},{"_geoloc":{"lat":22.281584,"lng":114.15321},"city_name":"Hong Kong","country_name":"Hong Kong","cuisine_type":"Middle Eastern","michelin_award":"BIB_GOURMAND","name":"Le Souk","street":"中環士丹頓街4號"},{"_geoloc":{"lat":22.29125,"lng":114.195496},"city_name":"Hong Kong","country_name":"Hong Kong","cuisine_type":"Fujian","michelin_award":"MICHELIN_PLATE","name":"Sun Fook Kee","street":"北角渣華道3-5 號永光閣1樓"},{"_geoloc":{"lat":22.291431,"lng":114.195175},"city_name":"Hong Kong","country_name":"Hong Kong","cuisine_type":"Dim Sum","michelin_award":"BIB_GOURMAND","name":"Tim Ho Wan (North Point)","street":"北角和富道2-8號"},{"_geoloc":{"lat":22.2864372,"lng":114.1485818},"city_name":"Hong Kong","country_name":"Hong Kong","cuisine_type":"Chiu Chow","michelin_award":"BIB_GOURMAND","name":"Chan Kan Kee Chiu Chow","street":"上環皇后大道西11號"},{"_geoloc":{"lat":22.285545,"lng":114.132324},"city_name":"Hong Kong","country_name":"Hong Kong","cuisine_type":"Chiu Chow","michelin_award":"BIB_GOURMAND","name":"Tak Kee","street":"西環卑路乍街3號G地舖"},{"_geoloc":{"lat":22.26921,"lng":114.18452},"city_name":"Hong Kong","country_name":"Hong Kong","cuisine_type":"Cantonese","michelin_award":"ONE_STAR","name":"Pang's Kitchen","street":"跑馬地奕蔭街25號"},{"_geoloc":{"lat":22.28005,"lng":114.15525},"city_name":"Hong Kong","country_name":"Hong Kong","cuisine_type":"Indian","michelin_award":"ONE_STAR","name":"New Punjab Club","street":"中環雲咸街34號世界商業大廈地下"},{"_geoloc":{"lat":22.282127,"lng":114.15948},"city_name":"Hong Kong","country_name":"Hong Kong","cuisine_type":"French contemporary","michelin_award":"TWO_STARS","name":"Pierre","street":"中環干諾道中5號文華東方酒店25樓"},{"_geoloc":{"lat":22.29646,"lng":114.17124},"city_name":"Hong Kong","country_name":"Hong Kong","cuisine_type":"Sichuan","michelin_award":"MICHELIN_PLATE","name":"Qi (Tsim Sha Tsui)","street":"尖沙咀北京道12號A太子集團中心20樓"},{"_geoloc":{"lat":22.282213,"lng":114.15951},"city_name":"Hong Kong","country_name":"Hong Kong","cuisine_type":"Cantonese","michelin_award":"ONE_STAR","name":"Man Wah","street":"中環干諾道中5號文華東方酒店25樓"},{"_geoloc":{"lat":22.281122,"lng":114.1731366},"city_name":"Hong Kong","country_name":"Hong Kong","cuisine_type":"Shanghainese","michelin_award":"BIB_GOURMAND","name":"New Shanghai","street":"灣仔港灣道1號香港會議展覽中心1樓"},{"_geoloc":{"lat":22.2801049,"lng":114.1767966},"city_name":"Hong Kong","country_name":"Hong Kong","cuisine_type":"Cantonese","michelin_award":"ONE_STAR","name":"Rùn","street":"灣仔港灣徑1號瑞吉酒店2樓"},{"_geoloc":{"lat":22.2764202,"lng":114.1683923},"city_name":"Hong Kong","country_name":"Hong Kong","cuisine_type":"Vietnamese","michelin_award":"BIB_GOURMAND","name":"Brass Spoon (Wan Chai)","street":"灣仔月街1-3號地下B舖"},{"_geoloc":{"lat":22.446249,"lng":114.029175},"city_name":"Hong Kong","country_name":"Hong Kong","cuisine_type":"Cantonese","michelin_award":"BIB_GOURMAND","name":"Tai Wing Wah","street":"元朗安寧路2-6號2樓"},{"_geoloc":{"lat":22.2799005,"lng":114.1761315},"city_name":"Hong Kong","country_name":"Hong Kong","cuisine_type":"French contemporary","michelin_award":"ONE_STAR","name":"L'Envol","street":"灣仔港灣徑1號瑞吉酒店3樓"},{"_geoloc":{"lat":22.330778,"lng":114.16328},"city_name":"Hong Kong","country_name":"Hong Kong","cuisine_type":"Street Food","michelin_award":"MICHELIN_PLATE","name":"Kwan Kee Store","street":"深水埗福華街115-117號"},{"_geoloc":{"lat":22.318314,"lng":114.16933},"city_name":"Hong Kong","country_name":"Hong Kong","cuisine_type":"Cantonese","michelin_award":"ONE_STAR","name":"Ming Court (Mong Kok)","street":"旺角上海街555號康得思酒店6樓"},{"_geoloc":{"lat":22.2804452,"lng":114.1578501},"city_name":"Hong Kong","country_name":"Hong Kong","cuisine_type":"Cantonese","michelin_award":"MICHELIN_PLATE","name":"China Tang (Central)","street":"中環皇后大道中15號置地廣場中庭4樓411-413號舖"},{"_geoloc":{"lat":22.280643,"lng":114.15674},"city_name":"Hong Kong","country_name":"Hong Kong","cuisine_type":"Japanese","michelin_award":"TWO_STARS","name":"Kashiwaya","street":"中環安蘭街18號8樓"},{"_geoloc":{"lat":22.287966,"lng":114.21084},"city_name":"Hong Kong","country_name":"Hong Kong","cuisine_type":"Ramen","michelin_award":"BIB_GOURMAND","name":"Shugetsu Ramen (Quarry Bay)","street":"鰂魚涌海光街30號"},{"_geoloc":{"lat":22.336475,"lng":114.19746},"city_name":"Hong Kong","country_name":"Hong Kong","cuisine_type":"Street Food","michelin_award":"MICHELIN_PLATE","name":"King Of Soyabeans (San Po Kong)","street":"新蒲崗大有街34號新科技廣場地下9號舖"},{"_geoloc":{"lat":22.2950422,"lng":114.1757655},"city_name":"Hong Kong","country_name":"Hong Kong","cuisine_type":"Shun Tak","michelin_award":"MICHELIN_PLATE","name":"The Legacy House","street":"尖沙咀梳士巴利道18號瑰麗酒店5樓"},{"_geoloc":{"lat":22.33149,"lng":114.16336},"city_name":"Hong Kong","country_name":"Hong Kong","cuisine_type":"Thai","michelin_award":"BIB_GOURMAND","name":"Thai Chiu (Sham Shui Po)","street":"深水埗福榮街101號"},{"_geoloc":{"lat":22.2983152,"lng":114.167864},"city_name":"Hong Kong","country_name":"Hong Kong","cuisine_type":"Cantonese","michelin_award":"MICHELIN_PLATE","name":"China Tang (Tsim Sha Tsui)","street":"尖沙咀廣東道17號海港城港威商場4樓4101號舖"},{"_geoloc":{"lat":22.2856795,"lng":114.1404549},"city_name":"Hong Kong","country_name":"Hong Kong","cuisine_type":"Indonesian","michelin_award":"MICHELIN_PLATE","name":"Kaum","street":"西營盤第三街100號地下"},{"_geoloc":{"lat":22.2834338,"lng":114.2210513},"city_name":"Hong Kong","country_name":"Hong Kong","cuisine_type":"Cantonese","michelin_award":"BIB_GOURMAND","name":"Hop Sze","street":"西灣河筲箕灣道39號麗灣大廈地下"},{"_geoloc":{"lat":22.276997,"lng":114.177055},"city_name":"Hong Kong","country_name":"Hong Kong","cuisine_type":"Cantonese","michelin_award":"BIB_GOURMAND","name":"Megan's Kitchen","street":"灣仔灣仔道165-171號樂基中心5樓"},{"_geoloc":{"lat":22.32161,"lng":114.17066},"city_name":"Hong Kong","country_name":"Hong Kong","cuisine_type":"Street Food","michelin_award":"MICHELIN_PLATE","name":"Ki Tsui","street":"旺角花園街135號"},{"_geoloc":{"lat":22.302454,"lng":114.17569},"city_name":"Hong Kong","country_name":"Hong Kong","cuisine_type":"Street Food","michelin_award":"MICHELIN_PLATE","name":"Durian Land (Tsim Sha Tsui)","street":"尖沙咀金巴利道92號"},{"_geoloc":{"lat":22.297325,"lng":114.177155},"city_name":"Hong Kong","country_name":"Hong Kong","cuisine_type":"Cantonese","michelin_award":"ONE_STAR","name":"Shang Palace","street":"尖東麼地道64號九龍香格里拉酒店地庫1樓"},{"_geoloc":{"lat":22.2775474,"lng":114.1771576},"city_name":"Hong Kong","country_name":"Hong Kong","cuisine_type":"Noodles and congee","michelin_award":"BIB_GOURMAND","name":"Trusty Congee King (Wan Chai)","street":"灣仔克街7號"},{"_geoloc":{"lat":22.285131,"lng":114.14238},"city_name":"Hong Kong","country_name":"Hong Kong","cuisine_type":"Noodles","michelin_award":"BIB_GOURMAND","name":"Eng Kee Noodle Shop","street":"西營盤高街32號地下"},{"_geoloc":{"lat":22.3798313,"lng":114.2724953},"city_name":"Hong Kong","country_name":"Hong Kong","cuisine_type":"Seafood","michelin_award":"MICHELIN_PLATE","name":"Chuen Kee Seafood","street":"西貢海傍街53號"},{"_geoloc":{"lat":22.277136,"lng":114.1643},"city_name":"Hong Kong","country_name":"Hong Kong","cuisine_type":"Cantonese","michelin_award":"ONE_STAR","name":"Summer Palace","street":"金鐘法院道太古廣場港島香格里拉酒店5樓"},{"_geoloc":{"lat":22.2763009,"lng":114.1710473},"city_name":"Hong Kong","country_name":"Hong Kong","cuisine_type":"Innovative","michelin_award":"TWO_STARS","name":"Bo Innovation","street":"灣仔莊士敦道60號J Senses一樓平台8號舖"},{"_geoloc":{"lat":22.321398,"lng":114.213486},"city_name":"Hong Kong","country_name":"Hong Kong","cuisine_type":"Cantonese","michelin_award":"MICHELIN_PLATE","name":"Lei Garden (Kowloon Bay)","street":"九龍灣偉業街33號德福廣場一期F2號舖"},{"_geoloc":{"lat":22.2806464,"lng":114.1567948},"city_name":"Hong Kong","country_name":"Hong Kong","cuisine_type":"Japanese","michelin_award":"ONE_STAR","name":"Ryota Kappou Modern","street":"中環安蘭街18號21樓"},{"_geoloc":{"lat":22.2814635,"lng":114.15867},"city_name":"Hong Kong","country_name":"Hong Kong","cuisine_type":"Italian","michelin_award":"THREE_STARS","name":"8 1/2 Otto e Mezzo - Bombana","street":"中環遮打道18號歷山大廈2樓202號舖"},{"_geoloc":{"lat":22.291155,"lng":114.193405},"city_name":"Hong Kong","country_name":"Hong Kong","cuisine_type":"Cantonese","michelin_award":"MICHELIN_PLATE","name":"Lei Garden (North Point)","street":"北角城市花園9-10座1樓"},{"_geoloc":{"lat":22.2805157,"lng":114.182205},"city_name":"Hong Kong","country_name":"Hong Kong","cuisine_type":"Cantonese","michelin_award":"BIB_GOURMAND","name":"Tai Woo (Causeway Bay)","street":"銅鑼灣駱克道463-483號銅鑼灣廣場第二期9樓"},{"_geoloc":{"lat":22.44325,"lng":114.034966},"city_name":"Hong Kong","country_name":"Hong Kong","cuisine_type":"Street Food","michelin_award":"MICHELIN_PLATE","name":"So Kee","street":"元朗鳳攸東街9號好順意大廈A座地下15號舖"},{"_geoloc":{"lat":22.2817199,"lng":114.1524259},"city_name":"Hong Kong","country_name":"Hong Kong","cuisine_type":"French contemporary","michelin_award":"ONE_STAR","name":"Belon","street":"中環伊利近街41號"},{"_geoloc":{"lat":22.277214,"lng":114.169395},"city_name":"Hong Kong","country_name":"Hong Kong","cuisine_type":"Street Food","michelin_award":"MICHELIN_PLATE","name":"The Butchers Club (Wan Chai)","street":"灣仔蘭杜街2號"},{"_geoloc":{"lat":22.296572,"lng":114.1698},"city_name":"Hong Kong","country_name":"Hong Kong","cuisine_type":"Cantonese","michelin_award":"THREE_STARS","name":"T'ang Court","street":"尖沙咀北京道8號朗廷酒店1-2樓"},{"_geoloc":{"lat":22.2826018,"lng":114.15475},"city_name":"Hong Kong","country_name":"Hong Kong","cuisine_type":"Cantonese","michelin_award":"BIB_GOURMAND","name":"Sing Kee (Central)","street":"中環擺花街1號一號廣場2樓"},{"_geoloc":{"lat":22.278164,"lng":114.18573},"city_name":"Hong Kong","country_name":"Hong Kong","cuisine_type":"Cantonese","michelin_award":"MICHELIN_PLATE","name":"Farm House","street":"銅鑼灣新寧道8號中國太平大廈1樓"},{"_geoloc":{"lat":22.3047604,"lng":114.1903707},"city_name":"Hong Kong","country_name":"Hong Kong","cuisine_type":"Shanghainese","michelin_award":"BIB_GOURMAND","name":"Wing Lai Yuen","street":"紅磡德安街7號黃埔花園第8期1樓黃埔美食坊102-105號舖"},{"_geoloc":{"lat":22.316236,"lng":114.17187},"city_name":"Hong Kong","country_name":"Hong Kong","cuisine_type":"Noodles and congee","michelin_award":"BIB_GOURMAND","name":"Good Hope Noodle (Fa Yuen Street)","street":"旺角花園街18號"},{"_geoloc":{"lat":22.269247,"lng":114.1861},"city_name":"Hong Kong","country_name":"Hong Kong","cuisine_type":"Italian","michelin_award":"MICHELIN_PLATE","name":"Locanda dell' Angelo","street":"跑馬地源遠街12號"},{"_geoloc":{"lat":22.3802196,"lng":113.9781612},"city_name":"Hong Kong","country_name":"Hong Kong","cuisine_type":"Cantonese","michelin_award":"MICHELIN_PLATE","name":"Chinese Legend (Tuen Mun)","street":"屯門三聖村三聖市場1號地下"},{"_geoloc":{"lat":22.280235,"lng":114.1816},"city_name":"Hong Kong","country_name":"Hong Kong","cuisine_type":"Italian","michelin_award":"MICHELIN_PLATE","name":"Involtini","street":"銅鑼灣駱克道459-461 號 The L. Square 11樓"},{"_geoloc":{"lat":22.296673,"lng":114.169586},"city_name":"Hong Kong","country_name":"Hong Kong","cuisine_type":"Shanghainese","michelin_award":"BIB_GOURMAND","name":"Din Tai Fung (Silvercord)","street":"尖沙咀廣東道30號新港中心3樓306號舖"},{"_geoloc":{"lat":22.278313,"lng":114.16034},"city_name":"Hong Kong","country_name":"Hong Kong","cuisine_type":"Cantonese","michelin_award":"ONE_STAR","name":"Guo Fu Lou","street":"中環紅棉路22號美利酒店平台亭樓"},{"_geoloc":{"lat":22.2982672,"lng":114.1734636},"city_name":"Hong Kong","country_name":"Hong Kong","cuisine_type":"Street Food","michelin_award":"MICHELIN_PLATE","name":"Mammy Pancake (Tsim Sha Tsui)","street":"尖沙咀加拿芬道8-12號"},{"_geoloc":{"lat":22.296177,"lng":114.170006},"city_name":"Hong Kong","country_name":"Hong Kong","cuisine_type":"Cantonese","michelin_award":"ONE_STAR","name":"Imperial Treasure Fine Chinese Cuisine (Tsim Sha Tsui)","street":"尖沙咀北京道1號10樓"},{"_geoloc":{"lat":22.3242575,"lng":114.1666201},"city_name":"Hong Kong","country_name":"Hong Kong","cuisine_type":"Dumplings","michelin_award":"BIB_GOURMAND","name":"Ah Chun Shandong Dumpling","street":"太子荔枝角道60號"},{"_geoloc":{"lat":22.3001926,"lng":114.1722293},"city_name":"Hong Kong","country_name":"Hong Kong","cuisine_type":"European contemporary","michelin_award":"MICHELIN_PLATE","name":"Whisk","street":"尖沙咀彌敦道118號The Mira 5樓"},{"_geoloc":{"lat":22.320219,"lng":114.17133},"city_name":"Hong Kong","country_name":"Hong Kong","cuisine_type":"Cantonese","michelin_award":"ONE_STAR","name":"Lei Garden (Mong Kok)","street":"旺角洗衣街121號"},{"_geoloc":{"lat":22.3075103,"lng":114.1667475},"city_name":"Hong Kong","country_name":"Hong Kong","cuisine_type":"Shaanxi","michelin_award":"BIB_GOURMAND","name":"Yau Yuen Siu Tsui (Jordan)","street":"佐敦文苑街36號地下"},{"_geoloc":{"lat":22.286102,"lng":114.157906},"city_name":"Hong Kong","country_name":"Hong Kong","cuisine_type":"Cantonese","michelin_award":"MICHELIN_PLATE","name":"Lei Garden (Central)","street":"中環港景街1號國際金融中心商場3樓3008-3011號舖"},{"_geoloc":{"lat":22.2834,"lng":114.19171},"city_name":"Hong Kong","country_name":"Hong Kong","cuisine_type":"Noodles","michelin_award":"BIB_GOURMAND","name":"Sister Wah","street":"天后電氣道13號A1號舖"},{"_geoloc":{"lat":22.2821677,"lng":114.1558513},"city_name":"Hong Kong","country_name":"Hong Kong","cuisine_type":"European contemporary","michelin_award":"MICHELIN_PLATE","name":"Mic Kitchen","street":"中環士丹利街11號 Stanley 11 26樓"},{"_geoloc":{"lat":22.2904098,"lng":114.2003432},"city_name":"Hong Kong","country_name":"Hong Kong","cuisine_type":"Singaporean and Malaysian","michelin_award":"BIB_GOURMAND","name":"Ancient Moon","street":"北角錦屏街29號A舖"},{"_geoloc":{"lat":22.37927,"lng":114.27061},"city_name":"Hong Kong","country_name":"Hong Kong","cuisine_type":"Seafood","michelin_award":"MICHELIN_PLATE","name":"Sai Kung Sing Kee","street":"西貢西貢大街39號"},{"_geoloc":{"lat":22.3191219,"lng":114.1727737},"city_name":"Hong Kong","country_name":"Hong Kong","cuisine_type":"Hakkanese","michelin_award":"BIB_GOURMAND","name":"Chuen Cheung Kui (Mong Kok)","street":"旺角奶路臣街33號依利大廈"},{"_geoloc":{"lat":22.283502,"lng":114.1519427},"city_name":"Hong Kong","country_name":"Hong Kong","cuisine_type":"French contemporary","michelin_award":"ONE_STAR","name":"Louise","street":"中環鴨巴甸街35號PMQ"},{"_geoloc":{"lat":22.3001459,"lng":114.1723811},"city_name":"Hong Kong","country_name":"Hong Kong","cuisine_type":"Cantonese","michelin_award":"MICHELIN_PLATE","name":"Cuisine Cuisine at The Mira","street":"尖沙咀彌敦道118號The Mira 3樓"},{"_geoloc":{"lat":22.2781674,"lng":114.1841894},"city_name":"Hong Kong","country_name":"Hong Kong","cuisine_type":"Chiu Chow","michelin_award":"MICHELIN_PLATE","name":"Pak Loh Chiu Chow (Hysan Avenue)","street":"銅鑼灣希慎道23-25號"},{"_geoloc":{"lat":22.294943,"lng":114.17182},"city_name":"Hong Kong","country_name":"Hong Kong","cuisine_type":"Cantonese","michelin_award":"ONE_STAR","name":"Spring Moon","street":"尖沙咀梳士巴利道半島酒店1樓"},{"_geoloc":{"lat":22.286468,"lng":114.2180039},"city_name":"Hong Kong","country_name":"Hong Kong","cuisine_type":"Italian","michelin_award":"BIB_GOURMAND","name":"Ciak - All Day Italian","street":"太古太古城道18號太古城中心2樓265號舖"},{"_geoloc":{"lat":22.2806103,"lng":114.1577893},"city_name":"Hong Kong","country_name":"Hong Kong","cuisine_type":"Sushi","michelin_award":"THREE_STARS","name":"Sushi Shikon","street":"中環皇后大道中15號置地文華東方酒店7樓"},{"_geoloc":{"lat":22.295143,"lng":114.168236},"city_name":"Hong Kong","country_name":"Hong Kong","cuisine_type":"Shanghainese","michelin_award":"ONE_STAR","name":"Yè Shanghai (Tsim Sha Tsui)","street":"尖沙咀廣東道3號馬哥孛羅酒店6樓"},{"_geoloc":{"lat":22.280629,"lng":114.1567758},"city_name":"Hong Kong","country_name":"Hong Kong","cuisine_type":"European contemporary","michelin_award":"ONE_STAR","name":"Arcane","street":"中環安蘭街18號3樓"},{"_geoloc":{"lat":22.2813,"lng":114.17201},"city_name":"Hong Kong","country_name":"Hong Kong","cuisine_type":"Cantonese","michelin_award":"MICHELIN_PLATE","name":"One Harbour Road","street":"灣仔港灣道1號君悅酒店7-8樓"},{"_geoloc":{"lat":22.27746,"lng":114.16434},"city_name":"Hong Kong","country_name":"Hong Kong","cuisine_type":"French","michelin_award":"ONE_STAR","name":"Petrus","street":"金鐘法院道太古廣場港島香格里拉酒店56樓"},{"_geoloc":{"lat":22.3319497,"lng":114.1629298},"city_name":"Hong Kong","country_name":"Hong Kong","cuisine_type":"Noodles","michelin_award":"BIB_GOURMAND","name":"Lau Sum Kee (Fuk Wing Street)","street":"深水埗福榮街82號"},{"_geoloc":{"lat":22.2866489,"lng":114.1566097},"city_name":"Hong Kong","country_name":"Hong Kong","cuisine_type":"French contemporary","michelin_award":"THREE_STARS","name":"Caprice","street":"中環金融街8號四季酒店6樓"},{"_geoloc":{"lat":22.297182,"lng":114.17477},"city_name":"Hong Kong","country_name":"Hong Kong","cuisine_type":"Street Food","michelin_award":"MICHELIN_PLATE","name":"Owl's","street":"尖沙咀麼地道32號地下"},{"_geoloc":{"lat":22.31583,"lng":114.223114},"city_name":"Hong Kong","country_name":"Hong Kong","cuisine_type":"Indonesian","michelin_award":"BIB_GOURMAND","name":"Lucky Indonesia","street":"觀塘通明街46號"},{"_geoloc":{"lat":22.283405,"lng":114.154144},"city_name":"Hong Kong","country_name":"Hong Kong","cuisine_type":"Noodles","michelin_award":"BIB_GOURMAND","name":"Tsim Chai Kee (Wellington Street)","street":"中環威靈頓街98號"},{"_geoloc":{"lat":22.330359,"lng":114.16127},"city_name":"Hong Kong","country_name":"Hong Kong","cuisine_type":"Street Food","michelin_award":"MICHELIN_PLATE","name":"Hop Yik Tai","street":"深水埗桂林街121號"},{"_geoloc":{"lat":22.2783246,"lng":114.1710507},"city_name":"Hong Kong","country_name":"Hong Kong","cuisine_type":"Cantonese","michelin_award":"MICHELIN_PLATE","name":"Seventh Son","street":"灣仔駱克道57-73號華美粵海酒店3樓"},{"_geoloc":{"lat":22.30099,"lng":114.17221},"city_name":"Hong Kong","country_name":"Hong Kong","cuisine_type":"Cantonese","michelin_award":"TWO_STARS","name":"Sun Tung Lok","street":"尖沙咀彌敦道132號美麗華廣場一期食四方4樓401號舖"},{"_geoloc":{"lat":22.301006,"lng":114.1721},"city_name":"Hong Kong","country_name":"Hong Kong","cuisine_type":"Cantonese","michelin_award":"MICHELIN_PLATE","name":"Tsui Hang Village (Tsim Sha Tsui)","street":"尖沙咀彌敦道132號美麗華廣場一期食四方5樓507號舖"},{"_geoloc":{"lat":22.2835176,"lng":114.1508985},"city_name":"Hong Kong","country_name":"Hong Kong","cuisine_type":"Sushi","michelin_award":"MICHELIN_PLATE","name":"Daigo by Mori Tomoaki","street":"上環必列者士街29-31號"},{"_geoloc":{"lat":22.2809721,"lng":114.1583079},"city_name":"Hong Kong","country_name":"Hong Kong","cuisine_type":"European contemporary","michelin_award":"ONE_STAR","name":"Mandarin Grill + Bar","street":"中環干諾道中5號文華東方酒店1樓"},{"_geoloc":{"lat":22.331163,"lng":114.163475},"city_name":"Hong Kong","country_name":"Hong Kong","cuisine_type":"Street Food","michelin_award":"MICHELIN_PLATE","name":"Kung Wo Beancurd Factory","street":"深水埗北河街118號"},{"_geoloc":{"lat":22.2972065,"lng":114.1719297},"city_name":"Hong Kong","country_name":"Hong Kong","cuisine_type":"Cantonese","michelin_award":"ONE_STAR","name":"Ah Yat Harbour View","street":"尖沙咀彌敦道63號iSquare29樓"},{"_geoloc":{"lat":22.278013,"lng":114.17273},"city_name":"Hong Kong","country_name":"Hong Kong","cuisine_type":"Taizhou","michelin_award":"ONE_STAR","name":"Xin Rong Ji","street":"灣仔駱克道138號中國海外大廈地下"},{"_geoloc":{"lat":22.283157,"lng":114.1554},"city_name":"Hong Kong","country_name":"Hong Kong","cuisine_type":"Peruvian","michelin_award":"MICHELIN_PLATE","name":"Ichu","street":"中環皇后大道中80號H Queen's 3樓"},{"_geoloc":{"lat":22.2831419,"lng":114.1553417},"city_name":"Hong Kong","country_name":"Hong Kong","cuisine_type":"French contemporary","michelin_award":"TWO_STARS","name":"Écriture","street":"中環皇后大道中80號H Queen's 26樓"},{"_geoloc":{"lat":22.282598,"lng":114.1571376},"city_name":"Hong Kong","country_name":"Hong Kong","cuisine_type":"Italian","michelin_award":"ONE_STAR","name":"Octavium","street":"中環德輔道中22號華懋中心一期 8樓"},{"_geoloc":{"lat":22.2826725,"lng":114.1530743},"city_name":"Hong Kong","country_name":"Hong Kong","cuisine_type":"European contemporary","michelin_award":"BIB_GOURMAND","name":"Cornerstone","street":"中環荷里活道49號"},{"_geoloc":{"lat":22.379858,"lng":114.27188},"city_name":"Hong Kong","country_name":"Hong Kong","cuisine_type":"Cantonese","michelin_award":"ONE_STAR","name":"Loaf On","street":"西貢市場街49號"},{"_geoloc":{"lat":22.2828606,"lng":114.1547422},"city_name":"Hong Kong","country_name":"Hong Kong","cuisine_type":"Dumplings","michelin_award":"BIB_GOURMAND","name":"Wang Fu (Central)","street":"中環威靈頓街65號"},{"_geoloc":{"lat":22.284338,"lng":114.156654},"city_name":"Hong Kong","country_name":"Hong Kong","cuisine_type":"Cantonese","michelin_award":"TWO_STARS","name":"Ying Jee Club","street":"中環干諾道中41號盈置大廈地下G05及1樓107-108號舖"},{"_geoloc":{"lat":22.2813972,"lng":114.1821905},"city_name":"Hong Kong","country_name":"Hong Kong","cuisine_type":"Cantonese","michelin_award":"THREE_STARS","name":"Forum","street":"銅鑼灣告士打道255-257號信和廣場1樓"},{"_geoloc":{"lat":22.2805311,"lng":114.1577065},"city_name":"Hong Kong","country_name":"Hong Kong","cuisine_type":"French contemporary","michelin_award":"TWO_STARS","name":"Amber","street":"中環皇后大道中15號置地文華東方酒店7樓"},{"_geoloc":{"lat":22.2836955,"lng":114.1562873},"city_name":"Hong Kong","country_name":"Hong Kong","cuisine_type":"Barbecue","michelin_award":"MICHELIN_PLATE","name":"Yakiniku Jumbo","street":"中環德輔道中68號萬宜大廈302號舖"},{"_geoloc":{"lat":22.31693,"lng":114.16287},"city_name":"Hong Kong","country_name":"Hong Kong","cuisine_type":"Dim Sum","michelin_award":"BIB_GOURMAND","name":"Tim Ho Wan (Tai Kok Tsui)","street":"大角咀海庭道18號奧海城2期地下72A-C舖"},{"_geoloc":{"lat":22.286467,"lng":114.15677},"city_name":"Hong Kong","country_name":"Hong Kong","cuisine_type":"Sushi","michelin_award":"TWO_STARS","name":"Sushi Saito","street":"中環金融街8號四季酒店45樓"},{"_geoloc":{"lat":22.303143,"lng":114.172066},"city_name":"Hong Kong","country_name":"Hong Kong","cuisine_type":"Seafood","michelin_award":"MICHELIN_PLATE","name":"Hing Kee","street":"尖沙咀彌敦道180號寶華商業大廈1樓"},{"_geoloc":{"lat":22.2793736,"lng":114.1863857},"city_name":"Hong Kong","country_name":"Hong Kong","cuisine_type":"Shanghainese","michelin_award":"BIB_GOURMAND","name":"Din Tai Fung (Causeway Bay)","street":"銅鑼灣怡和街68號地下G3-G11號舖"},{"_geoloc":{"lat":22.2836903,"lng":114.1562905},"city_name":"Hong Kong","country_name":"Hong Kong","cuisine_type":"Japanese","michelin_award":"MICHELIN_PLATE","name":"Hanare","street":"中環德輔道中68號萬宜大廈302號舖"},{"_geoloc":{"lat":22.3032802,"lng":114.1598747},"city_name":"Hong Kong","country_name":"Hong Kong","cuisine_type":"Cantonese","michelin_award":"TWO_STARS","name":"Tin Lung Heen","street":"尖沙咀柯士甸道西1號環球貿易廣場麗思卡爾頓酒店102樓"},{"_geoloc":{"lat":22.278435,"lng":114.1787642},"city_name":"Hong Kong","country_name":"Hong Kong","cuisine_type":"Cantonese","michelin_award":"MICHELIN_PLATE","name":"Lei Garden (Wan Chai)","street":"灣仔軒尼詩道338號北海中心1樓"},{"_geoloc":{"lat":22.2853864,"lng":114.1390387},"city_name":"Hong Kong","country_name":"Hong Kong","cuisine_type":"Xinjiang","michelin_award":"BIB_GOURMAND","name":"Ba Yi","street":"西營盤水街43號"},{"_geoloc":{"lat":22.277554,"lng":114.1863},"city_name":"Hong Kong","country_name":"Hong Kong","cuisine_type":"Ramen","michelin_award":"BIB_GOURMAND","name":"Ramen Jo (Causeway Bay)","street":"銅鑼灣加路連山道3號"},{"_geoloc":{"lat":22.293287,"lng":114.1739},"city_name":"Hong Kong","country_name":"Hong Kong","cuisine_type":"Steakhouse","michelin_award":"MICHELIN_PLATE","name":"The Steak House winebar + grill","street":"尖沙咀梳士巴利道18號洲際酒店地庫1樓"},{"_geoloc":{"lat":22.3009241,"lng":114.1796763},"city_name":"Hong Kong","country_name":"Hong Kong","cuisine_type":"Cantonese","michelin_award":"MICHELIN_PLATE","name":"Above \u0026 Beyond","street":"尖東科學館道17號唯港薈28樓"},{"_geoloc":{"lat":22.289986,"lng":114.194276},"city_name":"Hong Kong","country_name":"Hong Kong","cuisine_type":"Cantonese","michelin_award":"BIB_GOURMAND","name":"She Wong Leung","street":"北角電氣道298A"},{"_geoloc":{"lat":22.283064,"lng":114.129105},"city_name":"Hong Kong","country_name":"Hong Kong","cuisine_type":"Cantonese","michelin_award":"BIB_GOURMAND","name":"Sheung Hei Claypot Rice","street":"西環北街25號地下"},{"_geoloc":{"lat":22.33718,"lng":114.15801},"city_name":"Hong Kong","country_name":"Hong Kong","cuisine_type":"Noodles","michelin_award":"BIB_GOURMAND","name":"Kwan Kee Bamboo Noodles","street":"長沙灣永隆街1號E舖"},{"_geoloc":{"lat":22.2813924,"lng":114.1821991},"city_name":"Hong Kong","country_name":"Hong Kong","cuisine_type":"European contemporary","michelin_award":"ONE_STAR","name":"Roganic","street":"銅鑼灣告士打道255號信和廣場UG層8號舖"},{"_geoloc":{"lat":22.2777963,"lng":114.1755582},"city_name":"Hong Kong","country_name":"Hong Kong","cuisine_type":"Cantonese Roast Meats","michelin_award":"ONE_STAR","name":"Kam's Roast Goose","street":"灣仔軒尼詩道226號"},{"_geoloc":{"lat":22.2772726,"lng":114.1852535},"city_name":"Hong Kong","country_name":"Hong Kong","cuisine_type":"Piedmontese","michelin_award":"MICHELIN_PLATE","name":"Castellana","street":"銅鑼灣開平道1號Cubus 10樓"},{"_geoloc":{"lat":22.27696,"lng":114.17093},"city_name":"Hong Kong","country_name":"Hong Kong","cuisine_type":"Cantonese","michelin_award":"ONE_STAR","name":"Fook Lam Moon (Wan Chai)","street":"灣仔莊士敦道35-45號"},{"_geoloc":{"lat":22.312672,"lng":114.22482},"city_name":"Hong Kong","country_name":"Hong Kong","cuisine_type":"Cantonese","michelin_award":"ONE_STAR","name":"Lei Garden (Kwun Tong)","street":"觀塘觀塘道418號創紀之城第5期apm 5樓L5-8"},{"_geoloc":{"lat":22.283066,"lng":114.12912},"city_name":"Hong Kong","country_name":"Hong Kong","cuisine_type":"Dim Sum","michelin_award":"BIB_GOURMAND","name":"Sheung Hei Dim Sum","street":"西環北街25號地下"},{"_geoloc":{"lat":22.44383,"lng":114.02933},"city_name":"Hong Kong","country_name":"Hong Kong","cuisine_type":"Noodles","michelin_award":"BIB_GOURMAND","name":"Ho To Tai (Yuen Long)","street":"元朗阜財街67號"},{"_geoloc":{"lat":22.304708,"lng":114.17058},"city_name":"Hong Kong","country_name":"Hong Kong","cuisine_type":"Noodles","michelin_award":"BIB_GOURMAND","name":"Mak Man Kee","street":"佐敦白加士街51號"},{"_geoloc":{"lat":22.28226,"lng":114.155655},"city_name":"Hong Kong","country_name":"Hong Kong","cuisine_type":"Cantonese Roast Meats","michelin_award":"ONE_STAR","name":"Yat Lok","street":"中環士丹利街34-38號"},{"_geoloc":{"lat":22.27643,"lng":114.17702},"city_name":"Hong Kong","country_name":"Hong Kong","cuisine_type":"Sushi","michelin_award":"MICHELIN_PLATE","name":"Sushi Masataka","street":"灣仔活道18號萃峯地下"},{"_geoloc":{"lat":22.2952504,"lng":114.1718282},"city_name":"Hong Kong","country_name":"Hong Kong","cuisine_type":"Swiss","michelin_award":"MICHELIN_PLATE","name":"Chesa","street":"尖沙咀梳士巴利道半島酒店1樓"},{"_geoloc":{"lat":22.2903678,"lng":114.1942169},"city_name":"Hong Kong","country_name":"Hong Kong","cuisine_type":"Cantonese","michelin_award":"MICHELIN_PLATE","name":"Yuè (North Point)","street":"北角城市花園道9號城市花園酒店1樓"},{"_geoloc":{"lat":22.2752964,"lng":114.1713259},"city_name":"Hong Kong","country_name":"Hong Kong","cuisine_type":"Sichuan","michelin_award":"MICHELIN_PLATE","name":"Deng G","street":"灣仔皇后大道東147-149號威利商業大廈2樓"},{"_geoloc":{"lat":22.2807131,"lng":114.1824185},"city_name":"Hong Kong","country_name":"Hong Kong","cuisine_type":"Cantonese","michelin_award":"BIB_GOURMAND","name":"She Wong Yee","street":"銅鑼灣波斯富街24號"},{"_geoloc":{"lat":22.2766457,"lng":114.1772288},"city_name":"Hong Kong","country_name":"Hong Kong","cuisine_type":"Innovative","michelin_award":"ONE_STAR","name":"Takumi by Daisuke Mori","street":"灣仔活道16號萃峯地下"},{"_geoloc":{"lat":22.2843747,"lng":114.1500602},"city_name":"Hong Kong","country_name":"Hong Kong","cuisine_type":"French contemporary","michelin_award":"MICHELIN_PLATE","name":"Bibo","street":"上環荷李活道163號"},{"_geoloc":{"lat":22.3804027,"lng":113.9820092},"city_name":"Hong Kong","country_name":"Hong Kong","cuisine_type":"Seafood","michelin_award":"BIB_GOURMAND","name":"Dragon Inn","street":"屯門青山公路19咪"},{"_geoloc":{"lat":22.2905674,"lng":114.2382152},"city_name":"Hong Kong","country_name":"Hong Kong","cuisine_type":"Seafood","michelin_award":"MICHELIN_PLATE","name":"Kam Fai","street":"鯉魚門海傍道中10號"},{"_geoloc":{"lat":22.293337,"lng":114.17395},"city_name":"Hong Kong","country_name":"Hong Kong","cuisine_type":"Cantonese","michelin_award":"ONE_STAR","name":"Yan Toh Heen","street":"尖沙咀梳士巴利道18號洲際酒店大堂低座"},{"_geoloc":{"lat":22.278337,"lng":114.18335},"city_name":"Hong Kong","country_name":"Hong Kong","cuisine_type":"Fujian","michelin_award":"BIB_GOURMAND","name":"Putien (Causeway Bay)","street":"銅鑼灣波斯富街99號利舞臺廣場7樓A號舖"},{"_geoloc":{"lat":22.277854,"lng":114.1662108},"city_name":"Hong Kong","country_name":"Hong Kong","cuisine_type":"European contemporary","michelin_award":"MICHELIN_PLATE","name":"Café Gray Deluxe","street":"金鐘金鐘道88號太古廣場奕居49樓"},{"_geoloc":{"lat":22.32556,"lng":114.167496},"city_name":"Hong Kong","country_name":"Hong Kong","cuisine_type":"Cantonese","michelin_award":"BIB_GOURMAND","name":"Ju Xing Home","street":"太子砵蘭街416及418號地下"},{"_geoloc":{"lat":22.293248,"lng":114.1735573},"city_name":"Hong Kong","country_name":"Hong Kong","cuisine_type":"Seafood","michelin_award":"ONE_STAR","name":"Rech","street":"尖沙咀梳士巴利道18號洲際酒店1樓"},{"_geoloc":{"lat":22.2875545,"lng":114.1468575},"city_name":"Hong Kong","country_name":"Hong Kong","cuisine_type":"Cantonese","michelin_award":"BIB_GOURMAND","name":"Lin Heung Kui","street":"上環德輔道西40-50號2-3樓"},{"_geoloc":{"lat":22.2800634,"lng":114.1576634},"city_name":"Hong Kong","country_name":"Hong Kong","cuisine_type":"Steakhouse","michelin_award":"ONE_STAR","name":"Beefbar","street":"中環雪廠街16號西洋會所2樓"},{"_geoloc":{"lat":22.28444,"lng":114.15297},"city_name":"Hong Kong","country_name":"Hong Kong","cuisine_type":"Cantonese","michelin_award":"MICHELIN_PLATE","name":"The Chairman","street":"中環九如坊18號"},{"_geoloc":{"lat":22.280532,"lng":114.1769077},"city_name":"Hong Kong","country_name":"Hong Kong","cuisine_type":"Shanghainese","michelin_award":"ONE_STAR","name":"Jardin de Jade (Wan Chai)","street":"灣仔港灣道30號新鴻基中心地下"},{"_geoloc":{"lat":22.283777,"lng":114.19232},"city_name":"Hong Kong","country_name":"Hong Kong","cuisine_type":"Cantonese","michelin_award":"BIB_GOURMAND","name":"Shek Kee Kitchen","street":"天后銀幕街15-17號地下"},{"_geoloc":{"lat":22.287043,"lng":114.143005},"city_name":"Hong Kong","country_name":"Hong Kong","cuisine_type":"Cantonese","michelin_award":"BIB_GOURMAND","name":"Kwan Kee Clay Pot Rice (Queen's Road West)","street":"西營盤皇后大道西263號和益大廈地下1號舖"},{"_geoloc":{"lat":22.3032095,"lng":114.1599308},"city_name":"Hong Kong","country_name":"Hong Kong","cuisine_type":"Italian","michelin_award":"ONE_STAR","name":"Tosca di Angelo","street":"尖沙咀柯士甸道西1號環球貿易廣場麗思卡爾頓酒店102樓"},{"_geoloc":{"lat":22.2855757,"lng":114.1477192},"city_name":"Hong Kong","country_name":"Hong Kong","cuisine_type":"Innovative","michelin_award":"ONE_STAR","name":"Tate","street":"上環荷李活道210號"},{"_geoloc":{"lat":22.2842716,"lng":114.152509},"city_name":"Hong Kong","country_name":"Hong Kong","cuisine_type":"Noodles","michelin_award":"BIB_GOURMAND","name":"Kau Kee","street":"中環歌賦街21號"},{"_geoloc":{"lat":22.279633,"lng":114.155205},"city_name":"Hong Kong","country_name":"Hong Kong","cuisine_type":"Japanese","michelin_award":"MICHELIN_PLATE","name":"Toritama","street":"中環己連拿利2號翠怡閣地舖"},{"_geoloc":{"lat":22.28736,"lng":114.15134},"city_name":"Hong Kong","country_name":"Hong Kong","cuisine_type":"Sichuan","michelin_award":"MICHELIN_PLATE","name":"Jing Alley","street":"上環干諾道中145號多寧大廈地下"},{"_geoloc":{"lat":22.2817769,"lng":114.1547209},"city_name":"Hong Kong","country_name":"Hong Kong","cuisine_type":"Indian","michelin_award":"MICHELIN_PLATE","name":"Bombay Dreams","street":"中環雲咸街75-77號4樓"},{"_geoloc":{"lat":22.2921677,"lng":114.1974632},"city_name":"Hong Kong","country_name":"Hong Kong","cuisine_type":"Chiu Chow","michelin_award":"BIB_GOURMAND","name":"Chiuchow Delicacies","street":"北角和富道84-94號銀輝大廈地下"},{"_geoloc":{"lat":22.30634,"lng":114.18859},"city_name":"Hong Kong","country_name":"Hong Kong","cuisine_type":"Japanese","michelin_award":"BIB_GOURMAND","name":"Takeya","street":"紅磡黃埔新村德民街31C1安華樓1號舖"},{"_geoloc":{"lat":22.2783475,"lng":114.1832846},"city_name":"Hong Kong","country_name":"Hong Kong","cuisine_type":"Shanghainese","michelin_award":"MICHELIN_PLATE","name":"Wu Kong (Causeway Bay)","street":"銅鑼灣波斯富街99號利舞臺廣場17樓B號舖"},{"_geoloc":{"lat":22.2904096,"lng":114.2095782},"city_name":"Hong Kong","country_name":"Hong Kong","cuisine_type":"Noodles and congee","michelin_award":"BIB_GOURMAND","name":"Congee and Noodle Shop","street":"鰂魚涌英皇道683號嘉里中心2樓2A號舖"},{"_geoloc":{"lat":22.317753,"lng":114.17266},"city_name":"Hong Kong","country_name":"Hong Kong","cuisine_type":"Street Food","michelin_award":"MICHELIN_PLATE","name":"Joyful Dessert House","street":"旺角黑布街74號2-3號舖"},{"_geoloc":{"lat":22.274137,"lng":114.17402},"city_name":"Hong Kong","country_name":"Hong Kong","cuisine_type":"Thai","michelin_award":"BIB_GOURMAND","name":"Samsen","street":"灣仔石水渠街68號地下"},{"_geoloc":{"lat":22.443655,"lng":114.03279},"city_name":"Hong Kong","country_name":"Hong Kong","cuisine_type":"Street Food","michelin_award":"MICHELIN_PLATE","name":"Fork Eat","street":"元朗鳳攸北街11-15號益發大廈10號舖"},{"_geoloc":{"lat":22.329836,"lng":114.1650113},"city_name":"Hong Kong","country_name":"Hong Kong","cuisine_type":"Cantonese","michelin_award":"BIB_GOURMAND","name":"Glorious Cuisine","street":"深水埗石硤尾街31-33號"},{"_geoloc":{"lat":22.2824757,"lng":114.1553964},"city_name":"Hong Kong","country_name":"Hong Kong","cuisine_type":"Cantonese","michelin_award":"MICHELIN_PLATE","name":"Luk Yu Tea House","street":"中環士丹利街24-26號"},{"_geoloc":{"lat":22.2817826,"lng":114.1535648},"city_name":"Hong Kong","country_name":"Hong Kong","cuisine_type":"Sichuan","michelin_award":"MICHELIN_PLATE","name":"Chilli Fagara","street":"中環奧卑利街7號地下"},{"_geoloc":{"lat":22.3719666,"lng":113.9894217},"city_name":"Hong Kong","country_name":"Hong Kong","cuisine_type":"Cantonese","michelin_award":"MICHELIN_PLATE","name":"Yuè (Gold Coast)","street":"黃金海岸青山公路1號黃金海岸酒店低層"},{"_geoloc":{"lat":22.2816868,"lng":114.1840863},"city_name":"Hong Kong","country_name":"Hong Kong","cuisine_type":"Vegetarian","michelin_award":"MICHELIN_PLATE","name":"Kung Tak Lam (Causeway Bay)","street":"銅鑼灣告士打道280號世貿中心10樓"},{"_geoloc":{"lat":22.3032832,"lng":114.1598997},"city_name":"Hong Kong","country_name":"Hong Kong","cuisine_type":"Japanese","michelin_award":"TWO_STARS","name":"Tenku RyuGin","street":"尖沙咀柯士甸道西1號環球貿易廣場101樓B1舖"},{"_geoloc":{"lat":22.281008,"lng":114.1574483},"city_name":"Hong Kong","country_name":"Hong Kong","cuisine_type":"French contemporary","michelin_award":"ONE_STAR","name":"Zest by Konishi","street":"中環安蘭街18號28-29樓"},{"_geoloc":{"lat":22.276251,"lng":114.1767061},"city_name":"Hong Kong","country_name":"Hong Kong","cuisine_type":"Japanese","michelin_award":"ONE_STAR","name":"Kaiseki Den by Saotome","street":"灣仔活道28號萃峯3-4號舖"},{"_geoloc":{"lat":22.281038,"lng":114.15646},"city_name":"Hong Kong","country_name":"Hong Kong","cuisine_type":"Sushi","michelin_award":"ONE_STAR","name":"Sushi Wadatsumi","street":"上環皇后大道中181號新紀元廣場2樓201室"},{"_geoloc":{"lat":22.299442,"lng":114.173645},"city_name":"Hong Kong","country_name":"Hong Kong","cuisine_type":"Street Food","michelin_award":"MICHELIN_PLATE","name":"Fat Boy","street":"尖沙咀厚福街3號"},{"_geoloc":{"lat":22.281776,"lng":114.15469},"city_name":"Hong Kong","country_name":"Hong Kong","cuisine_type":"Taiwanese","michelin_award":"BIB_GOURMAND","name":"What To Eat","street":"中環雲咸街75-77號嘉兆商業大廈地下A號"},{"_geoloc":{"lat":22.306734,"lng":114.17098},"city_name":"Hong Kong","country_name":"Hong Kong","cuisine_type":"Street Food","michelin_award":"BIB_GOURMAND","name":"Kai Kai","street":"佐敦寧波街29號"},{"_geoloc":{"lat":22.2852281,"lng":114.1485744},"city_name":"Hong Kong","country_name":"Hong Kong","cuisine_type":"French","michelin_award":"MICHELIN_PLATE","name":"Upper Modern Bistro","street":"上環差館上街6-14號"},{"_geoloc":{"lat":22.2776503,"lng":114.1723363},"city_name":"Hong Kong","country_name":"Hong Kong","cuisine_type":"Cantonese","michelin_award":"BIB_GOURMAND","name":"Sang Kee","street":"灣仔軒尼詩道107-115號協生大廈1-2樓"},{"_geoloc":{"lat":22.289684,"lng":114.19698},"city_name":"Hong Kong","country_name":"Hong Kong","cuisine_type":"Street Food","michelin_award":"MICHELIN_PLATE","name":"Mak Kee (North Point)","street":"北角堡壘街21號1號舖"},{"_geoloc":{"lat":22.296448,"lng":114.16983},"city_name":"Hong Kong","country_name":"Hong Kong","cuisine_type":"Steakhouse","michelin_award":"MICHELIN_PLATE","name":"Bostonian Seafood \u0026 Grill","street":"尖沙咀北京道8號朗廷酒店低層大堂"},{"_geoloc":{"lat":22.32356,"lng":114.1683},"city_name":"Hong Kong","country_name":"Hong Kong","cuisine_type":"Shun Tak","michelin_award":"BIB_GOURMAND","name":"Fung Shing (Mong Kok)","street":"旺角彌敦道749號1-2樓"},{"_geoloc":{"lat":22.276558,"lng":114.17132},"city_name":"Hong Kong","country_name":"Hong Kong","cuisine_type":"Street Food","michelin_award":"MICHELIN_PLATE","name":"Kelly's Cape Bop","street":"灣仔莊士敦道55-61號修頓大廈C1舖"},{"_geoloc":{"lat":22.282784,"lng":114.15167},"city_name":"Hong Kong","country_name":"Hong Kong","cuisine_type":"Tempura","michelin_award":"MICHELIN_PLATE","name":"Ippoh","street":"中環鴨巴甸街39號"},{"_geoloc":{"lat":22.282766,"lng":114.15529},"city_name":"Hong Kong","country_name":"Hong Kong","cuisine_type":"Innovative","michelin_award":"TWO_STARS","name":"Ta Vie","street":"中環士丹利街21號中環‧石板街酒店2樓"},{"_geoloc":{"lat":22.276463,"lng":114.16777},"city_name":"Hong Kong","country_name":"Hong Kong","cuisine_type":"Italian","michelin_award":"MICHELIN_PLATE","name":"Giando","street":"灣仔星街9號星域軒1座地下1號舖"},{"_geoloc":{"lat":22.368364,"lng":114.0596883},"city_name":"Hong Kong","country_name":"Hong Kong","cuisine_type":"Cantonese","michelin_award":"BIB_GOURMAND","name":"Yue Kee","street":"深井深康路9號"},{"_geoloc":{"lat":22.28931,"lng":114.23769},"city_name":"Hong Kong","country_name":"Hong Kong","cuisine_type":"Seafood","michelin_award":"MICHELIN_PLATE","name":"Hyde Park Garden","street":"鯉魚門海傍道中44號"},{"_geoloc":{"lat":22.2787,"lng":114.17763},"city_name":"Hong Kong","country_name":"Hong Kong","cuisine_type":"Zhejiang","michelin_award":"ONE_STAR","name":"Zhejiang Heen","street":"灣仔駱克道300-306號僑阜商業大廈1-3樓"},{"_geoloc":{"lat":22.2775361,"lng":114.1707699},"city_name":"Hong Kong","country_name":"Hong Kong","cuisine_type":"Cantonese","michelin_award":"BIB_GOURMAND","name":"Yixin","street":"灣仔軒尼詩道50號"},{"_geoloc":{"lat":22.276445,"lng":114.168015},"city_name":"Hong Kong","country_name":"Hong Kong","cuisine_type":"Vietnamese","michelin_award":"MICHELIN_PLATE","name":"Le Garçon Saigon","street":"灣仔永豐街12-18號地下"},{"_geoloc":{"lat":22.3067882,"lng":114.1710606},"city_name":"Hong Kong","country_name":"Hong Kong","cuisine_type":"Street Food","michelin_award":"MICHELIN_PLATE","name":"Block 18 Doggie's Noodle (Jordan)","street":"佐敦寧波街27A地下"},{"_geoloc":{"lat":22.2849214,"lng":114.1481704},"city_name":"Hong Kong","country_name":"Hong Kong","cuisine_type":"Scandinavian","michelin_award":"MICHELIN_PLATE","name":"Frantzén's Kitchen","street":"上環差館上街11號"},{"_geoloc":{"lat":22.2808043,"lng":114.1921722},"city_name":"Hong Kong","country_name":"Hong Kong","cuisine_type":"Teppanyaki","michelin_award":"ONE_STAR","name":"I M Teppanyaki \u0026 Wine","street":"大坑銅鑼灣道134號"},{"_geoloc":{"lat":22.2859032,"lng":114.1364004},"city_name":"Hong Kong","country_name":"Hong Kong","cuisine_type":"Cantonese Roast Meats","michelin_award":"BIB_GOURMAND","name":"Po Kee","street":"西環皇后大道西425P號"},{"_geoloc":{"lat":22.2799312,"lng":114.1837574},"city_name":"Hong Kong","country_name":"Hong Kong","cuisine_type":"Noodles and congee","michelin_award":"ONE_STAR","name":"Ho Hung Kee (Causeway Bay)","street":"銅鑼灣軒尼詩道500號希慎廣場12樓1204-1205號舖"},{"_geoloc":{"lat":22.27957,"lng":114.178345},"city_name":"Hong Kong","country_name":"Hong Kong","cuisine_type":"Cantonese","michelin_award":"BIB_GOURMAND","name":"Trusty Gourmet","street":"灣仔謝斐道307-311號快添大廈A舖"},{"_geoloc":{"lat":22.2821392,"lng":114.1545176},"city_name":"Hong Kong","country_name":"Hong Kong","cuisine_type":"Chinese contemporary","michelin_award":"MICHELIN_PLATE","name":"Piin","street":"中環砵典乍街45號H Code低座2樓"},{"_geoloc":{"lat":22.2843536,"lng":114.1531456},"city_name":"Hong Kong","country_name":"Hong Kong","cuisine_type":"Cantonese","michelin_award":"ONE_STAR","name":"Celebrity Cuisine","street":"中環九如坊3號蘭桂坊酒店1樓"},{"_geoloc":{"lat":22.2804202,"lng":114.1551384},"city_name":"Hong Kong","country_name":"Hong Kong","cuisine_type":"Italian-American","michelin_award":"MICHELIN_PLATE","name":"Carbone","street":"中環雲咸街33號蘭桂芳大廈9樓"},{"_geoloc":{"lat":22.2860122,"lng":114.1580538},"city_name":"Hong Kong","country_name":"Hong Kong","cuisine_type":"Cantonese","michelin_award":"THREE_STARS","name":"Lung King Heen","street":"中環金融街8號四季酒店4樓"},{"_geoloc":{"lat":22.3006247,"lng":114.1720828},"city_name":"Hong Kong","country_name":"Hong Kong","cuisine_type":"Cantonese","michelin_award":"ONE_STAR","name":"Fu Ho","street":"尖沙咀彌敦道132號美麗華廣場一期食四方4樓402號舖"},{"_geoloc":{"lat":22.442242,"lng":114.03141},"city_name":"Hong Kong","country_name":"Hong Kong","cuisine_type":"Cantonese Roast Meats","michelin_award":"MICHELIN_PLATE","name":"Tin Hung","street":"元朗建業街88號仁義大廈地下D舖"},{"_geoloc":{"lat":22.3291186,"lng":114.1663677},"city_name":"Hong Kong","country_name":"Hong Kong","cuisine_type":"Dim Sum","michelin_award":"ONE_STAR","name":"Tim Ho Wan (Sham Shui Po)","street":"深水埗福榮街9-11號"},{"_geoloc":{"lat":22.298624,"lng":114.178215},"city_name":"Hong Kong","country_name":"Hong Kong","cuisine_type":"Japanese","michelin_award":"BIB_GOURMAND","name":"Nishiki","street":"尖沙咀麼地道71富豪九龍酒店1樓103室"},{"_geoloc":{"lat":22.29807,"lng":114.17511},"city_name":"Hong Kong","country_name":"Hong Kong","cuisine_type":"Swiss","michelin_award":"MICHELIN_PLATE","name":"The Swiss Chalet","street":"尖沙咀赫德道8號地下"},{"_geoloc":{"lat":22.2864263,"lng":114.1387421},"city_name":"Hong Kong","country_name":"Hong Kong","cuisine_type":"Hunanese","michelin_award":"BIB_GOURMAND","name":"Café Hunan (Western District)","street":"西環皇后大道西420-424號"},{"_geoloc":{"lat":22.2816498,"lng":114.1538558},"city_name":"Hong Kong","country_name":"Hong Kong","cuisine_type":"Thai","michelin_award":"ONE_STAR","name":"Aaharn","street":"中環荷李活道10號大館2座1樓"},{"_geoloc":{"lat":22.294992,"lng":114.17179},"city_name":"Hong Kong","country_name":"Hong Kong","cuisine_type":"French","michelin_award":"ONE_STAR","name":"Gaddi's","street":"尖沙咀梳士巴利道半島酒店1樓"},{"_geoloc":{"lat":22.283146,"lng":114.15542},"city_name":"Hong Kong","country_name":"Hong Kong","cuisine_type":"Innovative","michelin_award":"TWO_STARS","name":"Arbor","street":"中環皇后大道中80號H Queen's 25樓"},{"_geoloc":{"lat":22.3251899,"lng":114.1652528},"city_name":"Hong Kong","country_name":"Hong Kong","cuisine_type":"Street Food","michelin_award":"MICHELIN_PLATE","name":"Coconut-Soup (Prince Edward)","street":"太子荔枝角道130號白楊街2A號舖"},{"_geoloc":{"lat":22.2762414,"lng":114.1560231},"city_name":"Hong Kong","country_name":"Hong Kong","cuisine_type":"Sichuan","michelin_award":"MICHELIN_PLATE","name":"Mun Ting Fong","street":"中環半山花園道51號科達中心7樓"},{"_geoloc":{"lat":22.342392,"lng":114.1935},"city_name":"Hong Kong","country_name":"Hong Kong","cuisine_type":"Street Food","michelin_award":"MICHELIN_PLATE","name":"Chin Sik","street":"荃灣兆和街49號"},{"_geoloc":{"lat":22.284133,"lng":114.1529359},"city_name":"Hong Kong","country_name":"Hong Kong","cuisine_type":"Ramen","michelin_award":"BIB_GOURMAND","name":"Shugetsu Ramen (Central)","street":"中環歌賦街5號"},{"_geoloc":{"lat":22.285889,"lng":114.15816},"city_name":"Hong Kong","country_name":"Hong Kong","cuisine_type":"Noodles and congee","michelin_award":"BIB_GOURMAND","name":"Tasty (Central)","street":"中環港景街1號國際金融中心商場3樓3016-3018號舖"},{"_geoloc":{"lat":22.3801419,"lng":113.9789321},"city_name":"Hong Kong","country_name":"Hong Kong","cuisine_type":"Cantonese","michelin_award":"MICHELIN_PLATE","name":"Hoi Tin Garden","street":"屯門青山灣三聖街5號"},{"_geoloc":{"lat":22.2952366,"lng":114.1725979},"city_name":"Hong Kong","country_name":"Hong Kong","cuisine_type":"Cantonese","michelin_award":"MICHELIN_PLATE","name":"Celestial Court","street":"尖沙咀彌敦道20號喜來登酒店2樓"},{"_geoloc":{"lat":22.308014,"lng":114.17147},"city_name":"Hong Kong","country_name":"Hong Kong","cuisine_type":"Cantonese","michelin_award":"ONE_STAR","name":"Yat Tung Heen","street":"佐敦彌敦道380號逸東酒店地庫2樓"},{"_geoloc":{"lat":22.279318,"lng":114.17975},"city_name":"Hong Kong","country_name":"Hong Kong","cuisine_type":"Street Food","michelin_award":"MICHELIN_PLATE","name":"Keung Kee","street":"灣仔駱克道382號"},{"_geoloc":{"lat":22.281199,"lng":114.15816},"city_name":"Hong Kong","country_name":"Hong Kong","cuisine_type":"French contemporary","michelin_award":"THREE_STARS","name":"L'Atelier de Joël Robuchon","street":"中環皇后大道中15號置地廣場中庭4樓401號舖"},{"_geoloc":{"lat":22.331856,"lng":114.16282},"city_name":"Hong Kong","country_name":"Hong Kong","cuisine_type":"Street Food","michelin_award":"MICHELIN_PLATE","name":"Man Kei Cart Noodles","street":"深水埗福榮街121號"},{"_geoloc":{"lat":22.381838,"lng":114.18802},"city_name":"Hong Kong","country_name":"Hong Kong","cuisine_type":"Cantonese","michelin_award":"MICHELIN_PLATE","name":"Lei Garden (Sha Tin)","street":"沙田新城市廣場第1期6樓628號舖"},{"_geoloc":{"lat":22.2801227,"lng":114.1572052},"city_name":"Hong Kong","country_name":"Hong Kong","cuisine_type":"Cantonese","michelin_award":"ONE_STAR","name":"Duddell's","street":"中環都爹利街1號上海灘3樓"},{"_geoloc":{"lat":22.298529,"lng":114.17756},"city_name":"Hong Kong","country_name":"Hong Kong","cuisine_type":"Pekingese","michelin_award":"MICHELIN_PLATE","name":"Dong Lai Shun","street":"尖東麼地道69號帝苑酒店地庫2樓"},{"_geoloc":{"lat":22.285553,"lng":114.14998},"city_name":"Hong Kong","country_name":"Hong Kong","cuisine_type":"Cantonese Roast Meats","michelin_award":"BIB_GOURMAND","name":"Sun Yuen Hing Kee","street":"上環皇后大道中327-329號"},{"_geoloc":{"lat":41.3684941,"lng":2.1907058},"city_name":"La Barceloneta","country_name":"Spain","cuisine_type":"Traditional cuisine","michelin_award":"MICHELIN_PLATE","name":"La Barra de Carles Abellan","street":"Plaza de la Rosa dels Vents 1 (Moll De Llevant)"},{"_geoloc":{"lat":43.3679115,"lng":-8.4044335},"city_name":"A Coruña (La Coruña)","country_name":"Spain","cuisine_type":"Fusion","michelin_award":"MICHELIN_PLATE","name":"Ōvera","street":"Rúa de Durán Loriga 8"},{"_geoloc":{"lat":43.46315,"lng":-3.80085},"city_name":"Santander","country_name":"Spain","cuisine_type":"Traditional cuisine","michelin_award":"MICHELIN_PLATE","name":"Bodega Cigaleña","street":"Daoiz y Velarde 19"},{"_geoloc":{"lat":43.456814,"lng":-5.06878},"city_name":"Ribadesella","country_name":"Spain","cuisine_type":"Traditional cuisine","michelin_award":"MICHELIN_PLATE","name":"La Huertona","street":"Carretera de Junco"},{"_geoloc":{"lat":36.2006934,"lng":-6.0359501},"city_name":"Zahora","country_name":"Spain","cuisine_type":"Modern cuisine","michelin_award":"BIB_GOURMAND","name":"Arohaz","street":"Carril del Pozo 25"},{"_geoloc":{"lat":37.3866056,"lng":-6.0101861},"city_name":"Sevilla","country_name":"Spain","cuisine_type":"Contemporary","michelin_award":"MICHELIN_PLATE","name":"Puratasca","street":"Numancia 5"},{"_geoloc":{"lat":41.97108,"lng":1.87987},"city_name":"Puig-Reig","country_name":"Spain","cuisine_type":"Traditional cuisine","michelin_award":"MICHELIN_PLATE","name":"El Celler de Ca la Quica","street":"Major 48 (entrada lateral)"},{"_geoloc":{"lat":37.8793,"lng":-6.62185},"city_name":"Linares de la Sierra","country_name":"Spain","cuisine_type":"Regional cuisine","michelin_award":"BIB_GOURMAND","name":"Arrieros","street":"Arrieros 2"},{"_geoloc":{"lat":42.2396,"lng":-8.721949},"city_name":"Vigo","country_name":"Spain","cuisine_type":"Traditional cuisine","michelin_award":"MICHELIN_PLATE","name":"Alameda XXI","street":"Plaza de Compostela 21"},{"_geoloc":{"lat":42.2404434,"lng":-8.7240669},"city_name":"Vigo","country_name":"Spain","cuisine_type":"Creative","michelin_award":"ONE_STAR","name":"Maruja Limón","street":"Montero Ríos 4"},{"_geoloc":{"lat":42.23176,"lng":-8.74323},"city_name":"Vigo","country_name":"Spain","cuisine_type":"Modern cuisine","michelin_award":"MICHELIN_PLATE","name":"Marina Davila","street":"Muelle de reparaciones de Bouzas"},{"_geoloc":{"lat":43.4275581,"lng":-4.0425417},"city_name":"Suances","country_name":"Spain","cuisine_type":"Contemporary","michelin_award":"MICHELIN_PLATE","name":"Emma","street":"Ceballos 14"},{"_geoloc":{"lat":40.375137,"lng":-3.53271},"city_name":"Rivas-Vaciamadrid","country_name":"Spain","cuisine_type":"Traditional cuisine","michelin_award":"MICHELIN_PLATE","name":"La Rotonda","street":"Paseo Las Provincias 3 (centro comercial Covibar 2)"},{"_geoloc":{"lat":41.56301,"lng":2.011635},"city_name":"Terrassa","country_name":"Spain","cuisine_type":"Regional cuisine","michelin_award":"BIB_GOURMAND","name":"Vapor Gastronòmic","street":"De la Palla 15"},{"_geoloc":{"lat":42.1173367,"lng":2.7647181},"city_name":"Banyoles","country_name":"Spain","cuisine_type":"Traditional cuisine","michelin_award":"ONE_STAR","name":"Ca l'Arpa","street":"Paseo Indústria 5"},{"_geoloc":{"lat":40.422237,"lng":-3.6983004},"city_name":"Madrid","country_name":"Spain","cuisine_type":"Italian","michelin_award":"MICHELIN_PLATE","name":"Gioia","street":"San Bartolomé 23"},{"_geoloc":{"lat":42.06099,"lng":-1.60372},"city_name":"Tudela","country_name":"Spain","cuisine_type":"Traditional cuisine","michelin_award":"MICHELIN_PLATE","name":"Treintaitres","street":"Pablo Sarasate 7"},{"_geoloc":{"lat":41.7855399,"lng":3.0451724},"city_name":"S'Agaró","country_name":"Spain","cuisine_type":"Mediterranean","michelin_award":"MICHELIN_PLATE","name":"Terra","street":"Carretera de Sant Pol 633"},{"_geoloc":{"lat":42.5588451,"lng":-2.6048793},"city_name":"Páganos","country_name":"Spain","cuisine_type":"Modern cuisine","michelin_award":"BIB_GOURMAND","name":"Héctor Oribe","street":"Gasteiz 8"},{"_geoloc":{"lat":41.3879756,"lng":2.1530369},"city_name":"Barcelona","country_name":"Spain","cuisine_type":"Creative","michelin_award":"TWO_STARS","name":"Disfrutar","street":"Villarroel 163"},{"_geoloc":{"lat":39.4827855,"lng":-0.3256431},"city_name":"Valencia","country_name":"Spain","cuisine_type":"Traditional cuisine","michelin_award":"MICHELIN_PLATE","name":"Casa Carmela","street":"Isabel de Villena 155"},{"_geoloc":{"lat":39.552246,"lng":2.6914155},"city_name":"es Coll d'en Rabassa","country_name":"Spain","cuisine_type":"Seafood","michelin_award":"MICHELIN_PLATE","name":"Bonsol","street":"Illa de Xipre 12"},{"_geoloc":{"lat":40.4862455,"lng":-3.3607672},"city_name":"Alcalá de Henares","country_name":"Spain","cuisine_type":"Japanese","michelin_award":"MICHELIN_PLATE","name":"Ki-Jote","street":"Vía Complutense 42, trasera"},{"_geoloc":{"lat":40.602104,"lng":0.427955},"city_name":"Ulldecona","country_name":"Spain","cuisine_type":"Modern cuisine","michelin_award":"ONE_STAR","name":"Les Moles","street":"Noroeste : 2 km"},{"_geoloc":{"lat":41.0667735,"lng":1.0631489},"city_name":"Cambrils","country_name":"Spain","cuisine_type":"Traditional cuisine","michelin_award":"ONE_STAR","name":"Rincón de Diego","street":"Drassanes 19"},{"_geoloc":{"lat":36.5079973,"lng":-4.9165613},"city_name":"Marbella","country_name":"Spain","cuisine_type":"French","michelin_award":"MICHELIN_PLATE","name":"Maison Lu","street":"Bulevar Príncipe Alfonso de Hohenlohe 269"},{"_geoloc":{"lat":41.3815193,"lng":2.1720503},"city_name":"Barcelona","country_name":"Spain","cuisine_type":"Contemporary","michelin_award":"MICHELIN_PLATE","name":"Direkte Boqueria","street":"Les Cabres 13"},{"_geoloc":{"lat":37.2570781,"lng":-6.9477718},"city_name":"Huelva","country_name":"Spain","cuisine_type":"Modern cuisine","michelin_award":"ONE_STAR","name":"Acánthum","street":"San Salvador 17"},{"_geoloc":{"lat":38.64231,"lng":0.04817},"city_name":"Calp","country_name":"Spain","cuisine_type":"Traditional cuisine","michelin_award":"MICHELIN_PLATE","name":"El Bodegón","street":"Delfín 8"},{"_geoloc":{"lat":40.4222663,"lng":-3.6841208},"city_name":"Retiro","country_name":"Spain","cuisine_type":"Traditional cuisine","michelin_award":"MICHELIN_PLATE","name":"Goizeko Wellington","street":"Villanueva 34"},{"_geoloc":{"lat":43.080875,"lng":-3.072399},"city_name":"Quejana","country_name":"Spain","cuisine_type":"Traditional cuisine","michelin_award":"MICHELIN_PLATE","name":"Arcos de Quejana","street":"Carretera Beotegi"},{"_geoloc":{"lat":36.9951721,"lng":-5.5734199},"city_name":"Montellano","country_name":"Spain","cuisine_type":"Traditional cuisine","michelin_award":"BIB_GOURMAND","name":"Deli","street":"Plaza de Andalucía 10"},{"_geoloc":{"lat":40.4284323,"lng":-3.6861735},"city_name":"Retiro","country_name":"Spain","cuisine_type":"Creative","michelin_award":"TWO_STARS","name":"Ramón Freixa Madrid","street":"Claudio Coello 67"},{"_geoloc":{"lat":41.6063818,"lng":-3.9966595},"city_name":"Castrillo de Duero","country_name":"Spain","cuisine_type":"Modern cuisine","michelin_award":"MICHELIN_PLATE","name":"Cepa 21","street":"Carretera N 122, km 297"},{"_geoloc":{"lat":40.35528,"lng":-5.1755853},"city_name":"Hoyos del Espino","country_name":"Spain","cuisine_type":"Traditional cuisine","michelin_award":"MICHELIN_PLATE","name":"Mira de Gredos","street":"Carretera de El Barco (AV 941)"},{"_geoloc":{"lat":43.29733,"lng":-7.68368},"city_name":"Vilalba","country_name":"Spain","cuisine_type":"Traditional cuisine","michelin_award":"MICHELIN_PLATE","name":"Mesón do Campo","street":"Plaza San Juan 10"},{"_geoloc":{"lat":43.385925,"lng":-5.715306},"city_name":"Argüelles","country_name":"Spain","cuisine_type":"Traditional cuisine","michelin_award":"MICHELIN_PLATE","name":"El Asador de Abel","street":"La Revuelta del Coche"},{"_geoloc":{"lat":37.3837975,"lng":-5.9842024},"city_name":"Sevilla","country_name":"Spain","cuisine_type":"Modern cuisine","michelin_award":"MICHELIN_PLATE","name":"Tradevo San Bernardo","street":"Juan de Mata Carriazo 6"},{"_geoloc":{"lat":41.90439,"lng":-1.726},"city_name":"Tarazona","country_name":"Spain","cuisine_type":"Traditional cuisine","michelin_award":"MICHELIN_PLATE","name":"Saboya 21","street":"Marrodán 34-1º"},{"_geoloc":{"lat":42.11699,"lng":1.85401},"city_name":"Berga","country_name":"Spain","cuisine_type":"Modern cuisine","michelin_award":"ONE_STAR","name":"Estany Clar","street":"Carretera C 16, km 99,4"},{"_geoloc":{"lat":43.26531,"lng":-2.9314775},"city_name":"Bilbao","country_name":"Spain","cuisine_type":"Traditional cuisine","michelin_award":"MICHELIN_PLATE","name":"La Despensa del Etxanobe","street":"Juan de Ajuriaguerra 8"},{"_geoloc":{"lat":42.46574,"lng":-2.44406},"city_name":"Logroño","country_name":"Spain","cuisine_type":"Traditional cuisine","michelin_award":"MICHELIN_PLATE","name":"Tastavin","street":"San Juan 25"},{"_geoloc":{"lat":43.3227292,"lng":-1.9776594},"city_name":"Donostia-San Sebastián","country_name":"Spain","cuisine_type":"Fusion","michelin_award":"BIB_GOURMAND","name":"Topa","street":"Aguirre Miramón 7"},{"_geoloc":{"lat":36.7204419,"lng":-4.4209148},"city_name":"Málaga","country_name":"Spain","cuisine_type":"Creative","michelin_award":"MICHELIN_PLATE","name":"KGB","street":"Fresca 12"},{"_geoloc":{"lat":43.56167,"lng":-8.01459},"city_name":"San Ramón","country_name":"Spain","cuisine_type":"Traditional cuisine","michelin_award":"MICHELIN_PLATE","name":"Casa Pena","street":"Feira 49"},{"_geoloc":{"lat":28.14206,"lng":-15.43318},"city_name":"Las Palmas de Gran Canaria","country_name":"Spain","cuisine_type":"Modern cuisine","michelin_award":"MICHELIN_PLATE","name":"Summum","street":"Alfredo J Jones 40"},{"_geoloc":{"lat":42.8431579,"lng":-2.6808688},"city_name":"Vitoria-Gasteiz","country_name":"Spain","cuisine_type":"Traditional cuisine","michelin_award":"MICHELIN_PLATE","name":"Ikea","street":"Portal de Castilla 27"},{"_geoloc":{"lat":42.4954761,"lng":-1.2153015},"city_name":"Sos del Rey Católico","country_name":"Spain","cuisine_type":"Traditional cuisine","michelin_award":"BIB_GOURMAND","name":"La Cocina del Principal","street":"Fernando El Católico 13"},{"_geoloc":{"lat":39.4602826,"lng":-5.8809799},