{"exhaustiveNbHits":true,"hits":[{"_geoloc":{"lat":51.0766642,"lng":-0.055458},"city_name":"West Hoathly","country_name":"United Kingdom","cuisine_type":"Traditional British","michelin_award":"BIB_GOURMAND","name":"Cat Inn","street":"North Lane"},{"_geoloc":{"lat":51.514744,"lng":-0.1612025},"city_name":"Marylebone","country_name":"United Kingdom","cuisine_type":"Basque","michelin_award":"MICHELIN_PLATE","name":"Lurra","street":"9 Seymour Place"},{"_geoloc":{"lat":52.4259359,"lng":-1.7052349},"city_name":"Hampton in Arden","country_name":"United Kingdom","cuisine_type":"Creative British","michelin_award":"ONE_STAR","name":"Peel's","street":"Shadowbrook Lane"},{"_geoloc":{"lat":53.7392456,"lng":-0.3359933},"city_name":"Kingston upon Hull","country_name":"United Kingdom","cuisine_type":"Indian","michelin_award":"MICHELIN_PLATE","name":"Tapasya @ Marina","street":"9 Humber Dock Street"},{"_geoloc":{"lat":51.503679,"lng":-0.0770926},"city_name":"London","country_name":"United Kingdom","cuisine_type":"Indian","michelin_award":"MICHELIN_PLATE","name":"Gunpowder at Tower Bridge","street":"One Tower Bridge, 4 Duchess Street"},{"_geoloc":{"lat":51.4772315,"lng":-0.9169419},"city_name":"Sonning","country_name":"United Kingdom","cuisine_type":"Traditional British","michelin_award":"MICHELIN_PLATE","name":"French Horn","street":""},{"_geoloc":{"lat":51.06073,"lng":-1.3069897},"city_name":"Winchester","country_name":"United Kingdom","cuisine_type":"Modern cuisine","michelin_award":"MICHELIN_PLATE","name":"Chesil Rectory","street":"Chesil Street"},{"_geoloc":{"lat":54.4643687,"lng":-6.0834874},"city_name":"Hillsborough","country_name":"United Kingdom","cuisine_type":"Traditional cuisine","michelin_award":"MICHELIN_PLATE","name":"Parson's Nose","street":"48 Lisburn Street"},{"_geoloc":{"lat":51.5081557,"lng":-0.7021653},"city_name":"Bray","country_name":"United Kingdom","cuisine_type":"Traditional British","michelin_award":"ONE_STAR","name":"Hinds Head","street":"High Street"},{"_geoloc":{"lat":53.926243,"lng":-1.8257839},"city_name":"Ilkley","country_name":"United Kingdom","cuisine_type":"Modern British","michelin_award":"MICHELIN_PLATE","name":"Box Tree","street":"37 Church Street"},{"_geoloc":{"lat":55.6517856,"lng":-3.1856497},"city_name":"Peebles","country_name":"United Kingdom","cuisine_type":"Modern cuisine","michelin_award":"MICHELIN_PLATE","name":"Osso","street":"Innerleithen Road"},{"_geoloc":{"lat":51.5194,"lng":-0.14032},"city_name":"Marylebone","country_name":"United Kingdom","cuisine_type":"Seafood","michelin_award":"MICHELIN_PLATE","name":"Bonnie Gull","street":"21a Foley Street"},{"_geoloc":{"lat":51.6347827,"lng":-2.0671482},"city_name":"Crudwell","country_name":"United Kingdom","cuisine_type":"Regional cuisine","michelin_award":"MICHELIN_PLATE","name":"Potting Shed","street":"The Street"},{"_geoloc":{"lat":51.461628,"lng":-0.113913},"city_name":"Brixton","country_name":"United Kingdom","cuisine_type":"Japanese","michelin_award":"MICHELIN_PLATE","name":"Nanban","street":"426 Coldharbour Lane"},{"_geoloc":{"lat":51.29471,"lng":0.40942},"city_name":"West Malling","country_name":"United Kingdom","cuisine_type":"Modern cuisine","michelin_award":"MICHELIN_PLATE","name":"Swan","street":"35 Swan Street"},{"_geoloc":{"lat":53.4026157,"lng":-2.9730798},"city_name":"Liverpool","country_name":"United Kingdom","cuisine_type":"Modern cuisine","michelin_award":"MICHELIN_PLATE","name":"Röski","street":"16 Rodney Street"},{"_geoloc":{"lat":56.89051,"lng":-4.92358},"city_name":"Spean Bridge","country_name":"United Kingdom","cuisine_type":"Traditional British","michelin_award":"MICHELIN_PLATE","name":"Russell's at Smiddy House","street":"Roybridge Road"},{"_geoloc":{"lat":53.19317,"lng":-2.89291},"city_name":"Chester","country_name":"United Kingdom","cuisine_type":"British contemporary","michelin_award":"MICHELIN_PLATE","name":"Covino","street":"118 Northgate Street"},{"_geoloc":{"lat":56.84443,"lng":-5.05408},"city_name":"Fort William","country_name":"United Kingdom","cuisine_type":"Modern cuisine","michelin_award":"MICHELIN_PLATE","name":"Inverlochy Castle","street":"Torlundy"},{"_geoloc":{"lat":51.5061492,"lng":-0.1441843},"city_name":"Mayfair","country_name":"United Kingdom","cuisine_type":"Modern British","michelin_award":"ONE_STAR","name":"Hide","street":"85 Piccadilly"},{"_geoloc":{"lat":52.191643,"lng":-2.226191},"city_name":"Worcester","country_name":"United Kingdom","cuisine_type":"Traditional British","michelin_award":"MICHELIN_PLATE","name":"Old Rectifying House","street":"North Parade"},{"_geoloc":{"lat":54.5059759,"lng":-5.7134291},"city_name":"Lisbane","country_name":"United Kingdom","cuisine_type":"Traditional British","michelin_award":"MICHELIN_PLATE","name":"Poacher's Pocket","street":"181 Killinchy Road"},{"_geoloc":{"lat":52.4811,"lng":-1.90199},"city_name":"Birmingham","country_name":"United Kingdom","cuisine_type":"Indian","michelin_award":"MICHELIN_PLATE","name":"Asha's","street":"12-22 Newhall Street"},{"_geoloc":{"lat":51.5146856,"lng":-0.1977276},"city_name":"North Kensington","country_name":"United Kingdom","cuisine_type":"World cuisine","michelin_award":"MICHELIN_PLATE","name":"Granger \u0026 Co. Notting Hill","street":"175 Westbourne Grove"},{"_geoloc":{"lat":52.0824963,"lng":0.3108654},"city_name":"Bartlow","country_name":"United Kingdom","cuisine_type":"Modern British","michelin_award":"MICHELIN_PLATE","name":"The Three Hills","street":"Dean Road"},{"_geoloc":{"lat":51.51908,"lng":-0.0838304},"city_name":"City of London","country_name":"United Kingdom","cuisine_type":"Spanish","michelin_award":"MICHELIN_PLATE","name":"José Pizarro","street":"36 Broadgate Circle"},{"_geoloc":{"lat":51.8065725,"lng":0.4586085},"city_name":"Howe Street","country_name":"United Kingdom","cuisine_type":"Traditional British","michelin_award":"BIB_GOURMAND","name":"Green Man","street":"Main Road"},{"_geoloc":{"lat":52.92405,"lng":-3.44329},"city_name":"Llandrillo","country_name":"United Kingdom","cuisine_type":"Classic cuisine","michelin_award":"MICHELIN_PLATE","name":"Tyddyn Llan","street":""},{"_geoloc":{"lat":51.5289184,"lng":-0.0702678},"city_name":"Bethnal Green","country_name":"United Kingdom","cuisine_type":"Traditional British","michelin_award":"BIB_GOURMAND","name":"Brawn","street":"49 Columbia Road"},{"_geoloc":{"lat":51.5717716,"lng":-0.777084},"city_name":"Marlow","country_name":"United Kingdom","cuisine_type":"Modern British","michelin_award":"ONE_STAR","name":"The Coach","street":"3 West Street"},{"_geoloc":{"lat":51.0800551,"lng":-2.1000311},"city_name":"Tisbury","country_name":"United Kingdom","cuisine_type":"Traditional cuisine","michelin_award":"MICHELIN_PLATE","name":"Beckford Arms","street":"Fonthill Gifford"},{"_geoloc":{"lat":51.42534,"lng":-0.218235},"city_name":"Wimbledon","country_name":"United Kingdom","cuisine_type":"Modern cuisine","michelin_award":"MICHELIN_PLATE","name":"The White Onion","street":"67 High Street"},{"_geoloc":{"lat":51.5224611,"lng":-0.1019817},"city_name":"Clerkenwell","country_name":"United Kingdom","cuisine_type":"Italian","michelin_award":"MICHELIN_PLATE","name":"Luca","street":"88 St John Street"},{"_geoloc":{"lat":51.4911299,"lng":-0.1804839},"city_name":"South Kensington","country_name":"United Kingdom","cuisine_type":"Japanese","michelin_award":"MICHELIN_PLATE","name":"Yashin Ocean House","street":"117-119 Old Brompton Road"},{"_geoloc":{"lat":52.88845,"lng":-1.08793},"city_name":"Plumtree","country_name":"United Kingdom","cuisine_type":"Modern British","michelin_award":"MICHELIN_PLATE","name":"Perkins Bar \u0026 Bistro","street":"Old Railway Station, Station Road"},{"_geoloc":{"lat":55.9489025,"lng":-3.1924181},"city_name":"Edinburgh","country_name":"United Kingdom","cuisine_type":"Seafood","michelin_award":"MICHELIN_PLATE","name":"Ondine","street":"2 George IV Bridge"},{"_geoloc":{"lat":54.91089,"lng":-3.59729},"city_name":"Kirkbean","country_name":"United Kingdom","cuisine_type":"Traditional cuisine","michelin_award":"MICHELIN_PLATE","name":"Cavens","street":"Cavens Hotel"},{"_geoloc":{"lat":55.8651542,"lng":-4.2855021},"city_name":"Glasgow","country_name":"United Kingdom","cuisine_type":"Modern cuisine","michelin_award":"MICHELIN_PLATE","name":"Six by Nico","street":"1132 Argyle Street"},{"_geoloc":{"lat":51.48867,"lng":-0.165965},"city_name":"Chelsea","country_name":"United Kingdom","cuisine_type":"Modern British","michelin_award":"MICHELIN_PLATE","name":"Rabbit","street":"172 King's Road"},{"_geoloc":{"lat":51.498547,"lng":-0.23544},"city_name":"Hammersmith","country_name":"United Kingdom","cuisine_type":"Modern British","michelin_award":"MICHELIN_PLATE","name":"Anglesea Arms","street":"35 Wingate Road"},{"_geoloc":{"lat":50.86322,"lng":-1.54889},"city_name":"Lyndhurst","country_name":"United Kingdom","cuisine_type":"Italian","michelin_award":"MICHELIN_PLATE","name":"Hartnett Holder \u0026 Co","street":"Beaulieu Road"},{"_geoloc":{"lat":50.8257663,"lng":-2.9689222},"city_name":"Tytherleigh","country_name":"United Kingdom","cuisine_type":"Modern British","michelin_award":"MICHELIN_PLATE","name":"Tytherleigh Arms","street":"Chard Road"},{"_geoloc":{"lat":54.9764283,"lng":-3.3342629},"city_name":"Annan","country_name":"United Kingdom","cuisine_type":"Modern British","michelin_award":"MICHELIN_PLATE","name":"Del Amitri","street":"Powfoot Hotel, Links Ave, Powfoot"},{"_geoloc":{"lat":51.5037098,"lng":-0.149898},"city_name":"Mayfair","country_name":"United Kingdom","cuisine_type":"Italian","michelin_award":"MICHELIN_PLATE","name":"Theo Randall","street":"InterContinental London Park Lane Hotel, 1 Hamilton Pl, Park Lane"},{"_geoloc":{"lat":55.958305,"lng":-3.1898117},"city_name":"Edinburgh","country_name":"United Kingdom","cuisine_type":"Creative","michelin_award":"MICHELIN_PLATE","name":"Fhior","street":"36 Broughton Street"},{"_geoloc":{"lat":53.4790817,"lng":-2.2466541},"city_name":"Manchester","country_name":"United Kingdom","cuisine_type":"Vegan","michelin_award":"MICHELIN_PLATE","name":"Allotment","street":"16 Lloyd Street"},{"_geoloc":{"lat":50.45837,"lng":-3.52436},"city_name":"Torquay","country_name":"United Kingdom","cuisine_type":"Seafood","michelin_award":"MICHELIN_PLATE","name":"Number 7","street":"7 Beacon Terrace"},{"_geoloc":{"lat":52.316425,"lng":-2.8610947},"city_name":"Wigmore","country_name":"United Kingdom","cuisine_type":"Modern British","michelin_award":"MICHELIN_PLATE","name":"The Oak Wigmore","street":"Ford Street"},{"_geoloc":{"lat":51.0119845,"lng":-1.0846632},"city_name":"West Meon","country_name":"United Kingdom","cuisine_type":"Traditional cuisine","michelin_award":"MICHELIN_PLATE","name":"Thomas Lord","street":"High Street"},{"_geoloc":{"lat":51.97185,"lng":-0.5956998},"city_name":"Woburn","country_name":"United Kingdom","cuisine_type":"Creative","michelin_award":"MICHELIN_PLATE","name":"Paris House","street":"Woburn Park"},{"_geoloc":{"lat":51.501645,"lng":-0.1563186},"city_name":"Belgravia","country_name":"United Kingdom","cuisine_type":"Modern cuisine","michelin_award":"ONE_STAR","name":"Marcus","street":"Wilton Place"},{"_geoloc":{"lat":52.571705,"lng":-0.2442538},"city_name":"Peterborough","country_name":"United Kingdom","cuisine_type":"Creative British","michelin_award":"MICHELIN_PLATE","name":"Prévost","street":"20 Priestgate"},{"_geoloc":{"lat":51.52439,"lng":-0.07699},"city_name":"Shoreditch","country_name":"United Kingdom","cuisine_type":"Peruvian","michelin_award":"MICHELIN_PLATE","name":"Andina","street":"1 Redchurch Street"},{"_geoloc":{"lat":51.5441615,"lng":-0.0255428},"city_name":"Hackney","country_name":"United Kingdom","cuisine_type":"Seafood","michelin_award":"MICHELIN_PLATE","name":"Cornerstone","street":"3 Prince Edward Road"},{"_geoloc":{"lat":51.52123,"lng":-0.07561},"city_name":"Spitalfields","country_name":"United Kingdom","cuisine_type":"Meats and grills","michelin_award":"MICHELIN_PLATE","name":"Hawksmoor","street":"157a Commercial Street"},{"_geoloc":{"lat":54.09405,"lng":-1.3953499},"city_name":"Boroughbridge","country_name":"United Kingdom","cuisine_type":"Modern British","michelin_award":"MICHELIN_PLATE","name":"thediningroom","street":"20 St. James's Square"},{"_geoloc":{"lat":55.865752,"lng":-4.2849808},"city_name":"Glasgow","country_name":"United Kingdom","cuisine_type":"Modern British","michelin_award":"BIB_GOURMAND","name":"Ox and Finch","street":"920 Sauchiehall Street"},{"_geoloc":{"lat":55.9573587,"lng":-3.2073917},"city_name":"Edinburgh","country_name":"United Kingdom","cuisine_type":"Mediterranean","michelin_award":"BIB_GOURMAND","name":"Merienda","street":"30 North West Circus Place, Stockbridge"},{"_geoloc":{"lat":52.9230558,"lng":-1.28711},"city_name":"Sandiacre","country_name":"United Kingdom","cuisine_type":"Modern British","michelin_award":"MICHELIN_PLATE","name":"La Rock","street":"4 Bridge Street"},{"_geoloc":{"lat":52.03601,"lng":-1.8612176},"city_name":"Broadway","country_name":"United Kingdom","cuisine_type":"Traditional British","michelin_award":"MICHELIN_PLATE","name":"Lygon Bar \u0026 Grill","street":"High Street"},{"_geoloc":{"lat":50.854145,"lng":-0.5555304},"city_name":"Arundel","country_name":"United Kingdom","cuisine_type":"Modern British","michelin_award":"MICHELIN_PLATE","name":"Parsons Table","street":"2 \u0026 8 Castle Mews, Tarrant Street"},{"_geoloc":{"lat":57.4335,"lng":-5.81504},"city_name":"Applecross","country_name":"United Kingdom","cuisine_type":"Traditional cuisine","michelin_award":"MICHELIN_PLATE","name":"Applecross Walled Garden","street":""},{"_geoloc":{"lat":51.4772077,"lng":-0.2857002},"city_name":"Kew","country_name":"United Kingdom","cuisine_type":"Modern cuisine","michelin_award":"ONE_STAR","name":"The Glasshouse","street":"14 Station Parade"},{"_geoloc":{"lat":51.5125224,"lng":-0.0924825},"city_name":"City of London","country_name":"United Kingdom","cuisine_type":"Indian","michelin_award":"MICHELIN_PLATE","name":"Brigadiers","street":"1-5 Bloomberg Arcade"},{"_geoloc":{"lat":50.82142,"lng":-0.1496348},"city_name":"Brighton","country_name":"United Kingdom","cuisine_type":"Modern British","michelin_award":"MICHELIN_PLATE","name":"Murmur","street":"91-96 Kings Road Arches"},{"_geoloc":{"lat":51.512016,"lng":-0.1385124},"city_name":"Soho","country_name":"United Kingdom","cuisine_type":"Asian","michelin_award":"MICHELIN_PLATE","name":"Jinjuu","street":"15 Kingly Street"},{"_geoloc":{"lat":51.8799424,"lng":-1.3645149},"city_name":"Wootton","country_name":"United Kingdom","cuisine_type":"Traditional British","michelin_award":"MICHELIN_PLATE","name":"Killingworth Castle","street":"Glympton Road"},{"_geoloc":{"lat":51.51191,"lng":-0.1423811},"city_name":"Mayfair","country_name":"United Kingdom","cuisine_type":"Japanese","michelin_award":"MICHELIN_PLATE","name":"Tokimeitē","street":"23 Conduit Street"},{"_geoloc":{"lat":50.35856,"lng":-3.91959},"city_name":"Ermington","country_name":"United Kingdom","cuisine_type":"Modern cuisine","michelin_award":"MICHELIN_PLATE","name":"Plantation House","street":"Totnes Road"},{"_geoloc":{"lat":51.50493,"lng":-0.0886968},"city_name":"Bermondsey","country_name":"United Kingdom","cuisine_type":"Chinese","michelin_award":"MICHELIN_PLATE","name":"Duddell's","street":"9A St. Thomas Street"},{"_geoloc":{"lat":51.517475,"lng":-0.142951},"city_name":"Marylebone","country_name":"United Kingdom","cuisine_type":"Traditional British","michelin_award":"MICHELIN_PLATE","name":"The Wigmore","street":"15 Langham Place, Upper Regent Street"},{"_geoloc":{"lat":51.51352,"lng":-0.133923},"city_name":"Soho","country_name":"United Kingdom","cuisine_type":"Modern cuisine","michelin_award":"MICHELIN_PLATE","name":"100 Wardour St","street":"100 Wardour Street"},{"_geoloc":{"lat":49.18522,"lng":-2.10378},"city_name":"Saint Helier/Saint-Hélier","country_name":"United Kingdom","cuisine_type":"International","michelin_award":"MICHELIN_PLATE","name":"Banjo","street":"8 Beresford Street"},{"_geoloc":{"lat":51.5590896,"lng":-0.7166415},"city_name":"Cookham","country_name":"United Kingdom","cuisine_type":"Traditional British","michelin_award":"MICHELIN_PLATE","name":"White Oak","street":"Pound Lane"},{"_geoloc":{"lat":55.6945241,"lng":-4.7421206},"city_name":"Dalry","country_name":"United Kingdom","cuisine_type":"Classic cuisine","michelin_award":"ONE_STAR","name":"Braidwoods","street":"Drumastle Mill Cottage"},{"_geoloc":{"lat":55.8196163,"lng":-5.6500637},"city_name":"Kilberry","country_name":"United Kingdom","cuisine_type":"Regional cuisine","michelin_award":"BIB_GOURMAND","name":"Kilberry Inn","street":""},{"_geoloc":{"lat":53.7970499,"lng":-1.5410024},"city_name":"Leeds","country_name":"United Kingdom","cuisine_type":"Modern British","michelin_award":"MICHELIN_PLATE","name":"HOME","street":"16/17 Kirkgate"},{"_geoloc":{"lat":51.53607,"lng":-0.14654},"city_name":"Camden Town","country_name":"United Kingdom","cuisine_type":"Modern cuisine","michelin_award":"MICHELIN_PLATE","name":"York \u0026 Albany","street":"127-129 Parkway"},{"_geoloc":{"lat":53.6486015,"lng":-2.317977},"city_name":"Ramsbottom","country_name":"United Kingdom","cuisine_type":"Traditional British","michelin_award":"MICHELIN_PLATE","name":"Hungry Duck","street":"76  Bridge Street"},{"_geoloc":{"lat":51.528286,"lng":-0.0560787},"city_name":"Bethnal Green","country_name":"United Kingdom","cuisine_type":"Mediterranean","michelin_award":"MICHELIN_PLATE","name":"Sager + Wilde","street":"250 Paradise Row"},{"_geoloc":{"lat":52.2201182,"lng":-3.9342622},"city_name":"Tregaron","country_name":"United Kingdom","cuisine_type":"Traditional cuisine","michelin_award":"MICHELIN_PLATE","name":"Y Talbot","street":""},{"_geoloc":{"lat":50.07113,"lng":-5.18653},"city_name":"Trelowarren","country_name":"United Kingdom","cuisine_type":"Modern British","michelin_award":"MICHELIN_PLATE","name":"New Yard","street":"Trelowarren Estate"},{"_geoloc":{"lat":50.12378,"lng":-5.474797},"city_name":"Marazion","country_name":"United Kingdom","cuisine_type":"Modern cuisine","michelin_award":"MICHELIN_PLATE","name":"Ben's Cornish Kitchen","street":"West End"},{"_geoloc":{"lat":51.4928538,"lng":-0.1566483},"city_name":"Chelsea","country_name":"United Kingdom","cuisine_type":"French","michelin_award":"MICHELIN_PLATE","name":"Colbert","street":"50-52 Sloane Square"},{"_geoloc":{"lat":51.5962968,"lng":-1.3363064},"city_name":"East Hendred","country_name":"United Kingdom","cuisine_type":"Traditional cuisine","michelin_award":"MICHELIN_PLATE","name":"Eyston Arms","street":"High Street"},{"_geoloc":{"lat":53.48467,"lng":-2.23671},"city_name":"Manchester","country_name":"United Kingdom","cuisine_type":"French","michelin_award":"MICHELIN_PLATE","name":"63 Degrees","street":"104 High Street"},{"_geoloc":{"lat":49.1849598,"lng":-2.2017018},"city_name":"Saint Brelade","country_name":"United Kingdom","cuisine_type":"Seafood","michelin_award":"MICHELIN_PLATE","name":"Oyster Box","street":"La Route de la Baie"},{"_geoloc":{"lat":51.6787396,"lng":-0.8961811},"city_name":"Sprig's Alley","country_name":"United Kingdom","cuisine_type":"Modern British","michelin_award":"MICHELIN_PLATE","name":"Sir Charles Napier","street":"Sprigs Holly"},{"_geoloc":{"lat":54.5467754,"lng":-1.7824444},"city_name":"Winston","country_name":"United Kingdom","cuisine_type":"Seafood","michelin_award":"MICHELIN_PLATE","name":"Bridgewater Arms","street":""},{"_geoloc":{"lat":51.81897,"lng":-1.0503143},"city_name":"Brill","country_name":"United Kingdom","cuisine_type":"Modern British","michelin_award":"MICHELIN_PLATE","name":"The Pointer","street":"27 Church Street"},{"_geoloc":{"lat":51.41823,"lng":-1.73338},"city_name":"Marlborough","country_name":"United Kingdom","cuisine_type":"Seafood","michelin_award":"MICHELIN_PLATE","name":"Rick Stein","street":"Lloran House, 42a High Street"},{"_geoloc":{"lat":51.50824,"lng":-0.10818},"city_name":"Southwark","country_name":"United Kingdom","cuisine_type":"Modern cuisine","michelin_award":"MICHELIN_PLATE","name":"Oxo Tower Brasserie","street":"Oxo Tower Wharf, Barge House Street"},{"_geoloc":{"lat":51.5237115,"lng":-0.0764569},"city_name":"Shoreditch","country_name":"United Kingdom","cuisine_type":"Modern British","michelin_award":"ONE_STAR","name":"Lyle's","street":"Tea Building, 56 Shoreditch High Street"},{"_geoloc":{"lat":51.4798929,"lng":-0.6633358},"city_name":"Windsor","country_name":"United Kingdom","cuisine_type":"Modern cuisine","michelin_award":"MICHELIN_PLATE","name":"Greene Oak","street":"Oakley Green"},{"_geoloc":{"lat":51.4675661,"lng":-2.6066475},"city_name":"Bristol","country_name":"United Kingdom","cuisine_type":"Modern British","michelin_award":"ONE_STAR","name":"wilks","street":"1 Chandos Road"},{"_geoloc":{"lat":52.05538,"lng":1.152533},"city_name":"Ipswich","country_name":"United Kingdom","cuisine_type":"Chinese","michelin_award":"MICHELIN_PLATE","name":"Trongs","street":"23 St. Nicholas Street"},{"_geoloc":{"lat":55.6052543,"lng":-2.7251813},"city_name":"Gattonside","country_name":"United Kingdom","cuisine_type":"Modern cuisine","michelin_award":"MICHELIN_PLATE","name":"The Hoebridge","street":"Hoebridge Road East"},{"_geoloc":{"lat":57.6822141,"lng":-4.037023},"city_name":"Cromarty","country_name":"United Kingdom","cuisine_type":"Traditional cuisine","michelin_award":"MICHELIN_PLATE","name":"Sutor Creek Cafe","street":"21 Bank Street"},{"_geoloc":{"lat":50.85472,"lng":-0.55458},"city_name":"Arundel","country_name":"United Kingdom","cuisine_type":"Modern cuisine","michelin_award":"MICHELIN_PLATE","name":"Town House","street":"65 High Street"},{"_geoloc":{"lat":54.5958609,"lng":-5.9326349},"city_name":"Belfast","country_name":"United Kingdom","cuisine_type":"Modern cuisine","michelin_award":"ONE_STAR","name":"Eipic","street":"28-40 Howard Street"},{"_geoloc":{"lat":51.50747,"lng":-0.09858},"city_name":"Southwark","country_name":"United Kingdom","cuisine_type":"Modern British","michelin_award":"MICHELIN_PLATE","name":"Tate Modern (Restaurant)","street":"Blavatnik Building (9th floor), Tate Modern, Bankside"},{"_geoloc":{"lat":50.66068,"lng":-3.76561},"city_name":"Moretonhampstead","country_name":"United Kingdom","cuisine_type":"Mediterranean","michelin_award":"MICHELIN_PLATE","name":"The Horse","street":"7 George Street"},{"_geoloc":{"lat":51.5135785,"lng":-0.0819713},"city_name":"London","country_name":"United Kingdom","cuisine_type":"French","michelin_award":"MICHELIN_PLATE","name":"Bob Bob Cité","street":"122 Leadenhall Street"},{"_geoloc":{"lat":51.51294,"lng":-0.1390902},"city_name":"Soho","country_name":"United Kingdom","cuisine_type":"Italian","michelin_award":"MICHELIN_PLATE","name":"Pastaio","street":"19 Ganton Street"},{"_geoloc":{"lat":54.5958531,"lng":-5.9329755},"city_name":"Belfast","country_name":"United Kingdom","cuisine_type":"Meats and grills","michelin_award":"MICHELIN_PLATE","name":"Deanes Meat Locker","street":"28-40 Howard Street"},{"_geoloc":{"lat":55.9339856,"lng":-3.1671615},"city_name":"Edinburgh","country_name":"United Kingdom","cuisine_type":"Modern cuisine","michelin_award":"MICHELIN_PLATE","name":"Edinburgh Food Studio","street":"158 Dalkeith Road"},{"_geoloc":{"lat":51.5217681,"lng":-0.1840841},"city_name":"Bayswater","country_name":"United Kingdom","cuisine_type":"Mediterranean","michelin_award":"BIB_GOURMAND","name":"Kateh","street":"5 Warwick Place"},{"_geoloc":{"lat":54.9932772,"lng":-7.3120349},"city_name":"Londonderry","country_name":"United Kingdom","cuisine_type":"Modern British","michelin_award":"MICHELIN_PLATE","name":"Browns Bonds Hill","street":"1 Bonds Hill, Waterside"},{"_geoloc":{"lat":51.5127495,"lng":-0.1318321},"city_name":"London","country_name":"United Kingdom","cuisine_type":"Traditional British","michelin_award":"MICHELIN_PLATE","name":"French House","street":"49 Dean Street"},{"_geoloc":{"lat":51.669014,"lng":-0.8694074},"city_name":"Radnage","country_name":"United Kingdom","cuisine_type":"Modern British","michelin_award":"MICHELIN_PLATE","name":"The Mash Inn","street":"Horseshoe Rd, Bennett End"},{"_geoloc":{"lat":51.4800321,"lng":-3.1806427},"city_name":"Caerdydd/Cardiff","country_name":"United Kingdom","cuisine_type":"Spanish","michelin_award":"MICHELIN_PLATE","name":"Asador 44","street":"14 Quay Street"},{"_geoloc":{"lat":51.5033346,"lng":-0.1066611},"city_name":"Southwark","country_name":"United Kingdom","cuisine_type":"Modern British","michelin_award":"MICHELIN_PLATE","name":"Anchor \u0026 Hope","street":"36 The Cut"},{"_geoloc":{"lat":50.96434,"lng":-2.5854142},"city_name":"Trent","country_name":"United Kingdom","cuisine_type":"Modern cuisine","michelin_award":"MICHELIN_PLATE","name":"Rose \u0026 Crown","street":""},{"_geoloc":{"lat":51.2730777,"lng":-1.7999743},"city_name":"East Chisenbury","country_name":"United Kingdom","cuisine_type":"Classic cuisine","michelin_award":"ONE_STAR","name":"Red Lion Freehouse","street":""},{"_geoloc":{"lat":50.55869,"lng":-4.79363},"city_name":"Saint Kew","country_name":"United Kingdom","cuisine_type":"Traditional British","michelin_award":"MICHELIN_PLATE","name":"St Kew Inn","street":""},{"_geoloc":{"lat":51.5128762,"lng":-0.1308634},"city_name":"Soho","country_name":"United Kingdom","cuisine_type":"Chinese","michelin_award":"MICHELIN_PLATE","name":"Barshu","street":"28 Frith Street"},{"_geoloc":{"lat":51.6664524,"lng":-0.6163206},"city_name":"Amersham","country_name":"United Kingdom","cuisine_type":"Modern British","michelin_award":"ONE_STAR","name":"Artichoke","street":"9 Market Square"},{"_geoloc":{"lat":52.458637,"lng":-1.9495751},"city_name":"Harborne","country_name":"United Kingdom","cuisine_type":"Modern British","michelin_award":"MICHELIN_PLATE","name":"Harborne Kitchen","street":"175-179 High Street"},{"_geoloc":{"lat":51.8232701,"lng":-0.9797793},"city_name":"Ashendon","country_name":"United Kingdom","cuisine_type":"Regional cuisine","michelin_award":"BIB_GOURMAND","name":"The Hundred of Ashendon","street":"Lower End"},{"_geoloc":{"lat":51.4906347,"lng":-0.1522472},"city_name":"Victoria","country_name":"United Kingdom","cuisine_type":"Modern cuisine","michelin_award":"MICHELIN_PLATE","name":"The Orange","street":"37 Pimlico Road"},{"_geoloc":{"lat":50.86951,"lng":-0.86138},"city_name":"Funtington","country_name":"United Kingdom","cuisine_type":"Classic cuisine","michelin_award":"MICHELIN_PLATE","name":"Hallidays","street":"Watery Lane"},{"_geoloc":{"lat":52.1531335,"lng":1.601527},"city_name":"Aldeburgh","country_name":"United Kingdom","cuisine_type":"Mediterranean","michelin_award":"BIB_GOURMAND","name":"Lighthouse","street":"77 High Street"},{"_geoloc":{"lat":51.36292,"lng":-2.74887},"city_name":"Wrington","country_name":"United Kingdom","cuisine_type":"Modern British","michelin_award":"MICHELIN_PLATE","name":"The Ethicurean","street":"Barley Wood Walled Garden, Long Lane"},{"_geoloc":{"lat":54.5996577,"lng":-5.9324165},"city_name":"Belfast","country_name":"United Kingdom","cuisine_type":"Seafood","michelin_award":"MICHELIN_PLATE","name":"Mourne Seafood Bar","street":"34-36 Bank Street"},{"_geoloc":{"lat":51.601868,"lng":-0.6366088},"city_name":"Beaconsfield","country_name":"United Kingdom","cuisine_type":"Modern British","michelin_award":"MICHELIN_PLATE","name":"No 5 London End","street":"London End"},{"_geoloc":{"lat":55.9754977,"lng":-3.1704941},"city_name":"Leith","country_name":"United Kingdom","cuisine_type":"Modern cuisine","michelin_award":"ONE_STAR","name":"Martin Wishart","street":"54 The Shore"},{"_geoloc":{"lat":51.4916094,"lng":-0.1616085},"city_name":"London","country_name":"United Kingdom","cuisine_type":"Indian","michelin_award":"MICHELIN_PLATE","name":"Kutir","street":"10 Lincoln Street"},{"_geoloc":{"lat":51.7778158,"lng":-0.5276102},"city_name":"Frithsden","country_name":"United Kingdom","cuisine_type":"Traditional British","michelin_award":"MICHELIN_PLATE","name":"Alford Arms","street":""},{"_geoloc":{"lat":57.5798367,"lng":-3.8095184},"city_name":"Nairn","country_name":"United Kingdom","cuisine_type":"Modern cuisine","michelin_award":"MICHELIN_PLATE","name":"Kale Yard Cafe","street":"Auldearn"},{"_geoloc":{"lat":51.5167181,"lng":-0.1371565},"city_name":"London","country_name":"United Kingdom","cuisine_type":"Mediterranean","michelin_award":"MICHELIN_PLATE","name":"Arros QD","street":"64 Eastcastle Street"},{"_geoloc":{"lat":53.1937998,"lng":-2.8930463},"city_name":"Chester","country_name":"United Kingdom","cuisine_type":"Vegan","michelin_award":"MICHELIN_PLATE","name":"Hypha","street":"5 City Walls"},{"_geoloc":{"lat":50.129166,"lng":-5.5001407},"city_name":"Longrock","country_name":"United Kingdom","cuisine_type":"Traditional cuisine","michelin_award":"MICHELIN_PLATE","name":"Mexico Inn","street":"4 Riverside"},{"_geoloc":{"lat":53.4812523,"lng":-2.2509073},"city_name":"Manchester","country_name":"United Kingdom","cuisine_type":"Modern British","michelin_award":"MICHELIN_PLATE","name":"Restaurant MCR","street":"18-22 Bridge Street"},{"_geoloc":{"lat":51.5113113,"lng":-0.1360193},"city_name":"Soho","country_name":"United Kingdom","cuisine_type":"Thai","michelin_award":"BIB_GOURMAND","name":"Kiln","street":"58 Brewer Street"},{"_geoloc":{"lat":51.4737884,"lng":-0.0594953},"city_name":"Peckham","country_name":"United Kingdom","cuisine_type":"Modern cuisine","michelin_award":"BIB_GOURMAND","name":"Kudu","street":"119 Queen's Road"},{"_geoloc":{"lat":56.464912,"lng":-2.864815},"city_name":"Broughty Ferry","country_name":"United Kingdom","cuisine_type":"Modern British","michelin_award":"MICHELIN_PLATE","name":"Tayberry","street":"594 Brook Street"},{"_geoloc":{"lat":50.5945366,"lng":-4.4297684},"city_name":"Lewannick","country_name":"United Kingdom","cuisine_type":"Country","michelin_award":"MICHELIN_PLATE","name":"Coombeshead Farm","street":""},{"_geoloc":{"lat":53.473858,"lng":-2.2456553},"city_name":"Manchester","country_name":"United Kingdom","cuisine_type":"Modern British","michelin_award":"MICHELIN_PLATE","name":"Wood Manchester","street":"Jack Rosenthal Street, First Street"},{"_geoloc":{"lat":55.682877,"lng":-5.7377224},"city_name":"Ardminish","country_name":"United Kingdom","cuisine_type":"Seafood","michelin_award":"MICHELIN_PLATE","name":"The Boathouse","street":"Ardminish Bay"},{"_geoloc":{"lat":51.50359,"lng":-0.07359},"city_name":"Bermondsey","country_name":"United Kingdom","cuisine_type":"French","michelin_award":"MICHELIN_PLATE","name":"Le Pont de la Tour","street":"36d Shad Thames, Butlers Wharf"},{"_geoloc":{"lat":51.50063,"lng":-0.08161},"city_name":"Bermondsey","country_name":"United Kingdom","cuisine_type":"Mediterranean","michelin_award":"MICHELIN_PLATE","name":"Garrison","street":"99-101 Bermondsey Street"},{"_geoloc":{"lat":53.1141914,"lng":-3.310905},"city_name":"Rhuthun/Ruthin","country_name":"United Kingdom","cuisine_type":"Traditional cuisine","michelin_award":"MICHELIN_PLATE","name":"On the Hill","street":"1 Upper Clwyd Street"},{"_geoloc":{"lat":56.4128863,"lng":-5.472427},"city_name":"Oban","country_name":"United Kingdom","cuisine_type":"Mediterranean","michelin_award":"MICHELIN_PLATE","name":"Baab","street":"Station Square"},{"_geoloc":{"lat":51.5478,"lng":-0.2624798},"city_name":"Church End","country_name":"United Kingdom","cuisine_type":"Indian","michelin_award":"MICHELIN_PLATE","name":"Shayona","street":"54-62 Meadow Garth"},{"_geoloc":{"lat":50.75629,"lng":-1.3319999},"city_name":"Gurnard","country_name":"United Kingdom","cuisine_type":"Traditional cuisine","michelin_award":"MICHELIN_PLATE","name":"Little Gloster","street":"31 Marsh Road"},{"_geoloc":{"lat":51.08932,"lng":-0.05691},"city_name":"Gravetye","country_name":"United Kingdom","cuisine_type":"Modern British","michelin_award":"ONE_STAR","name":"Gravetye Manor","street":"Vowels Lane"},{"_geoloc":{"lat":51.4850478,"lng":-3.201271},"city_name":"Cardiff","country_name":"United Kingdom","cuisine_type":"Modern cuisine","michelin_award":"MICHELIN_PLATE","name":"Heaneys","street":"6-10 Romilly Crescent"},{"_geoloc":{"lat":51.4469935,"lng":-2.5992828},"city_name":"Bristol","country_name":"United Kingdom","cuisine_type":"Modern British","michelin_award":"BIB_GOURMAND","name":"Root","street":"Unit 9, Cargo 1, Gaol Ferry Steps, Wapping Wharf"},{"_geoloc":{"lat":55.9734999,"lng":-3.1732194},"city_name":"Leith","country_name":"United Kingdom","cuisine_type":"Modern cuisine","michelin_award":"MICHELIN_PLATE","name":"Borough","street":"50-54 Henderson Street"},{"_geoloc":{"lat":51.5767087,"lng":-1.451169},"city_name":"Letcombe Regis","country_name":"United Kingdom","cuisine_type":"Modern British","michelin_award":"MICHELIN_PLATE","name":"Greyhound Inn","street":"Main Street"},{"_geoloc":{"lat":51.389764,"lng":1.3821744},"city_name":"Margate","country_name":"United Kingdom","cuisine_type":"Italian","michelin_award":"MICHELIN_PLATE","name":"Bottega Caruso","street":"2-4 Broad Street"},{"_geoloc":{"lat":51.5140208,"lng":-0.1327019},"city_name":"Soho","country_name":"United Kingdom","cuisine_type":"Spanish","michelin_award":"ONE_STAR","name":"Barrafina","street":"26-27 Dean Street"},{"_geoloc":{"lat":52.4683166,"lng":-1.922562},"city_name":"Birmingham","country_name":"United Kingdom","cuisine_type":"Modern cuisine","michelin_award":"ONE_STAR","name":"Simpsons","street":"20 Highfield Road, Edgbaston"},{"_geoloc":{"lat":51.5146044,"lng":-0.13599},"city_name":"Soho","country_name":"United Kingdom","cuisine_type":"Spanish","michelin_award":"MICHELIN_PLATE","name":"Copita","street":"27 D'Arblay Street"},{"_geoloc":{"lat":51.47989,"lng":-0.1989398},"city_name":"Fulham","country_name":"United Kingdom","cuisine_type":"Modern cuisine","michelin_award":"MICHELIN_PLATE","name":"Manuka Kitchen","street":"510 Fulham Road"},{"_geoloc":{"lat":52.0262733,"lng":0.0385579},"city_name":"Barley","country_name":"United Kingdom","cuisine_type":"British contemporary","michelin_award":"MICHELIN_PLATE","name":"Fox \u0026 Hounds","street":"High Street"},{"_geoloc":{"lat":51.3818999,"lng":-2.2427068},"city_name":"Upper South Wraxall","country_name":"United Kingdom","cuisine_type":"Traditional British","michelin_award":"BIB_GOURMAND","name":"Longs Arms","street":""},{"_geoloc":{"lat":51.12629,"lng":0.25766},"city_name":"Royal Tunbridge Wells","country_name":"United Kingdom","cuisine_type":"Seafood","michelin_award":"MICHELIN_PLATE","name":"The Old Fishmarket","street":"19 The Upper Pantiles"},{"_geoloc":{"lat":51.11913,"lng":0.6081901},"city_name":"Biddenden","country_name":"United Kingdom","cuisine_type":"Classic cuisine","michelin_award":"MICHELIN_PLATE","name":"The Three Chimneys","street":"Hareplain Road"},{"_geoloc":{"lat":51.510185,"lng":-0.1484264},"city_name":"Mayfair","country_name":"United Kingdom","cuisine_type":"Indian","michelin_award":"MICHELIN_PLATE","name":"Jamavar","street":"8 Mount Street"},{"_geoloc":{"lat":52.0632409,"lng":-1.6248717},"city_name":"Shipston-on-Stour","country_name":"United Kingdom","cuisine_type":"Modern British","michelin_award":"MICHELIN_PLATE","name":"Bower House","street":"Market Place"},{"_geoloc":{"lat":56.2040328,"lng":-2.7680608},"city_name":"SaintMonans","country_name":"United Kingdom","cuisine_type":"Modern cuisine","michelin_award":"MICHELIN_PLATE","name":"Craig Millar @ 16 West End","street":"16 West End"},{"_geoloc":{"lat":56.41041,"lng":-5.469723},"city_name":"Oban","country_name":"United Kingdom","cuisine_type":"Modern British","michelin_award":"MICHELIN_PLATE","name":"Etive","street":"43 Stevenson Street"},{"_geoloc":{"lat":55.9466039,"lng":-3.2020345},"city_name":"Edinburgh","country_name":"United Kingdom","cuisine_type":"Modern cuisine","michelin_award":"MICHELIN_PLATE","name":"Timberyard","street":"10 Lady Lawson Street"},{"_geoloc":{"lat":57.1474578,"lng":-2.0987288},"city_name":"Aberdeen","country_name":"United Kingdom","cuisine_type":"Modern British","michelin_award":"MICHELIN_PLATE","name":"Moonfish Cafe","street":"9 Correction Wynd"},{"_geoloc":{"lat":52.87963,"lng":0.5042798},"city_name":"Snettisham","country_name":"United Kingdom","cuisine_type":"Traditional cuisine","michelin_award":"MICHELIN_PLATE","name":"Rose and Crown","street":"Old Church Road"},{"_geoloc":{"lat":55.9592273,"lng":-3.2146014},"city_name":"Edinburgh","country_name":"United Kingdom","cuisine_type":"Scottish","michelin_award":"BIB_GOURMAND","name":"The Scran \u0026 Scallie","street":"1 Comely Bank Road, Stockbridge"},{"_geoloc":{"lat":51.5193089,"lng":-0.1360097},"city_name":"Bloomsbury","country_name":"United Kingdom","cuisine_type":"Mediterranean","michelin_award":"BIB_GOURMAND","name":"Salt Yard","street":"54 Goodge Street"},{"_geoloc":{"lat":51.694115,"lng":-2.2189026},"city_name":"Nailsworth","country_name":"United Kingdom","cuisine_type":"Modern cuisine","michelin_award":"MICHELIN_PLATE","name":"Wilder","street":"Market Street"},{"_geoloc":{"lat":52.913585,"lng":-3.5127409},"city_name":"Llandderfel","country_name":"United Kingdom","cuisine_type":"Modern British","michelin_award":"MICHELIN_PLATE","name":"Palé Hall","street":"Palé Estate"},{"_geoloc":{"lat":51.51468,"lng":-0.1349141},"city_name":"Soho","country_name":"United Kingdom","cuisine_type":"Indian","michelin_award":"MICHELIN_PLATE","name":"Tamarind Kitchen","street":"167-169 Wardour Street"},{"_geoloc":{"lat":54.5857326,"lng":-5.9323324},"city_name":"Belfast","country_name":"United Kingdom","cuisine_type":"Traditional British","michelin_award":"MICHELIN_PLATE","name":"Molly's Yard","street":"1 College Green Mews, Botanic Avenue"},{"_geoloc":{"lat":51.512924,"lng":-0.1421925},"city_name":"Mayfair","country_name":"United Kingdom","cuisine_type":"Indian","michelin_award":"MICHELIN_PLATE","name":"Bombay Bustle","street":"29 Maddox Street"},{"_geoloc":{"lat":51.51667,"lng":-0.11103},"city_name":"City of London","country_name":"United Kingdom","cuisine_type":"Vegetarian","michelin_award":"MICHELIN_PLATE","name":"Vanilla Black","street":"17-18 Tooks Court"},{"_geoloc":{"lat":51.8890863,"lng":0.8953694},"city_name":"Colchester","country_name":"United Kingdom","cuisine_type":"Traditional British","michelin_award":"MICHELIN_PLATE","name":"Church Street Tavern","street":"3 Church Street"},{"_geoloc":{"lat":51.1705588,"lng":-1.1337685},"city_name":"Preston Candover","country_name":"United Kingdom","cuisine_type":"Modern British","michelin_award":"MICHELIN_PLATE","name":"The Purefoy","street":"Alresford Road"},{"_geoloc":{"lat":51.6614583,"lng":-4.723955},"city_name":"Penally","country_name":"United Kingdom","cuisine_type":"Modern cuisine","michelin_award":"MICHELIN_PLATE","name":"Rhosyn","street":"Penally Abbey, Penally"},{"_geoloc":{"lat":50.4441486,"lng":-5.0412143},"city_name":"Tregurrian","country_name":"United Kingdom","cuisine_type":"Italian","michelin_award":"MICHELIN_PLATE","name":"Fifteen Cornwall","street":"On The Beach"},{"_geoloc":{"lat":54.82526,"lng":-5.08173},"city_name":"Portpatrick","country_name":"United Kingdom","cuisine_type":"Modern cuisine","michelin_award":"MICHELIN_PLATE","name":"Knockinaam Lodge","street":""},{"_geoloc":{"lat":51.8916,"lng":-2.08031},"city_name":"Cheltenham","country_name":"United Kingdom","cuisine_type":"Indian","michelin_award":"MICHELIN_PLATE","name":"Bhoomi","street":"52 Suffolk Road"},{"_geoloc":{"lat":51.5573606,"lng":-4.1610216},"city_name":"Oxwich","country_name":"United Kingdom","cuisine_type":"Modern cuisine","michelin_award":"ONE_STAR","name":"Beach House","street":"Oxwich Beach"},{"_geoloc":{"lat":50.95063,"lng":0.73371},"city_name":"Rye","country_name":"United Kingdom","cuisine_type":"Italian","michelin_award":"MICHELIN_PLATE","name":"Tuscan Kitchen","street":"8 Lion Street"},{"_geoloc":{"lat":51.518513,"lng":-0.083671},"city_name":"City of London","country_name":"United Kingdom","cuisine_type":"Chinese","michelin_award":"MICHELIN_PLATE","name":"Yauatcha City","street":"Broadgate Circle"},{"_geoloc":{"lat":52.71923,"lng":-0.62238},"city_name":"Greetham","country_name":"United Kingdom","cuisine_type":"Traditional British","michelin_award":"MICHELIN_PLATE","name":"Wheatsheaf Inn","street":"1 Stretton Road"},{"_geoloc":{"lat":51.374229,"lng":-2.3666748},"city_name":"Bath","country_name":"United Kingdom","cuisine_type":"Modern cuisine","michelin_award":"MICHELIN_PLATE","name":"Menu Gordon Jones","street":"2 Wellsway"},{"_geoloc":{"lat":50.159237,"lng":-5.01384},"city_name":"Saint Mawes","country_name":"United Kingdom","cuisine_type":"Mediterranean","michelin_award":"MICHELIN_PLATE","name":"Watch House","street":"1 The Square"},{"_geoloc":{"lat":51.4934872,"lng":-0.1689475},"city_name":"Chelsea","country_name":"United Kingdom","cuisine_type":"French","michelin_award":"TWO_STARS","name":"Claude Bosi at Bibendum","street":"Michelin House, 81 Fulham Road"},{"_geoloc":{"lat":54.4724607,"lng":-5.6905691},"city_name":"Killinchy","country_name":"United Kingdom","cuisine_type":"Traditional British","michelin_award":"BIB_GOURMAND","name":"Balloo House","street":"1 Comber Road"},{"_geoloc":{"lat":51.5112684,"lng":-0.1328223},"city_name":"Soho","country_name":"United Kingdom","cuisine_type":"Middle Eastern","michelin_award":"BIB_GOURMAND","name":"Palomar","street":"34 Rupert Street"},{"_geoloc":{"lat":49.452618,"lng":-2.5348916},"city_name":"Saint Peter Port/Saint-Pierre-Port","country_name":"United Kingdom","cuisine_type":"Traditional British","michelin_award":"MICHELIN_PLATE","name":"Slaughterhouse","street":"Castle Pier"},{"_geoloc":{"lat":51.52044,"lng":-0.1367519},"city_name":"Bloomsbury","country_name":"United Kingdom","cuisine_type":"Modern cuisine","michelin_award":"MICHELIN_PLATE","name":"Mere","street":"74 Charlotte Street"},{"_geoloc":{"lat":51.4917093,"lng":-0.1677672},"city_name":"Chelsea","country_name":"United Kingdom","cuisine_type":"Modern British","michelin_award":"ONE_STAR","name":"Elystan Street","street":"43 Elystan Street"},{"_geoloc":{"lat":51.51985,"lng":-0.16482},"city_name":"Marylebone","country_name":"United Kingdom","cuisine_type":"Japanese","michelin_award":"MICHELIN_PLATE","name":"Dinings","street":"22 Harcourt Street"},{"_geoloc":{"lat":51.4934987,"lng":-0.2552898},"city_name":"Chiswick","country_name":"United Kingdom","cuisine_type":"Modern cuisine","michelin_award":"MICHELIN_PLATE","name":"Charlotte's W4","street":"6 Turnham Green Terrace"},{"_geoloc":{"lat":57.14106,"lng":-2.136745},"city_name":"Aberdeen","country_name":"United Kingdom","cuisine_type":"Modern British","michelin_award":"MICHELIN_PLATE","name":"IX","street":"59-63 Queens Road"},{"_geoloc":{"lat":55.8637444,"lng":-4.2619387},"city_name":"Glasgow","country_name":"United Kingdom","cuisine_type":"Modern cuisine","michelin_award":"MICHELIN_PLATE","name":"Brian Maule at Chardon d'Or","street":"176 West Regent Street"},{"_geoloc":{"lat":51.5010195,"lng":-0.1630861},"city_name":"Hyde Park","country_name":"United Kingdom","cuisine_type":"Japanese","michelin_award":"MICHELIN_PLATE","name":"Zuma","street":"5 Raphael Street"},{"_geoloc":{"lat":51.2412991,"lng":-2.3914998},"city_name":"Mells","country_name":"United Kingdom","cuisine_type":"Traditional British","michelin_award":"MICHELIN_PLATE","name":"Talbot Inn","street":"Selwood Street"},{"_geoloc":{"lat":51.4929325,"lng":-0.256078},"city_name":"Chiswick","country_name":"United Kingdom","cuisine_type":"Modern cuisine","michelin_award":"MICHELIN_PLATE","name":"Michael Nadra","street":"6-8 Elliott Road"},{"_geoloc":{"lat":56.3392982,"lng":-2.7963793},"city_name":"Saint Andrews","country_name":"United Kingdom","cuisine_type":"Meats and grills","michelin_award":"MICHELIN_PLATE","name":"Adamson","street":"127 South Street"},{"_geoloc":{"lat":52.58826,"lng":-0.72038},"city_name":"Uppingham","country_name":"United Kingdom","cuisine_type":"Classic cuisine","michelin_award":"MICHELIN_PLATE","name":"Lake Isle","street":"16 High Street East"},{"_geoloc":{"lat":51.90266,"lng":-1.64769},"city_name":"Bledington","country_name":"United Kingdom","cuisine_type":"Traditional British","michelin_award":"MICHELIN_PLATE","name":"Kings Head Inn","street":"The Green"},{"_geoloc":{"lat":51.4090574,"lng":-0.6249969},"city_name":"Sunningdale","country_name":"United Kingdom","cuisine_type":"Modern cuisine","michelin_award":"MICHELIN_PLATE","name":"Bluebells","street":"London Road"},{"_geoloc":{"lat":51.4472419,"lng":-2.594108},"city_name":"Bristol","country_name":"United Kingdom","cuisine_type":"Creative","michelin_award":"ONE_STAR","name":"Casamia","street":"The General, Lower Guinea Street"},{"_geoloc":{"lat":52.38311,"lng":-2.71469},"city_name":"Ludlow","country_name":"United Kingdom","cuisine_type":"Modern cuisine","michelin_award":"MICHELIN_PLATE","name":"Forelles","street":"Fishmore Road"},{"_geoloc":{"lat":51.5331633,"lng":-0.789919},"city_name":"Hurley","country_name":"United Kingdom","cuisine_type":"Modern British","michelin_award":"MICHELIN_PLATE","name":"Hurley House","street":"Henley Road"},{"_geoloc":{"lat":51.6443899,"lng":0.0524223},"city_name":"Loughton","country_name":"United Kingdom","cuisine_type":"Modern cuisine","michelin_award":"MICHELIN_PLATE","name":"Tom, Dick \u0026 Harry's","street":"153 High Road"},{"_geoloc":{"lat":50.4312242,"lng":-3.685751},"city_name":"Totnes","country_name":"United Kingdom","cuisine_type":"Modern British","michelin_award":"MICHELIN_PLATE","name":"Gather","street":"50 Fore Street"},{"_geoloc":{"lat":52.630756,"lng":1.2910469},"city_name":"Norwich","country_name":"United Kingdom","cuisine_type":"Modern cuisine","michelin_award":"MICHELIN_PLATE","name":"Benedicts","street":"9 St Benedicts Street"},{"_geoloc":{"lat":53.96063,"lng":-1.0752156},"city_name":"York","country_name":"United Kingdom","cuisine_type":"Modern cuisine","michelin_award":"MICHELIN_PLATE","name":"Arras","street":"The Old Coach House, Peasholme Green"},{"_geoloc":{"lat":50.5418262,"lng":-4.9385531},"city_name":"Padstow","country_name":"United Kingdom","cuisine_type":"Italian","michelin_award":"MICHELIN_PLATE","name":"Rojano's in the Square","street":"9 Mill Square"},{"_geoloc":{"lat":51.5461818,"lng":-0.0542729},"city_name":"London","country_name":"United Kingdom","cuisine_type":"Modern British","michelin_award":"MICHELIN_PLATE","name":"Silver Lining","street":"13 Morning Lane"},{"_geoloc":{"lat":52.02207,"lng":-1.88259},"city_name":"Buckland","country_name":"United Kingdom","cuisine_type":"Modern British","michelin_award":"MICHELIN_PLATE","name":"Buckland Manor","street":"Buckland"},{"_geoloc":{"lat":54.9675888,"lng":-1.611016},"city_name":"Newcastle upon Tyne","country_name":"United Kingdom","cuisine_type":"Modern cuisine","michelin_award":"ONE_STAR","name":"House of Tides","street":"28-30 The Close"},{"_geoloc":{"lat":51.5119498,"lng":-0.0909832},"city_name":"London","country_name":"United Kingdom","cuisine_type":"Chinese","michelin_award":"MICHELIN_PLATE","name":"Kym's","street":"19 Bloomberg Arcade"},{"_geoloc":{"lat":51.5187654,"lng":-0.1961988},"city_name":"London","country_name":"United Kingdom","cuisine_type":"Modern British","michelin_award":"MICHELIN_PLATE","name":"Restaurant 104","street":"104a Chepstow Road"},{"_geoloc":{"lat":54.4302766,"lng":-2.962268},"city_name":"Ambleside","country_name":"United Kingdom","cuisine_type":"Creative","michelin_award":"MICHELIN_PLATE","name":"Lake Road Kitchen","street":"Lake Road"},{"_geoloc":{"lat":49.456947,"lng":-2.5356169},"city_name":"Saint Peter Port/Saint-Pierre-Port","country_name":"United Kingdom","cuisine_type":"Meats and grills","michelin_award":"MICHELIN_PLATE","name":"The Hook","street":"North Plantation"},{"_geoloc":{"lat":50.83902,"lng":0.4698349},"city_name":"Bexhill","country_name":"United Kingdom","cuisine_type":"Asian","michelin_award":"MICHELIN_PLATE","name":"The Driftwood","street":"40 Sackville Road"},{"_geoloc":{"lat":51.5097795,"lng":-0.1506976},"city_name":"Mayfair","country_name":"United Kingdom","cuisine_type":"Seafood","michelin_award":"MICHELIN_PLATE","name":"Scott's","street":"20 Mount Street"},{"_geoloc":{"lat":52.0412,"lng":-1.82746},"city_name":"Broadway","country_name":"United Kingdom","cuisine_type":"Modern British","michelin_award":"MICHELIN_PLATE","name":"The Back Garden","street":"Willersey Hill"},{"_geoloc":{"lat":53.795326,"lng":-1.545648},"city_name":"Leeds","country_name":"United Kingdom","cuisine_type":"Indian","michelin_award":"MICHELIN_PLATE","name":"Tharavadu","street":"7-8 Mill Hill"},{"_geoloc":{"lat":51.9448049,"lng":1.0790199},"city_name":"Mistley","country_name":"United Kingdom","cuisine_type":"Seafood","michelin_award":"MICHELIN_PLATE","name":"Mistley Thorn","street":"High Street"},{"_geoloc":{"lat":51.420887,"lng":-1.3493549},"city_name":"Newbury","country_name":"United Kingdom","cuisine_type":"Classic cuisine","michelin_award":"ONE_STAR","name":"Blackbird","street":"Bagnor"},{"_geoloc":{"lat":49.1999751,"lng":-2.0216164},"city_name":"Gorey","country_name":"United Kingdom","cuisine_type":"Modern cuisine","michelin_award":"MICHELIN_PLATE","name":"Sumas","street":"Gorey Hill"},{"_geoloc":{"lat":51.50861,"lng":-0.12765},"city_name":"Covent Garden","country_name":"United Kingdom","cuisine_type":"Modern cuisine","michelin_award":"MICHELIN_PLATE","name":"Portrait","street":"National Portrait Gallery, St Martin's Place"},{"_geoloc":{"lat":49.1974986,"lng":-2.0291926},"city_name":"Gorey","country_name":"United Kingdom","cuisine_type":"Traditional cuisine","michelin_award":"MICHELIN_PLATE","name":"Bass and Lobster","street":"Gorey Coast Road"},{"_geoloc":{"lat":54.599248,"lng":-5.9217956},"city_name":"Belfast","country_name":"United Kingdom","cuisine_type":"Modern British","michelin_award":"ONE_STAR","name":"OX","street":"1 Oxford Street"},{"_geoloc":{"lat":54.4636725,"lng":-6.0833047},"city_name":"Hillsborough","country_name":"United Kingdom","cuisine_type":"Modern British","michelin_award":"MICHELIN_PLATE","name":"hara","street":"16 Lisburn Street"},{"_geoloc":{"lat":53.3182429,"lng":-2.315542},"city_name":"Mobberley","country_name":"United Kingdom","cuisine_type":"Traditional cuisine","michelin_award":"MICHELIN_PLATE","name":"Church Inn","street":"Church Lane"},{"_geoloc":{"lat":54.5958628,"lng":-5.9326789},"city_name":"Belfast","country_name":"United Kingdom","cuisine_type":"Seafood","michelin_award":"MICHELIN_PLATE","name":"Deanes Love Fish","street":"28-40 Howard Street"},{"_geoloc":{"lat":54.96919,"lng":-1.6080246},"city_name":"Newcastle upon Tyne","country_name":"United Kingdom","cuisine_type":"Modern British","michelin_award":"BIB_GOURMAND","name":"Violets","street":"5-7 Side"},{"_geoloc":{"lat":50.71405,"lng":-1.98803},"city_name":"Poole","country_name":"United Kingdom","cuisine_type":"Seafood","michelin_award":"MICHELIN_PLATE","name":"Guildhall Tavern","street":"15 Market Street"},{"_geoloc":{"lat":51.4327357,"lng":-3.168757},"city_name":"Penarth","country_name":"United Kingdom","cuisine_type":"Modern cuisine","michelin_award":"ONE_STAR","name":"James Sommerin","street":"The Esplanade"},{"_geoloc":{"lat":51.5075004,"lng":-0.1411656},"city_name":"Westminster","country_name":"United Kingdom","cuisine_type":"European","michelin_award":"MICHELIN_PLATE","name":"The Wolseley","street":"160 Piccadilly"},{"_geoloc":{"lat":55.8750206,"lng":-4.2935561},"city_name":"Glasgow","country_name":"United Kingdom","cuisine_type":"Scottish","michelin_award":"MICHELIN_PLATE","name":"Ubiquitous Chip (Restaurant)","street":"12 Ashton Lane"},{"_geoloc":{"lat":51.5083548,"lng":-0.6980249},"city_name":"Bray","country_name":"United Kingdom","cuisine_type":"Italian","michelin_award":"MICHELIN_PLATE","name":"Caldesi in Campagna","street":"Old Mill Lane"},{"_geoloc":{"lat":51.453865,"lng":-1.2062444},"city_name":"Frilsham","country_name":"United Kingdom","cuisine_type":"Traditional British","michelin_award":"MICHELIN_PLATE","name":"Pot Kiln","street":""},{"_geoloc":{"lat":55.9550923,"lng":-3.1826149},"city_name":"Edinburgh","country_name":"United Kingdom","cuisine_type":"Modern British","michelin_award":"MICHELIN_PLATE","name":"The Lookout by Gardener's Cottage","street":"Calton Hill,"},{"_geoloc":{"lat":51.5796793,"lng":0.0241668},"city_name":"Wanstead","country_name":"United Kingdom","cuisine_type":"French","michelin_award":"BIB_GOURMAND","name":"Provender","street":"17 High Street"},{"_geoloc":{"lat":53.33356,"lng":-1.73986},"city_name":"Bradwell","country_name":"United Kingdom","cuisine_type":"Modern British","michelin_award":"MICHELIN_PLATE","name":"Samuel Fox Country Inn","street":"Stretfield Road"},{"_geoloc":{"lat":51.52226,"lng":-0.15119},"city_name":"Marylebone","country_name":"United Kingdom","cuisine_type":"Modern cuisine","michelin_award":"MICHELIN_PLATE","name":"Orrery","street":"55 Marylebone High Street"},{"_geoloc":{"lat":51.51091,"lng":-0.1240527},"city_name":"Covent Garden","country_name":"United Kingdom","cuisine_type":"Modern cuisine","michelin_award":"MICHELIN_PLATE","name":"Frenchie","street":"16 Henrietta Street"},{"_geoloc":{"lat":51.6531536,"lng":-2.2319202},"city_name":"Tetbury","country_name":"United Kingdom","cuisine_type":"Traditional cuisine","michelin_award":"MICHELIN_PLATE","name":"Gumstool Inn","street":"Calcot"},{"_geoloc":{"lat":51.5179889,"lng":-0.1438059},"city_name":"Marylebone","country_name":"United Kingdom","cuisine_type":"French","michelin_award":"MICHELIN_PLATE","name":"Roux at The Landau","street":"1c Portland Place, Regent Street"},{"_geoloc":{"lat":54.7891986,"lng":-1.5895166},"city_name":"Durham","country_name":"United Kingdom","cuisine_type":"Modern British","michelin_award":"MICHELIN_PLATE","name":"Finbarr's","street":"Aykley Heads House, Aykley Heads"},{"_geoloc":{"lat":50.08348,"lng":-5.5393},"city_name":"Mousehole","country_name":"United Kingdom","cuisine_type":"Seafood","michelin_award":"MICHELIN_PLATE","name":"2 Fore Street","street":"2 Fore Street"},{"_geoloc":{"lat":51.0255773,"lng":-2.7583748},"city_name":"Long Sutton","country_name":"United Kingdom","cuisine_type":"Regional cuisine","michelin_award":"MICHELIN_PLATE","name":"Devonshire Arms","street":""},{"_geoloc":{"lat":53.7567157,"lng":-1.6616402},"city_name":"Drighlington","country_name":"United Kingdom","cuisine_type":"Indian vegetarian","michelin_award":"BIB_GOURMAND","name":"Prashad","street":"137 Whitehall Road"},{"_geoloc":{"lat":51.61842,"lng":-3.98468},"city_name":"Abertawe/Swansea","country_name":"United Kingdom","cuisine_type":"Modern British","michelin_award":"MICHELIN_PLATE","name":"Slice","street":"73-75 Eversley Rd, Sketty"},{"_geoloc":{"lat":53.8320925,"lng":-2.3887838},"city_name":"Wiswell","country_name":"United Kingdom","cuisine_type":"Modern British","michelin_award":"MICHELIN_PLATE","name":"Freemasons","street":"8 Vicarage Fold"},{"_geoloc":{"lat":51.08266,"lng":-1.3696},"city_name":"Sparsholt","country_name":"United Kingdom","cuisine_type":"Modern British","michelin_award":"MICHELIN_PLATE","name":"Avenue","street":"Woodman Lane"},{"_geoloc":{"lat":51.46696,"lng":-1.20628},"city_name":"Yattendon","country_name":"United Kingdom","cuisine_type":"Traditional British","michelin_award":"MICHELIN_PLATE","name":"Royal Oak","street":"The Square"},{"_geoloc":{"lat":51.5248519,"lng":-0.7916121},"city_name":"Burchett's Green","country_name":"United Kingdom","cuisine_type":"Regional cuisine","michelin_award":"ONE_STAR","name":"Crown","street":""},{"_geoloc":{"lat":50.64777,"lng":-4.09084},"city_name":"Lydford","country_name":"United Kingdom","cuisine_type":"Modern British","michelin_award":"MICHELIN_PLATE","name":"Dartmoor Inn","street":"Moorside"},{"_geoloc":{"lat":51.8924049,"lng":-2.0802084},"city_name":"Cheltenham","country_name":"United Kingdom","cuisine_type":"Modern British","michelin_award":"MICHELIN_PLATE","name":"Daffodil","street":"18-20 Suffolk Parade"},{"_geoloc":{"lat":51.5079319,"lng":-0.1383081},"city_name":"Saint James's","country_name":"United Kingdom","cuisine_type":"Traditional British","michelin_award":"MICHELIN_PLATE","name":"45 Jermyn St","street":"45 Jermyn Street"},{"_geoloc":{"lat":51.58104,"lng":-0.12228},"city_name":"Crouch End","country_name":"United Kingdom","cuisine_type":"French","michelin_award":"MICHELIN_PLATE","name":"Bistro Aix","street":"54 Topsfield Parade, Tottenham Lane"},{"_geoloc":{"lat":51.2946,"lng":-1.4861585},"city_name":"Upton","country_name":"United Kingdom","cuisine_type":"Modern British","michelin_award":"BIB_GOURMAND","name":"Crown Inn","street":""},{"_geoloc":{"lat":50.9502139,"lng":-2.5174638},"city_name":"Sherborne","country_name":"United Kingdom","cuisine_type":"Modern cuisine","michelin_award":"BIB_GOURMAND","name":"The Green","street":"3 The Green"},{"_geoloc":{"lat":52.94187,"lng":-1.4768099},"city_name":"Darley Abbey","country_name":"United Kingdom","cuisine_type":"Modern cuisine","michelin_award":"MICHELIN_PLATE","name":"Darleys","street":"Darley Abbey Mill"},{"_geoloc":{"lat":38.903503,"lng":-77.0218},"city_name":"Washington, D.C.","country_name":"United States","cuisine_type":"Contemporary","michelin_award":"ONE_STAR","name":"Métier","street":"1015 7th St. NW"},{"_geoloc":{"lat":38.930496,"lng":-77.03789},"city_name":"Washington, D.C.","country_name":"United States","cuisine_type":"Spanish","michelin_award":"BIB_GOURMAND","name":"Mola","street":"3155 Mt. Pleasant St. NW"},{"_geoloc":{"lat":38.9097,"lng":-77.03795},"city_name":"Washington, D.C.","country_name":"United States","cuisine_type":"Peruvian","michelin_award":"MICHELIN_PLATE","name":"Nazca Mochica","street":"1633 P St. NW"},{"_geoloc":{"lat":38.9010868,"lng":-77.0228205},"city_name":"Washington, D.C.","country_name":"United States","cuisine_type":"Mexican","michelin_award":"MICHELIN_PLATE","name":"Poca Madre","street":"777 I St. NW"},{"_geoloc":{"lat":38.911613,"lng":-77.03212},"city_name":"Washington, D.C.","country_name":"United States","cuisine_type":"Italian","michelin_award":"MICHELIN_PLATE","name":"Ghibellina","street":"1610 14th St. NW"},{"_geoloc":{"lat":38.9008,"lng":-77.02684},"city_name":"Washington, D.C.","country_name":"United States","cuisine_type":"Asian","michelin_award":"MICHELIN_PLATE","name":"Momofuku CCDC","street":"1090 I St. NW"},{"_geoloc":{"lat":38.8954,"lng":-77.02198},"city_name":"Washington, D.C.","country_name":"United States","cuisine_type":"Peruvian","michelin_award":"BIB_GOURMAND","name":"China Chilcano","street":"418 7th St. NW"},{"_geoloc":{"lat":38.899956,"lng":-77.02481},"city_name":"Washington, D.C.","country_name":"United States","cuisine_type":"French","michelin_award":"MICHELIN_PLATE","name":"DBGB Kitchen and Bar","street":"931 H St. NW"},{"_geoloc":{"lat":38.900295,"lng":-76.98733},"city_name":"Washington, D.C.","country_name":"United States","cuisine_type":"European","michelin_award":"MICHELIN_PLATE","name":"Stable DC","street":"1324 H St."},{"_geoloc":{"lat":38.932957,"lng":-77.032845},"city_name":"Washington, D.C.","country_name":"United States","cuisine_type":"Lao","michelin_award":"BIB_GOURMAND","name":"Thip Khao","street":"3462 14th St. NW"},{"_geoloc":{"lat":38.909992,"lng":-77.03834},"city_name":"Washington, D.C.","country_name":"United States","cuisine_type":"Japanese","michelin_award":"ONE_STAR","name":"Sushi Taro","street":"1503 17th St. NW"},{"_geoloc":{"lat":38.9024894,"lng":-77.0279303},"city_name":"Washington, D.C.","country_name":"United States","cuisine_type":"American","michelin_award":"BIB_GOURMAND","name":"American Son","street":"1201 K St. NW"},{"_geoloc":{"lat":38.89466,"lng":-77.02701},"city_name":"Washington, D.C.","country_name":"United States","cuisine_type":"Japanese","michelin_award":"ONE_STAR","name":"Sushi Nakazawa","street":"1100 Pennsylvania Ave. NW"},{"_geoloc":{"lat":38.900322,"lng":-76.997},"city_name":"Washington, D.C.","country_name":"United States","cuisine_type":"Vegan","michelin_award":"BIB_GOURMAND","name":"Fancy Radish","street":"600 H St. NE"},{"_geoloc":{"lat":38.898426,"lng":-77.01982},"city_name":"Washington, D.C.","country_name":"United States","cuisine_type":"Japanese","michelin_award":"MICHELIN_PLATE","name":"Daikaya","street":"705 6th St. NW"},{"_geoloc":{"lat":38.90355,"lng":-77.05231},"city_name":"Washington, D.C.","country_name":"United States","cuisine_type":"French","michelin_award":"MICHELIN_PLATE","name":"Marcel's","street":"2401 Pennsylvania Ave. NW"},{"_geoloc":{"lat":38.908822,"lng":-76.997972},"city_name":"Washington, D.C.","country_name":"United States","cuisine_type":"Seafood","michelin_award":"MICHELIN_PLATE","name":"Rappahannock Oyster Bar","street":"1309 5th St. NE"},{"_geoloc":{"lat":38.90346,"lng":-77.06323},"city_name":"Washington, D.C.","country_name":"United States","cuisine_type":"Contemporary","michelin_award":"MICHELIN_PLATE","name":"Reverie","street":"3201 Cherry Hill Ln. NW"},{"_geoloc":{"lat":38.89489,"lng":-77.02183},"city_name":"Washington, D.C.","country_name":"United States","cuisine_type":"Mexican","michelin_award":"BIB_GOURMAND","name":"Oyamel","street":"401 7th St. NW"},{"_geoloc":{"lat":38.9062921,"lng":-77.0245936},"city_name":"Washington, D.C.","country_name":"United States","cuisine_type":"American","michelin_award":"ONE_STAR","name":"The Dabney","street":"122 Blagden Alley NW"},{"_geoloc":{"lat":38.90871,"lng":-76.99799},"city_name":"Washington, D.C.","country_name":"United States","cuisine_type":"American","michelin_award":"BIB_GOURMAND","name":"Bidwell","street":"1309 5th St. NE"},{"_geoloc":{"lat":38.936085,"lng":-77.05899},"city_name":"Washington, D.C.","country_name":"United States","cuisine_type":"Indian","michelin_award":"MICHELIN_PLATE","name":"Indique","street":"3512-14 Connecticut Ave. NW"},{"_geoloc":{"lat":38.89747,"lng":-77.02477},"city_name":"Washington, D.C.","country_name":"United States","cuisine_type":"Southern","michelin_award":"BIB_GOURMAND","name":"Succotash","street":"915 F St. NW"},{"_geoloc":{"lat":38.8956807,"lng":-77.0268801},"city_name":"Washington, D.C.","country_name":"United States","cuisine_type":"Indian","michelin_award":"MICHELIN_PLATE","name":"Punjab Grill","street":"427 11th St. NW"},{"_geoloc":{"lat":38.91101,"lng":-77.03817},"city_name":"Washington, D.C.","country_name":"United States","cuisine_type":"Seafood","michelin_award":"MICHELIN_PLATE","name":"Hank’s Oyster Bar","street":"1624 Q St. NW"},{"_geoloc":{"lat":38.8970751,"lng":-77.0234268},"city_name":"Washington, D.C.","country_name":"United States","cuisine_type":"Mediterranean","michelin_award":"MICHELIN_PLATE","name":"Olivia","street":"800 F St. NW"},{"_geoloc":{"lat":38.9231572,"lng":-77.0430201},"city_name":"Washington, D.C.","country_name":"United States","cuisine_type":"Contemporary","michelin_award":"ONE_STAR","name":"Tail Up Goat","street":"1827 Adams Mill Rd. NW"},{"_geoloc":{"lat":38.900124,"lng":-76.986694},"city_name":"Washington, D.C.","country_name":"United States","cuisine_type":"Asian","michelin_award":"BIB_GOURMAND","name":"Maketto","street":"1351 H St. NE"},{"_geoloc":{"lat":38.90241,"lng":-77.002235},"city_name":"Washington, D.C.","country_name":"United States","cuisine_type":"Indian","michelin_award":"MICHELIN_PLATE","name":"Indigo","street":"243 K St. NE"},{"_geoloc":{"lat":38.7134767,"lng":-78.1595348},"city_name":"Washington, D.C.","country_name":"United States","cuisine_type":"American","michelin_award":"THREE_STARS","name":"The Inn at Little Washington","street":"309 Middle St."},{"_geoloc":{"lat":38.87931,"lng":-77.02497},"city_name":"Washington, D.C.","country_name":"United States","cuisine_type":"Contemporary","michelin_award":"MICHELIN_PLATE","name":"Kith/Kin","street":"801 Wharf St. SW"},{"_geoloc":{"lat":38.909926,"lng":-76.99645},"city_name":"Washington, D.C.","country_name":"United States","cuisine_type":"Hawaiian","michelin_award":"MICHELIN_PLATE","name":"Coconut Club","street":"540 Penn St. NE"},{"_geoloc":{"lat":38.9104712,"lng":-77.0433532},"city_name":"Washington, D.C.","country_name":"United States","cuisine_type":"French","michelin_award":"MICHELIN_PLATE","name":"The Pembroke","street":"1500 New Hampshire Ave. NW"},{"_geoloc":{"lat":38.9374907,"lng":-77.0328526},"city_name":"Washington, D.C.","country_name":"United States","cuisine_type":"Mexican","michelin_award":"BIB_GOURMAND","name":"Taqueria Habanero","street":"3710 14th St. NW"},{"_geoloc":{"lat":38.874672,"lng":-77.000694},"city_name":"Washington, D.C.","country_name":"United States","cuisine_type":"International","michelin_award":"BIB_GOURMAND","name":"Chloe","street":"1331 4th St. SE"},{"_geoloc":{"lat":38.89283,"lng":-77.01991},"city_name":"Washington, D.C.","country_name":"United States","cuisine_type":"Italian","michelin_award":"ONE_STAR","name":"Fiola","street":"601 Pennsylvania Ave. NW"},{"_geoloc":{"lat":38.900967,"lng":-77.0206},"city_name":"Washington, D.C.","country_name":"United States","cuisine_type":"Indian","michelin_award":"MICHELIN_PLATE","name":"Karma Modern Indian","street":"611 I St. NW"},{"_geoloc":{"lat":38.916874,"lng":-77.04129},"city_name":"Washington, D.C.","country_name":"United States","cuisine_type":"Ethiopian","michelin_award":"MICHELIN_PLATE","name":"Keren","street":"1780 Florida Ave. NW"},{"_geoloc":{"lat":38.916805,"lng":-77.03202},"city_name":"Washington, D.C.","country_name":"United States","cuisine_type":"Latin American","michelin_award":"MICHELIN_PLATE","name":"Tico","street":"1926 14th St. NW"},{"_geoloc":{"lat":38.90126,"lng":-77.038155},"city_name":"Washington, D.C.","country_name":"United States","cuisine_type":"Indian","michelin_award":"MICHELIN_PLATE","name":"Bombay Club","street":"815 Connecticut Ave. NW"},{"_geoloc":{"lat":38.91176,"lng":-77.03204},"city_name":"Washington, D.C.","country_name":"United States","cuisine_type":"Southern","michelin_award":"BIB_GOURMAND","name":"Pearl Dive Oyster Palace","street":"1612 14th St. NW"},{"_geoloc":{"lat":38.880707,"lng":-76.99514},"city_name":"Washington, D.C.","country_name":"United States","cuisine_type":"Contemporary","michelin_award":"TWO_STARS","name":"Pineapple and Pearls","street":"715 8th St. SE"},{"_geoloc":{"lat":38.91343,"lng":-77.01535},"city_name":"Washington, D.C.","country_name":"United States","cuisine_type":"Basque","michelin_award":"MICHELIN_PLATE","name":"Anxo","street":"300 Florida Ave. NW"},{"_geoloc":{"lat":38.9079122,"lng":-77.0000413},"city_name":"Washington, D.C.","country_name":"United States","cuisine_type":"Pizza","michelin_award":"BIB_GOURMAND","name":"Stellina Pizzeria","street":"399 Morse St. NE"},{"_geoloc":{"lat":38.906124,"lng":-77.02381},"city_name":"Washington, D.C.","country_name":"United States","cuisine_type":"American","michelin_award":"BIB_GOURMAND","name":"Unconventional Diner","street":"1207 9th St."},{"_geoloc":{"lat":38.8833557,"lng":-76.9936368},"city_name":"Washington, D.C.","country_name":"United States","cuisine_type":"Contemporary","michelin_award":"ONE_STAR","name":"Little Pearl","street":"921 Pennsylvania Ave. SE"},{"_geoloc":{"lat":38.921295,"lng":-77.043915},"city_name":"Washington, D.C.","country_name":"United States","cuisine_type":"Afghan","michelin_award":"BIB_GOURMAND","name":"Lapis","street":"1847 Columbia Rd. NW"},{"_geoloc":{"lat":38.89605,"lng":-77.02215},"city_name":"Washington, D.C.","country_name":"United States","cuisine_type":"Spanish","michelin_award":"BIB_GOURMAND","name":"Jaleo","street":"480 7th St. NW"},{"_geoloc":{"lat":38.9082104,"lng":-77.0241406},"city_name":"Washington, D.C.","country_name":"United States","cuisine_type":"Ethiopian","michelin_award":"BIB_GOURMAND","name":"Chercher","street":"1334 9th St. NW"},{"_geoloc":{"lat":38.9144387,"lng":-76.98566},"city_name":"Washington, D.C.","country_name":"United States","cuisine_type":"Seafood","michelin_award":"BIB_GOURMAND","name":"Ivy City Smokehouse","street":"1356 Okie St. NE"},{"_geoloc":{"lat":38.9548688,"lng":-77.0698721},"city_name":"Washington, D.C.","country_name":"United States","cuisine_type":"Italian","michelin_award":"MICHELIN_PLATE","name":"I'm Eddie Cano","street":"5014 Connecticut Ave. NW"},{"_geoloc":{"lat":38.9026341,"lng":-77.0021729},"city_name":"Washington, D.C.","country_name":"United States","cuisine_type":"South East Asian","michelin_award":"BIB_GOURMAND","name":"Laos in Town","street":"250 K St. NE"},{"_geoloc":{"lat":38.905346,"lng":-77.056946},"city_name":"Washington, D.C.","country_name":"United States","cuisine_type":"Ethiopian","michelin_award":"BIB_GOURMAND","name":"Das","street":"1201 28th St. NW"},{"_geoloc":{"lat":38.9277625,"lng":-76.9907965},"city_name":"Washington, D.C.","country_name":"United States","cuisine_type":"French","michelin_award":"BIB_GOURMAND","name":"Primrose","street":"3000 12th St. NE"},{"_geoloc":{"lat":38.94649,"lng":-77.06486},"city_name":"Washington, D.C.","country_name":"United States","cuisine_type":"Italian","michelin_award":"BIB_GOURMAND","name":"Sfoglina","street":"4445 Connecticut Ave. NW"},{"_geoloc":{"lat":38.922916,"lng":-77.0417},"city_name":"Washington, D.C.","country_name":"United States","cuisine_type":"American","michelin_award":"MICHELIN_PLATE","name":"A Rake's Progress","street":"1770 Euclid St. NW"},{"_geoloc":{"lat":38.907154,"lng":-77.039856},"city_name":"Washington, D.C.","country_name":"United States","cuisine_type":"Mediterranean","michelin_award":"MICHELIN_PLATE","name":"Iron Gate","street":"1734 N St. NW"},{"_geoloc":{"lat":38.9177495,"lng":-77.0233931},"city_name":"Washington, D.C.","country_name":"United States","cuisine_type":"Mediterranean","michelin_award":"BIB_GOURMAND","name":"Hazel","street":"808 V St. NW"},{"_geoloc":{"lat":38.941883,"lng":-77.02463},"city_name":"Washington, D.C.","country_name":"United States","cuisine_type":"Asian","michelin_award":"MICHELIN_PLATE","name":"Himitsu","street":"828 Upshur St. NW"},{"_geoloc":{"lat":38.908691,"lng":-77.0231087},"city_name":"Washington, D.C.","country_name":"United States","cuisine_type":"French","michelin_award":"MICHELIN_PLATE","name":"Convivial","street":"801 O St. NW"},{"_geoloc":{"lat":38.906,"lng":-77.07034},"city_name":"Washington, D.C.","country_name":"United States","cuisine_type":"American","michelin_award":"MICHELIN_PLATE","name":"1789","street":"1226 36th St. NW"},{"_geoloc":{"lat":38.900124,"lng":-77.00047},"city_name":"Washington, D.C.","country_name":"United States","cuisine_type":"Ethiopian","michelin_award":"MICHELIN_PLATE","name":"Ethiopic","street":"401 H St. NE"},{"_geoloc":{"lat":38.90723,"lng":-77.0249088},"city_name":"Washington, D.C.","country_name":"United States","cuisine_type":"Chinese","michelin_award":"BIB_GOURMAND","name":"Tiger Fork","street":"922 N St. NW"},{"_geoloc":{"lat":38.917763,"lng":-77.096695},"city_name":"Washington, D.C.","country_name":"United States","cuisine_type":"Seafood","michelin_award":"MICHELIN_PLATE","name":"BlackSalt","street":"4883 MacArthur Blvd."},{"_geoloc":{"lat":38.9113707,"lng":-77.0220158},"city_name":"Washington, D.C.","country_name":"United States","cuisine_type":"Lao","michelin_award":"BIB_GOURMAND","name":"Hanumanh","street":"1604 7th St. NW"},{"_geoloc":{"lat":38.9058775,"lng":-77.0367714},"city_name":"Washington, D.C.","country_name":"United States","cuisine_type":"European","michelin_award":"ONE_STAR","name":"Plume","street":"1200 16th St. NW"},{"_geoloc":{"lat":38.9250921,"lng":-77.0389877},"city_name":"Washington, D.C.","country_name":"United States","cuisine_type":"Barbecue","michelin_award":"BIB_GOURMAND","name":"Federalist Pig","street":"1654 Columbia Rd. NW"},{"_geoloc":{"lat":38.92211,"lng":-77.04343},"city_name":"Washington, D.C.","country_name":"United States","cuisine_type":"American","michelin_award":"MICHELIN_PLATE","name":"Mintwood Place","street":"1813 Columbia Rd. NW"},{"_geoloc":{"lat":38.910107,"lng":-77.03836},"city_name":"Washington, D.C.","country_name":"United States","cuisine_type":"Mediterranean","michelin_award":"ONE_STAR","name":"Komi","street":"1509 17th St. NW"},{"_geoloc":{"lat":38.909504,"lng":-76.99908},"city_name":"Washington, D.C.","country_name":"United States","cuisine_type":"Italian","michelin_award":"ONE_STAR","name":"Masseria","street":"1340 4th St. NE"},{"_geoloc":{"lat":38.900333,"lng":-77.02553},"city_name":"Washington, D.C.","country_name":"United States","cuisine_type":"Italian","michelin_award":"MICHELIN_PLATE","name":"Centrolina","street":"974 Palmer Alley NW"},{"_geoloc":{"lat":38.92013,"lng":-77.03105},"city_name":"Washington, D.C.","country_name":"United States","cuisine_type":"Middle Eastern","michelin_award":"ONE_STAR","name":"Maydān","street":"1346 Florida Ave. NW"},{"_geoloc":{"lat":38.87896,"lng":-77.02477},"city_name":"Washington, D.C.","country_name":"United States","cuisine_type":"Spanish","michelin_award":"MICHELIN_PLATE","name":"Del Mar","street":"791 Wharf St. SW"},{"_geoloc":{"lat":38.905334,"lng":-77.06293},"city_name":"Washington, D.C.","country_name":"United States","cuisine_type":"Belgian","michelin_award":"MICHELIN_PLATE","name":"The Sovereign","street":"1206 Wisconsin Ave. NW"},{"_geoloc":{"lat":38.9303,"lng":-77.02802},"city_name":"Washington, D.C.","country_name":"United States","cuisine_type":"Filipino","michelin_award":"MICHELIN_PLATE","name":"Bad Saint","street":"3226 11th St. NW"},{"_geoloc":{"lat":38.9214669,"lng":-77.0321599},"city_name":"Washington, D.C.","country_name":"United States","cuisine_type":"Contemporary","michelin_award":"MICHELIN_PLATE","name":"Rooster \u0026 Owl","street":"2436 14th St. NW"},{"_geoloc":{"lat":38.914955,"lng":-77.018555},"city_name":"Washington, D.C.","country_name":"United States","cuisine_type":"Latin American","michelin_award":"BIB_GOURMAND","name":"Royal","street":"501 Florida Ave. NW"},{"_geoloc":{"lat":38.873714,"lng":-77.000725},"city_name":"Washington, D.C.","country_name":"United States","cuisine_type":"Contemporary","michelin_award":"MICHELIN_PLATE","name":"Ana","street":"385 Water St. SE"},{"_geoloc":{"lat":38.9156341,"lng":-77.0320239},"city_name":"Washington, D.C.","country_name":"United States","cuisine_type":"Italian","michelin_award":"MICHELIN_PLATE","name":"Lupo Verde","street":"1401 T St. NW"},{"_geoloc":{"lat":38.94518,"lng":-77.096275},"city_name":"Washington, D.C.","country_name":"United States","cuisine_type":"Seafood","michelin_award":"BIB_GOURMAND","name":"Millie’s","street":"4866 Massachusetts Ave. NW"},{"_geoloc":{"lat":38.878735,"lng":-77.02449},"city_name":"Washington, D.C.","country_name":"United States","cuisine_type":"Asian","michelin_award":"BIB_GOURMAND","name":"Kaliwa","street":"751 Wharf St. SW"},{"_geoloc":{"lat":38.922928,"lng":-77.04168},"city_name":"Washington, D.C.","country_name":"United States","cuisine_type":"Contemporary","michelin_award":"BIB_GOURMAND","name":"Spoken English","street":"1770 Euclid St. NW"},{"_geoloc":{"lat":38.91584,"lng":-77.0321},"city_name":"Washington, D.C.","country_name":"United States","cuisine_type":"Contemporary","michelin_award":"ONE_STAR","name":"Bresca","street":"1906 14th St. NW"},{"_geoloc":{"lat":38.88506,"lng":-76.996544},"city_name":"Washington, D.C.","country_name":"United States","cuisine_type":"Spanish","michelin_award":"BIB_GOURMAND","name":"Joselito Casa de Comidas","street":"660 Pennsylvania Ave. SE"},{"_geoloc":{"lat":38.897263,"lng":-77.027245},"city_name":"Washington, D.C.","country_name":"United States","cuisine_type":"Italian","michelin_award":"MICHELIN_PLATE","name":"Tosca","street":"1112 F St. NW"},{"_geoloc":{"lat":38.9001399,"lng":-77.000327},"city_name":"Washington, D.C.","country_name":"United States","cuisine_type":"Caribbean","michelin_award":"BIB_GOURMAND","name":"Cane","street":"403 H St. NE"},{"_geoloc":{"lat":38.933838,"lng":-77.05726},"city_name":"Washington, D.C.","country_name":"United States","cuisine_type":"Mediterranean","michelin_award":"BIB_GOURMAND","name":"Sababa","street":"3311 Connecticut Ave NW"},{"_geoloc":{"lat":38.910156,"lng":-77.0384},"city_name":"Washington, D.C.","country_name":"United States","cuisine_type":"Thai","michelin_award":"MICHELIN_PLATE","name":"Little Serow","street":"1511 17th St. NW"},{"_geoloc":{"lat":38.93187,"lng":-77.03842},"city_name":"Washington, D.C.","country_name":"United States","cuisine_type":"Contemporary","michelin_award":"MICHELIN_PLATE","name":"Ellē","street":"3221 Mt. Pleasant St. NW"},{"_geoloc":{"lat":38.90696,"lng":-77.02411},"city_name":"Washington, D.C.","country_name":"United States","cuisine_type":"Italian","michelin_award":"MICHELIN_PLATE","name":"All Purpose","street":"1250 9th St. NW"},{"_geoloc":{"lat":38.91423,"lng":-77.03204},"city_name":"Washington, D.C.","country_name":"United States","cuisine_type":"Asian","michelin_award":"MICHELIN_PLATE","name":"Doi Moi","street":"1800 14th St. NW"},{"_geoloc":{"lat":38.9037458,"lng":-77.0474804},"city_name":"Washington, D.C.","country_name":"United States","cuisine_type":"Thai","michelin_award":"MICHELIN_PLATE","name":"Soi 38","street":"2101 L St. NW"},{"_geoloc":{"lat":38.90977,"lng":-77.046486},"city_name":"Washington, D.C.","country_name":"United States","cuisine_type":"Italian","michelin_award":"MICHELIN_PLATE","name":"Obelisk","street":"2029 P St. NW"},{"_geoloc":{"lat":38.905373,"lng":-77.05128},"city_name":"Washington, D.C.","country_name":"United States","cuisine_type":"American","michelin_award":"MICHELIN_PLATE","name":"Blue Duck Tavern","street":"1201 24th St. NW"},{"_geoloc":{"lat":38.8825852,"lng":-77.0307593},"city_name":"Washington, D.C.","country_name":"United States","cuisine_type":"Italian","michelin_award":"MICHELIN_PLATE","name":"Officina","street":"1120 Maine Ave. SW"},{"_geoloc":{"lat":38.8806478,"lng":-76.9950588},"city_name":"Washington, D.C.","country_name":"United States","cuisine_type":"Contemporary","michelin_award":"ONE_STAR","name":"Rose’s Luxury","street":"717 8th St. SE"},{"_geoloc":{"lat":38.9106102,"lng":-77.0386833},"city_name":"Washington, D.C.","country_name":"United States","cuisine_type":"Asian","michelin_award":"BIB_GOURMAND","name":"Astoria DC","street":"1521 17th St. NW"},{"_geoloc":{"lat":38.901666,"lng":-77.0252252},"city_name":"Washington, D.C.","country_name":"United States","cuisine_type":"Contemporary","michelin_award":"MICHELIN_PLATE","name":"Estuary","street":"950 New York Ave. NW"},{"_geoloc":{"lat":38.918182,"lng":-77.02766},"city_name":"Washington, D.C.","country_name":"United States","cuisine_type":"Japanese","michelin_award":"MICHELIN_PLATE","name":"Izakaya Seki","street":"1117 V St. NW"},{"_geoloc":{"lat":38.914898,"lng":-77.01227},"city_name":"Washington, D.C.","country_name":"United States","cuisine_type":"Italian","michelin_award":"BIB_GOURMAND","name":"The Red Hen","street":"1822 1st St. NW"},{"_geoloc":{"lat":38.9213438,"lng":-77.0424732},"city_name":"Washington, D.C.","country_name":"United States","cuisine_type":"Ethiopian","michelin_award":"BIB_GOURMAND","name":"Zenebech","street":"2420 18th St. NW"},{"_geoloc":{"lat":38.9176,"lng":-77.02411},"city_name":"Washington, D.C.","country_name":"United States","cuisine_type":"Thai","michelin_award":"MICHELIN_PLATE","name":"Thai X-ing","street":"2020 9th St. NW"},{"_geoloc":{"lat":38.919553,"lng":-77.0320944},"city_name":"Washington, D.C.","country_name":"United States","cuisine_type":"Latin American","michelin_award":"MICHELIN_PLATE","name":"Seven Reasons","street":"2208 14th St. NW"},{"_geoloc":{"lat":38.894913,"lng":-77.02162},"city_name":"Washington, D.C.","country_name":"United States","cuisine_type":"Indian","michelin_award":"MICHELIN_PLATE","name":"Rasika","street":"633 D St. NW"},{"_geoloc":{"lat":38.896294,"lng":-77.02386},"city_name":"Washington, D.C.","country_name":"United States","cuisine_type":"Contemporary","michelin_award":"TWO_STARS","name":"minibar","street":"855 E St. NW"},{"_geoloc":{"lat":38.8985405,"lng":-77.0238266},"city_name":"Washington, D.C.","country_name":"United States","cuisine_type":"Mediterranean","michelin_award":"BIB_GOURMAND","name":"Zaytinya","street":"701 9th St. NW"},{"_geoloc":{"lat":38.90597,"lng":-77.027},"city_name":"Washington, D.C.","country_name":"United States","cuisine_type":"Eastern European","michelin_award":"BIB_GOURMAND","name":"Supra","street":"1205 11th St. NW"},{"_geoloc":{"lat":38.881943,"lng":-76.995125},"city_name":"Washington, D.C.","country_name":"United States","cuisine_type":"Balkan","michelin_award":"BIB_GOURMAND","name":"Ambar","street":"523 8th St. SE"},{"_geoloc":{"lat":38.907368,"lng":-77.03996},"city_name":"Washington, D.C.","country_name":"United States","cuisine_type":"American","michelin_award":"MICHELIN_PLATE","name":"Tabard Inn","street":"1739 N St. NW"},{"_geoloc":{"lat":38.9146396,"lng":-76.9845997},"city_name":"Washington, D.C.","country_name":"United States","cuisine_type":"Contemporary","michelin_award":"ONE_STAR","name":"Gravitas","street":"1401 Okie St. NE"},{"_geoloc":{"lat":38.892753,"lng":-77.019646},"city_name":"Washington, D.C.","country_name":"United States","cuisine_type":"Fusion","michelin_award":"MICHELIN_PLATE","name":"The Source by Wolfgang Puck","street":"575 Pennsylvania Ave. NW"},{"_geoloc":{"lat":38.90384,"lng":-77.04993},"city_name":"Washington, D.C.","country_name":"United States","cuisine_type":"American","michelin_award":"MICHELIN_PLATE","name":"Ris","street":"2275 L St. NW"},{"_geoloc":{"lat":38.95367,"lng":-77.08198},"city_name":"Washington, D.C.","country_name":"United States","cuisine_type":"French","michelin_award":"MICHELIN_PLATE","name":"Le Chat Noir","street":"4907 Wisconsin Ave. NW"},{"_geoloc":{"lat":38.90023,"lng":-77.03797},"city_name":"Washington, D.C.","country_name":"United States","cuisine_type":"Contemporary","michelin_award":"MICHELIN_PLATE","name":"The Oval Room","street":"800 Connecticut Ave. NW"},{"_geoloc":{"lat":38.91801,"lng":-77.04756},"city_name":"Washington, D.C.","country_name":"United States","cuisine_type":"Japanese","michelin_award":"MICHELIN_PLATE","name":"Sushi Ogawa","street":"2100 Connecticut Ave. NW"},{"_geoloc":{"lat":38.903282,"lng":-77.0218},"city_name":"Washington, D.C.","country_name":"United States","cuisine_type":"Contemporary","michelin_award":"ONE_STAR","name":"Kinship","street":"1015 7th St. NW"},{"_geoloc":{"lat":38.942,"lng":-77.02382},"city_name":"Washington, D.C.","country_name":"United States","cuisine_type":"Pizza","michelin_award":"BIB_GOURMAND","name":"Timber Pizza Co","street":"809 Upshur St. NW"},{"_geoloc":{"lat":38.900337,"lng":-76.98891},"city_name":"Washington, D.C.","country_name":"United States","cuisine_type":"Japanese","michelin_award":"BIB_GOURMAND","name":"Toki Underground","street":"1234 H St. NE"},{"_geoloc":{"lat":38.901665,"lng":-77.01634},"city_name":"Washington, D.C.","country_name":"United States","cuisine_type":"Turkish","michelin_award":"BIB_GOURMAND","name":"Ottoman Taverna","street":"425 I St. NW"},{"_geoloc":{"lat":38.887154,"lng":-77.002625},"city_name":"Washington, D.C.","country_name":"United States","cuisine_type":"Contemporary","michelin_award":"MICHELIN_PLATE","name":"Sonoma","street":"223 Pennsylvania Ave. SE"},{"_geoloc":{"lat":38.8949,"lng":-77.0224},"city_name":"Washington, D.C.","country_name":"United States","cuisine_type":"Gastropub","michelin_award":"MICHELIN_PLATE","name":"The Partisan","street":"709 D St. NW"},{"_geoloc":{"lat":38.9258038,"lng":-77.0256406},"city_name":"Washington, D.C.","country_name":"United States","cuisine_type":"Italian","michelin_award":"BIB_GOURMAND","name":"Napoli Pasta Bar","street":"2737 Sherman Ave. NW"},{"_geoloc":{"lat":38.9025562,"lng":-77.0604014},"city_name":"Washington, D.C.","country_name":"United States","cuisine_type":"Seafood","michelin_award":"MICHELIN_PLATE","name":"Fiola Mare","street":"3050 K St. NW Ste. 101"},{"_geoloc":{"lat":38.9014216,"lng":-77.0366123},"city_name":"Washington, D.C.","country_name":"United States","cuisine_type":"French","michelin_award":"MICHELIN_PLATE","name":"Mirabelle","street":"900 16th St. NW"},{"_geoloc":{"lat":38.9078492,"lng":-77.0240655},"city_name":"Washington, D.C.","country_name":"United States","cuisine_type":"Italian","michelin_award":"MICHELIN_PLATE","name":"San Lorenzo","street":"1316 9th St. NW"},{"_geoloc":{"lat":41.8590796,"lng":-87.6252463},"city_name":"Chicago","country_name":"United States","cuisine_type":"Contemporary","michelin_award":"TWO_STARS","name":"Acadia","street":"1639 S. Wabash Ave."},{"_geoloc":{"lat":41.8866924,"lng":-87.6518812},"city_name":"Chicago","country_name":"United States","cuisine_type":"Contemporary","michelin_award":"ONE_STAR","name":"Next","street":"953 W. Fulton Market"},{"_geoloc":{"lat":41.8909322,"lng":-87.6611279},"city_name":"Chicago","country_name":"United States","cuisine_type":"Pizza","michelin_award":"MICHELIN_PLATE","name":"Coalfire Pizza","street":"1321 W. Grand Ave."},{"_geoloc":{"lat":41.88423,"lng":-87.64356},"city_name":"Chicago","country_name":"United States","cuisine_type":"Contemporary","michelin_award":"ONE_STAR","name":"Blackbird","street":"619 W. Randolph St."},{"_geoloc":{"lat":41.8866913,"lng":-87.6325989},"city_name":"Chicago","country_name":"United States","cuisine_type":"Steakhouse","michelin_award":"MICHELIN_PLATE","name":"Prime \u0026 Provisions","street":"222 N. LaSalle St."},{"_geoloc":{"lat":41.7996257,"lng":-87.589292},"city_name":"Chicago","country_name":"United States","cuisine_type":"Southern","michelin_award":"BIB_GOURMAND","name":"Virtue","street":"1462 E. 53rd St."},{"_geoloc":{"lat":41.8911348,"lng":-87.6243468},"city_name":"Chicago","country_name":"United States","cuisine_type":"Mediterranean","michelin_award":"BIB_GOURMAND","name":"The Purple Pig","street":"444 N. Michigan Ave."},{"_geoloc":{"lat":41.9135974,"lng":-87.6482441},"city_name":"Chicago","country_name":"United States","cuisine_type":"Contemporary","michelin_award":"ONE_STAR","name":"Boka","street":"1729 N. Halsted St."},{"_geoloc":{"lat":41.9425541,"lng":-87.6638417},"city_name":"Chicago","country_name":"United States","cuisine_type":"Italian","michelin_award":"MICHELIN_PLATE","name":"Coda Di Volpe","street":"3335 N. Southport Ave."},{"_geoloc":{"lat":41.9797561,"lng":-87.6600467},"city_name":"Chicago","country_name":"United States","cuisine_type":"Southern","michelin_award":"MICHELIN_PLATE","name":"Pearl’s Southern Comfort","street":"5352 N. Broadway"},{"_geoloc":{"lat":41.88452,"lng":-87.64758},"city_name":"Chicago","country_name":"United States","cuisine_type":"American","michelin_award":"MICHELIN_PLATE","name":"Au Cheval","street":"800 W. Randolph St."},{"_geoloc":{"lat":41.96364,"lng":-87.68555},"city_name":"Chicago","country_name":"United States","cuisine_type":"French","michelin_award":"MICHELIN_PLATE","name":"Bistro Campagne","street":"4518 N. Lincoln Ave."},{"_geoloc":{"lat":41.884617,"lng":-87.647322},"city_name":"Chicago","country_name":"United States","cuisine_type":"Mexican","michelin_award":"BIB_GOURMAND","name":"La Josie","street":"740 W. Randolph St."},{"_geoloc":{"lat":41.9132737,"lng":-87.648174},"city_name":"Chicago","country_name":"United States","cuisine_type":"Contemporary","michelin_award":"THREE_STARS","name":"Alinea","street":"1723 N. Halsted St."},{"_geoloc":{"lat":41.7994877,"lng":-87.5872301},"city_name":"Chicago","country_name":"United States","cuisine_type":"American","michelin_award":"MICHELIN_PLATE","name":"The Promontory","street":"5311 S. Lake Park Ave."},{"_geoloc":{"lat":41.94483,"lng":-87.70638},"city_name":"Chicago","country_name":"United States","cuisine_type":"Fusion","michelin_award":"ONE_STAR","name":"Parachute","street":"3500 N. Elston Ave."},{"_geoloc":{"lat":41.9771388,"lng":-87.6891654},"city_name":"Chicago","country_name":"United States","cuisine_type":"Korean","michelin_award":"BIB_GOURMAND","name":"San Soo Gab San","street":"5247 N. Western Ave."},{"_geoloc":{"lat":41.881794,"lng":-87.653076},"city_name":"Chicago","country_name":"United States","cuisine_type":"Italian","michelin_award":"MICHELIN_PLATE","name":"Monteverde","street":"1020 W. Madison St."},{"_geoloc":{"lat":41.9272907,"lng":-87.7042155},"city_name":"Chicago","country_name":"United States","cuisine_type":"Italian","michelin_award":"BIB_GOURMAND","name":"Daisies","street":"2523 N. Milwaukee Ave."},{"_geoloc":{"lat":41.89525,"lng":-87.63439},"city_name":"Chicago","country_name":"United States","cuisine_type":"Italian","michelin_award":"MICHELIN_PLATE","name":"Prosecco","street":"710 N. Wells St."},{"_geoloc":{"lat":41.85196,"lng":-87.63203},"city_name":"Chicago","country_name":"United States","cuisine_type":"Chinese","michelin_award":"BIB_GOURMAND","name":"Daguan Noodle","street":"2230 S. Wentworth Ave."},{"_geoloc":{"lat":41.88966,"lng":-87.62665},"city_name":"Chicago","country_name":"United States","cuisine_type":"American","michelin_award":"MICHELIN_PLATE","name":"Beacon Tavern","street":"405 N. Wabash Ave."},{"_geoloc":{"lat":41.9211292,"lng":-87.677855},"city_name":"Chicago","country_name":"United States","cuisine_type":"American","michelin_award":"MICHELIN_PLATE","name":"The Bristol","street":"2152 N. Damen Ave."},{"_geoloc":{"lat":41.85419,"lng":-87.63209},"city_name":"Chicago","country_name":"United States","cuisine_type":"Chinese","michelin_award":"MICHELIN_PLATE","name":"Cai","street":"2100 S. Archer Ave."},{"_geoloc":{"lat":41.8577711,"lng":-87.6710332},"city_name":"Chicago","country_name":"United States","cuisine_type":"Mexican","michelin_award":"MICHELIN_PLATE","name":"5 Rabanitos","street":"1758 W. 18th St."},{"_geoloc":{"lat":41.886196,"lng":-87.64513},"city_name":"Chicago","country_name":"United States","cuisine_type":"Contemporary","michelin_award":"TWO_STARS","name":"Oriole","street":"661 W. Walnut St."},{"_geoloc":{"lat":41.8832751,"lng":-87.6446106},"city_name":"Chicago","country_name":"United States","cuisine_type":"Japanese","michelin_award":"ONE_STAR","name":"Omakase Yume","street":"651 W. Washington Blvd."},{"_geoloc":{"lat":41.7950081,"lng":-87.5982341},"city_name":"Chicago","country_name":"United States","cuisine_type":"Italian","michelin_award":"BIB_GOURMAND","name":"Nella Pizza e Pasta","street":"1125 E. 55th St."},{"_geoloc":{"lat":41.884453,"lng":-87.64234},"city_name":"Chicago","country_name":"United States","cuisine_type":"Contemporary","michelin_award":"MICHELIN_PLATE","name":"Bellemore","street":"564 W. Randolph St."},{"_geoloc":{"lat":41.95452,"lng":-87.68876},"city_name":"Chicago","country_name":"United States","cuisine_type":"Thai","michelin_award":"MICHELIN_PLATE","name":"Sticky Rice","street":"4018 N. Western Ave."},{"_geoloc":{"lat":41.9764152,"lng":-87.6682014},"city_name":"Chicago","country_name":"United States","cuisine_type":"Korean","michelin_award":"MICHELIN_PLATE","name":"Jin Ju","street":"5203 N. Clark St."},{"_geoloc":{"lat":41.87053,"lng":-87.62858},"city_name":"Chicago","country_name":"United States","cuisine_type":"Indian","michelin_award":"MICHELIN_PLATE","name":"Chicago Curry House","street":"899 S. Plymouth Ct."},{"_geoloc":{"lat":41.9693,"lng":-87.65935},"city_name":"Chicago","country_name":"United States","cuisine_type":"Ethiopian","michelin_award":"MICHELIN_PLATE","name":"Demera","street":"4801 N. Broadway"},{"_geoloc":{"lat":41.939598,"lng":-87.66378},"city_name":"Chicago","country_name":"United States","cuisine_type":"Contemporary","michelin_award":"MICHELIN_PLATE","name":"Tied House","street":"3157 N. Southport Ave."},{"_geoloc":{"lat":41.8999047,"lng":-87.6276278},"city_name":"Chicago","country_name":"United States","cuisine_type":"French","michelin_award":"MICHELIN_PLATE","name":"Margeaux Brasserie","street":"11 E. Walton St."},{"_geoloc":{"lat":41.9878477,"lng":-87.6604097},"city_name":"Chicago","country_name":"United States","cuisine_type":"Indian","michelin_award":"BIB_GOURMAND","name":"Mango Pickle","street":"5842 N. Broadway"},{"_geoloc":{"lat":41.91078,"lng":-87.67825},"city_name":"Chicago","country_name":"United States","cuisine_type":"American","michelin_award":"MICHELIN_PLATE","name":"Café Robey","street":"1616 N. Milwaukee Ave."},{"_geoloc":{"lat":41.8857192,"lng":-87.648583},"city_name":"Chicago","country_name":"United States","cuisine_type":"Japanese","michelin_award":"MICHELIN_PLATE","name":"Momotaro","street":"820 W. Lake St."},{"_geoloc":{"lat":41.917324,"lng":-87.70744},"city_name":"Chicago","country_name":"United States","cuisine_type":"American","michelin_award":"BIB_GOURMAND","name":"Giant","street":"3209 W. Armitage Ave."},{"_geoloc":{"lat":41.90064,"lng":-87.62451},"city_name":"Chicago","country_name":"United States","cuisine_type":"Italian","michelin_award":"MICHELIN_PLATE","name":"Cafe Spiaggia","street":"980 N. Michigan Ave."},{"_geoloc":{"lat":41.8814431,"lng":-87.6244906},"city_name":"Chicago","country_name":"United States","cuisine_type":"Italian","michelin_award":"MICHELIN_PLATE","name":"Acanto","street":"18 S. Michigan Ave."},{"_geoloc":{"lat":41.8533147,"lng":-87.634274},"city_name":"Chicago","country_name":"United States","cuisine_type":"Chinese","michelin_award":"MICHELIN_PLATE","name":"MingHin","street":"2168 S. Archer Ave."},{"_geoloc":{"lat":41.9287989,"lng":-87.6623106},"city_name":"Chicago","country_name":"United States","cuisine_type":"Greek","michelin_award":"BIB_GOURMAND","name":"Avlí Taverna","street":"1335 W. Wrightwood Ave."},{"_geoloc":{"lat":41.8688,"lng":-87.62607},"city_name":"Chicago","country_name":"United States","cuisine_type":"Deli","michelin_award":"MICHELIN_PLATE","name":"Eleven City Diner","street":"1112 S. Wabash Ave."},{"_geoloc":{"lat":41.8907627,"lng":-87.6309819},"city_name":"Chicago","country_name":"United States","cuisine_type":"Mediterranean","michelin_award":"MICHELIN_PLATE","name":"Ēma","street":"74 W. Illinois St."},{"_geoloc":{"lat":41.9732163,"lng":-87.6572974},"city_name":"Chicago","country_name":"United States","cuisine_type":"Vietnamese","michelin_award":"MICHELIN_PLATE","name":"Pho 777","street":"1063-65 W. Argyle St."},{"_geoloc":{"lat":41.9533639,"lng":-87.7286595},"city_name":"Chicago","country_name":"United States","cuisine_type":"Moroccan","michelin_award":"MICHELIN_PLATE","name":"Shokran Moroccan Grill","street":"4027 W. Irving Park Rd."},{"_geoloc":{"lat":41.93198,"lng":-87.70242},"city_name":"Chicago","country_name":"United States","cuisine_type":"Macanese","michelin_award":"BIB_GOURMAND","name":"Fat Rice","street":"2957 W. Diversey Ave."},{"_geoloc":{"lat":41.9978,"lng":-87.69244},"city_name":"Chicago","country_name":"United States","cuisine_type":"Indian","michelin_award":"MICHELIN_PLATE","name":"Sabri Nihari","street":"2500-2502 W. Devon Ave."},{"_geoloc":{"lat":41.8958118,"lng":-87.6230105},"city_name":"Chicago","country_name":"United States","cuisine_type":"Pizza","michelin_award":"MICHELIN_PLATE","name":"Gino’s East","street":"162 E. Superior St."},{"_geoloc":{"lat":41.8808432,"lng":-87.622498},"city_name":"Chicago","country_name":"United States","cuisine_type":"Italian","michelin_award":"MICHELIN_PLATE","name":"Terzo Piano","street":"159 E. Monroe St."},{"_geoloc":{"lat":41.8535715,"lng":-87.6464616},"city_name":"Chicago","country_name":"United States","cuisine_type":"Gastropub","michelin_award":"BIB_GOURMAND","name":"Pleasant House Pub","street":"2119 S. Halstead Ave."},{"_geoloc":{"lat":41.891582,"lng":-87.63049},"city_name":"Chicago","country_name":"United States","cuisine_type":"Japanese","michelin_award":"MICHELIN_PLATE","name":"Sushi-San","street":"63 W. Grand Ave."},{"_geoloc":{"lat":41.8957978,"lng":-87.6943882},"city_name":"Chicago","country_name":"United States","cuisine_type":"Contemporary","michelin_award":"MICHELIN_PLATE","name":"Heritage Restaurant \u0026 Caviar Bar","street":"2700 W. Chicago Ave."},{"_geoloc":{"lat":41.9174983,"lng":-87.6776591},"city_name":"Chicago","country_name":"United States","cuisine_type":"Contemporary","michelin_award":"MICHELIN_PLATE","name":"Stone Flower","street":"1952 N. Damen Ave."},{"_geoloc":{"lat":41.93877,"lng":-87.6443416},"city_name":"Chicago","country_name":"United States","cuisine_type":"Italian","michelin_award":"BIB_GOURMAND","name":"Ceres’ Table","street":"3124 N. Broadway"},{"_geoloc":{"lat":41.9264504,"lng":-87.697581},"city_name":"Chicago","country_name":"United States","cuisine_type":"Mexican","michelin_award":"MICHELIN_PLATE","name":"Quiote","street":"2456 N. California Ave."},{"_geoloc":{"lat":41.9278163,"lng":-87.7067933},"city_name":"Chicago","country_name":"United States","cuisine_type":"American","michelin_award":"BIB_GOURMAND","name":"Lula Cafe","street":"2537 N. Kedzie Ave."},{"_geoloc":{"lat":41.8952479,"lng":-87.6386755},"city_name":"Chicago","country_name":"United States","cuisine_type":"Contemporary","michelin_award":"ONE_STAR","name":"Entente","street":"700 N. Sedgwick St."},{"_geoloc":{"lat":41.969555,"lng":-87.688736},"city_name":"Chicago","country_name":"United States","cuisine_type":"Contemporary","michelin_award":"ONE_STAR","name":"Elizabeth","street":"4835 N. Western, Unit D"},{"_geoloc":{"lat":41.9687073,"lng":-87.6959706},"city_name":"Chicago","country_name":"United States","cuisine_type":"Contemporary","michelin_award":"ONE_STAR","name":"Goosefoot","street":"2656 W. Lawrence Ave."},{"_geoloc":{"lat":41.8956472,"lng":-87.6916691},"city_name":"Chicago","country_name":"United States","cuisine_type":"Japanese","michelin_award":"BIB_GOURMAND","name":"Kai Zan","street":"2557 W. Chicago Ave."},{"_geoloc":{"lat":41.9007995,"lng":-87.6242897},"city_name":"Chicago","country_name":"United States","cuisine_type":"Italian","michelin_award":"ONE_STAR","name":"Spiaggia","street":"980 N. Michigan Ave."},{"_geoloc":{"lat":41.63001,"lng":-87.54936},"city_name":"Chicago","country_name":"United States","cuisine_type":"American","michelin_award":"MICHELIN_PLATE","name":"Somerset","street":"1112 N. State St."},{"_geoloc":{"lat":41.8978711,"lng":-87.6270996},"city_name":"Chicago","country_name":"United States","cuisine_type":"French","michelin_award":"MICHELIN_PLATE","name":"Bistronomic","street":"840 N. Wabash Ave."},{"_geoloc":{"lat":41.8929892,"lng":-87.6266568},"city_name":"Chicago","country_name":"United States","cuisine_type":"Steakhouse","michelin_award":"MICHELIN_PLATE","name":"Steak 48","street":"615 N. Wabash Ave."},{"_geoloc":{"lat":41.8807331,"lng":-87.6309218},"city_name":"Chicago","country_name":"United States","cuisine_type":"French","michelin_award":"MICHELIN_PLATE","name":"Cochon Volant","street":"100 W. Monroe St."},{"_geoloc":{"lat":41.85367,"lng":-87.6326},"city_name":"Chicago","country_name":"United States","cuisine_type":"Chinese","michelin_award":"MICHELIN_PLATE","name":"Phoenix","street":"2131 S. Archer Ave."},{"_geoloc":{"lat":41.8939088,"lng":-87.6314272},"city_name":"Chicago","country_name":"United States","cuisine_type":"American","michelin_award":"BIB_GOURMAND","name":"True Food Kitchen","street":"1 W. Erie St."},{"_geoloc":{"lat":41.9076108,"lng":-87.6724047},"city_name":"Chicago","country_name":"United States","cuisine_type":"Creole","michelin_award":"BIB_GOURMAND","name":"Ina Mae Tavern","street":"1415 N. Wood St."},{"_geoloc":{"lat":41.8843969,"lng":-87.6426342},"city_name":"Chicago","country_name":"United States","cuisine_type":"International","michelin_award":"BIB_GOURMAND","name":"Proxi","street":"565 W. Randolph St."},{"_geoloc":{"lat":41.90332,"lng":-87.6700582},"city_name":"Chicago","country_name":"United States","cuisine_type":"Gastropub","michelin_award":"MICHELIN_PLATE","name":"Bangers \u0026 Lace","street":"1670 W. Division St."},{"_geoloc":{"lat":41.8843534,"lng":-87.6608602},"city_name":"Chicago","country_name":"United States","cuisine_type":"Contemporary","michelin_award":"ONE_STAR","name":"Elske","street":"1350 W. Randolph Ave."},{"_geoloc":{"lat":41.9362704,"lng":-87.7193141},"city_name":"Chicago","country_name":"United States","cuisine_type":"Polish","michelin_award":"MICHELIN_PLATE","name":"Staropolska","street":"3030 N. Milwaukee Ave."},{"_geoloc":{"lat":41.886642,"lng":-87.63985},"city_name":"Chicago","country_name":"United States","cuisine_type":"Steakhouse","michelin_award":"MICHELIN_PLATE","name":"Gibson's Italia","street":"233 N. Canal St."},{"_geoloc":{"lat":41.9076592,"lng":-87.6733151},"city_name":"Chicago","country_name":"United States","cuisine_type":"Indian","michelin_award":"MICHELIN_PLATE","name":"Cumin","street":"1414 N. Milwaukee Ave."},{"_geoloc":{"lat":41.9845621,"lng":-87.6973195},"city_name":"Chicago","country_name":"United States","cuisine_type":"Seafood","michelin_award":"MICHELIN_PLATE","name":"The Angry Crab","street":"5665 N. Lincoln Ave."},{"_geoloc":{"lat":41.91105,"lng":-87.63538},"city_name":"Chicago","country_name":"United States","cuisine_type":"Mexican","michelin_award":"MICHELIN_PLATE","name":"Adobo Grill","street":"215 W. North Ave."},{"_geoloc":{"lat":41.8995809,"lng":-87.6284123},"city_name":"Chicago","country_name":"United States","cuisine_type":"American","michelin_award":"MICHELIN_PLATE","name":"Walton St. Kitchen \u0026 Bar","street":"912 N. State St."},{"_geoloc":{"lat":41.9668722,"lng":-87.7079847},"city_name":"Chicago","country_name":"United States","cuisine_type":"Persian","michelin_award":"MICHELIN_PLATE","name":"Noon-O-Kabab","street":"4661 N. Kedzie Ave."},{"_geoloc":{"lat":41.8579542,"lng":-87.6531795},"city_name":"Chicago","country_name":"United States","cuisine_type":"Vietnamese","michelin_award":"BIB_GOURMAND","name":"HaiSous","street":"1800 S. Carpenter Ave."},{"_geoloc":{"lat":41.95016,"lng":-87.72764},"city_name":"Chicago","country_name":"United States","cuisine_type":"Barbecue","michelin_award":"BIB_GOURMAND","name":"Smoque BBQ","street":"3800 N. Pulaski Rd."},{"_geoloc":{"lat":41.9196,"lng":-87.69718},"city_name":"Chicago","country_name":"United States","cuisine_type":"Mexican","michelin_award":"BIB_GOURMAND","name":"Lonesome Rose","street":"2101 N. California Ave."},{"_geoloc":{"lat":41.890567,"lng":-87.630914},"city_name":"Chicago","country_name":"United States","cuisine_type":"Mexican","michelin_award":"BIB_GOURMAND","name":"Frontera Grill","street":"445 N. Clark St."},{"_geoloc":{"lat":41.9127,"lng":-87.63835},"city_name":"Chicago","country_name":"United States","cuisine_type":"Barbecue","michelin_award":"MICHELIN_PLATE","name":"Twin Anchors","street":"1655 N. Sedgwick St."},{"_geoloc":{"lat":41.8935278,"lng":-87.6216491},"city_name":"Chicago","country_name":"United States","cuisine_type":"Contemporary","michelin_award":"MICHELIN_PLATE","name":"The Albert","street":"228 E. Ontario St."},{"_geoloc":{"lat":41.9906819,"lng":-87.6600777},"city_name":"Chicago","country_name":"United States","cuisine_type":"Contemporary","michelin_award":"MICHELIN_PLATE","name":"Income Tax","street":"5959 N. Broadway"},{"_geoloc":{"lat":41.8758915,"lng":-87.6318133},"city_name":"Chicago","country_name":"United States","cuisine_type":"French","michelin_award":"ONE_STAR","name":"Everest","street":"440 S. LaSalle St."},{"_geoloc":{"lat":41.97578,"lng":-87.66862},"city_name":"Chicago","country_name":"United States","cuisine_type":"Gastropub","michelin_award":"MICHELIN_PLATE","name":"Hopleaf","street":"5148 N. Clark St."},{"_geoloc":{"lat":41.88457,"lng":-87.6499},"city_name":"Chicago","country_name":"United States","cuisine_type":"Mexican","michelin_award":"MICHELIN_PLATE","name":"Leña Brava","street":"900 W. Randolph St."},{"_geoloc":{"lat":41.885,"lng":-87.660736},"city_name":"Chicago","country_name":"United States","cuisine_type":"Contemporary","michelin_award":"TWO_STARS","name":"Smyth","street":"177 N. Ada St."},{"_geoloc":{"lat":41.8892862,"lng":-87.630638},"city_name":"Chicago","country_name":"United States","cuisine_type":"Steakhouse","michelin_award":"MICHELIN_PLATE","name":"RPM Steak","street":"66 W. Kinzie St."},{"_geoloc":{"lat":41.8694395,"lng":-87.6612254},"city_name":"Chicago","country_name":"United States","cuisine_type":"Barbecue","michelin_award":"BIB_GOURMAND","name":"County Barbecue","street":"1352 W. Taylor St."},{"_geoloc":{"lat":41.88795,"lng":-87.63115},"city_name":"Chicago","country_name":"United States","cuisine_type":"American","michelin_award":"MICHELIN_PLATE","name":"The Kitchen","street":"316 N. Clark St."},{"_geoloc":{"lat":41.896091,"lng":-87.6701775},"city_name":"Chicago","country_name":"United States","cuisine_type":"Gastropub","michelin_award":"BIB_GOURMAND","name":"Funkenhausen","street":"1709 W. Chicago Ave."},{"_geoloc":{"lat":41.93575,"lng":-87.74698},"city_name":"Chicago","country_name":"United States","cuisine_type":"Mexican","michelin_award":"BIB_GOURMAND","name":"Sol de Mexico","street":"3018 N. Cicero Ave."},{"_geoloc":{"lat":41.88418,"lng":-87.64785},"city_name":"Chicago","country_name":"United States","cuisine_type":"Contemporary","michelin_award":"BIB_GOURMAND","name":"Girl \u0026 The Goat","street":"809 W. Randolph St."},{"_geoloc":{"lat":41.88673,"lng":-87.65215},"city_name":"Chicago","country_name":"United States","cuisine_type":"Steakhouse","michelin_award":"MICHELIN_PLATE","name":"Swift \u0026 Sons","street":"1000 W. Fulton Market"},{"_geoloc":{"lat":41.917625,"lng":-87.67759},"city_name":"Chicago","country_name":"United States","cuisine_type":"Japanese","michelin_award":"MICHELIN_PLATE","name":"Izakaya Mita","street":"1960 N. Damen Ave."},{"_geoloc":{"lat":41.8842625,"lng":-87.6484956},"city_name":"Chicago","country_name":"United States","cuisine_type":"Japanese","michelin_award":"MICHELIN_PLATE","name":"Sushi Dokku","street":"823 W. Randolph St."},{"_geoloc":{"lat":41.8918,"lng":-87.63369},"city_name":"Chicago","country_name":"United States","cuisine_type":"Seafood","michelin_award":"BIB_GOURMAND","name":"GT Fish \u0026 Oyster","street":"531 N. Wells St."},{"_geoloc":{"lat":41.980762,"lng":-87.66012},"city_name":"Chicago","country_name":"United States","cuisine_type":"Thai","michelin_award":"BIB_GOURMAND","name":"Herb","street":"5424 N. Broadway"},{"_geoloc":{"lat":41.8857887,"lng":-87.6441055},"city_name":"Chicago","country_name":"United States","cuisine_type":"Asian","michelin_award":"ONE_STAR","name":"Kikkō","street":"630 W. Lake St."},{"_geoloc":{"lat":41.917416,"lng":-87.698326},"city_name":"Chicago","country_name":"United States","cuisine_type":"Mexican","michelin_award":"BIB_GOURMAND","name":"Dos Urban Cantina","street":"2829 W. Armitage Ave."},{"_geoloc":{"lat":41.8945933,"lng":-87.6355147},"city_name":"Chicago","country_name":"United States","cuisine_type":"American","michelin_award":"MICHELIN_PLATE","name":"The Franklin Room","street":"675 N. Franklin St."},{"_geoloc":{"lat":41.9336502,"lng":-87.7071578},"city_name":"Chicago","country_name":"United States","cuisine_type":"American","michelin_award":"BIB_GOURMAND","name":"Jam","street":"2853 N. Kedzie Ave."},{"_geoloc":{"lat":41.9013922,"lng":-87.6279096},"city_name":"Chicago","country_name":"United States","cuisine_type":"American","michelin_award":"MICHELIN_PLATE","name":"Hugo’s Frog Bar \u0026 Fish House","street":"1024 N. Rush St."},{"_geoloc":{"lat":41.916058,"lng":-87.669914},"city_name":"Chicago","country_name":"United States","cuisine_type":"American","michelin_award":"MICHELIN_PLATE","name":"Mable’s Table","street":"1655 W. Cortland St."},{"_geoloc":{"lat":41.917553,"lng":-87.69827},"city_name":"Chicago","country_name":"United States","cuisine_type":"Italian","michelin_award":"MICHELIN_PLATE","name":"Osteria Langhe","street":"2824 W. Armitage Ave."},{"_geoloc":{"lat":41.8851171,"lng":-87.6716016},"city_name":"Chicago","country_name":"United States","cuisine_type":"Contemporary","michelin_award":"MICHELIN_PLATE","name":"Eden","street":"1748 W. Lake St."},{"_geoloc":{"lat":41.8962351,"lng":-87.6647748},"city_name":"Chicago","country_name":"United States","cuisine_type":"Korean","michelin_award":"MICHELIN_PLATE","name":"Jeong","street":"1460 W. Chicago Ave."},{"_geoloc":{"lat":41.8907039,"lng":-87.6309689},"city_name":"Chicago","country_name":"United States","cuisine_type":"Mexican","michelin_award":"ONE_STAR","name":"Topolobampo","street":"445 N. Clark St."},{"_geoloc":{"lat":41.8857746,"lng":-87.6468966},"city_name":"Chicago","country_name":"United States","cuisine_type":"Japanese","michelin_award":"ONE_STAR","name":"Mako","street":"731 W. Lake St."},{"_geoloc":{"lat":41.901314,"lng":-87.62769},"city_name":"Chicago","country_name":"United States","cuisine_type":"Italian","michelin_award":"MICHELIN_PLATE","name":"Nico Osteria","street":"1015 N. Rush St."},{"_geoloc":{"lat":41.9270789,"lng":-87.7036933},"city_name":"Chicago","country_name":"United States","cuisine_type":"Asian","michelin_award":"MICHELIN_PLATE","name":"BiXi Beer","street":"2515 N. Milwaukee Ave."},{"_geoloc":{"lat":41.853844,"lng":-87.63355},"city_name":"Chicago","country_name":"United States","cuisine_type":"Chinese","michelin_award":"MICHELIN_PLATE","name":"MCCB","street":"2138 S. Archer Ave."},{"_geoloc":{"lat":41.8694346,"lng":-87.6551953},"city_name":"Chicago","country_name":"United States","cuisine_type":"French","michelin_award":"MICHELIN_PLATE","name":"Chez Joël","street":"1119 W. Taylor St."},{"_geoloc":{"lat":41.9797596,"lng":-87.6676884},"city_name":"Chicago","country_name":"United States","cuisine_type":"Belgian","michelin_award":"MICHELIN_PLATE","name":"Vincent","street":"1475 W. Balmoral Ave."},{"_geoloc":{"lat":41.8906109,"lng":-87.6269513},"city_name":"Chicago","country_name":"United States","cuisine_type":"Steakhouse","michelin_award":"MICHELIN_PLATE","name":"Benny's Chop House","street":"444 N. Wabash Ave."},{"_geoloc":{"lat":41.964184,"lng":-87.68552},"city_name":"Chicago","country_name":"United States","cuisine_type":"American","michelin_award":"MICHELIN_PLATE","name":"The Warbler","street":"4535 N. Lincoln Ave."},{"_geoloc":{"lat":41.9468034,"lng":-87.6641296},"city_name":"Chicago","country_name":"United States","cuisine_type":"American","michelin_award":"MICHELIN_PLATE","name":"Southport Grocery","street":"3552 N. Southport Ave."},{"_geoloc":{"lat":41.9652344,"lng":-87.6861331},"city_name":"Chicago","country_name":"United States","cuisine_type":"Southern","michelin_award":"MICHELIN_PLATE","name":"Luella’s Southern Kitchen","street":"4609 N. Lincoln Ave."},{"_geoloc":{"lat":41.9330403,"lng":-87.6405573},"city_name":"Chicago","country_name":"United States","cuisine_type":"Spanish","michelin_award":"BIB_GOURMAND","name":"mfk.","street":"432 W. Diversey Pkwy."},{"_geoloc":{"lat":41.94805,"lng":-87.65725},"city_name":"Chicago","country_name":"United States","cuisine_type":"Contemporary","michelin_award":"MICHELIN_PLATE","name":"Mordecai","street":"3632 N. Clark St."},{"_geoloc":{"lat":41.92989,"lng":-87.65495},"city_name":"Chicago","country_name":"United States","cuisine_type":"Japanese","michelin_award":"MICHELIN_PLATE","name":"Juno","street":"2638 N. Lincoln Ave."},{"_geoloc":{"lat":41.8694914,"lng":-87.6641213},"city_name":"Chicago","country_name":"United States","cuisine_type":"Italian","michelin_award":"MICHELIN_PLATE","name":"The Rosebud","street":"1500 W. Taylor St."},{"_geoloc":{"lat":41.8592257,"lng":-87.6467505},"city_name":"Chicago","country_name":"United States","cuisine_type":"Mexican","michelin_award":"BIB_GOURMAND","name":"DeCOLORES","street":"1626 S. Halsted St."},{"_geoloc":{"lat":41.8891737,"lng":-87.63153},"city_name":"Chicago","country_name":"United States","cuisine_type":"Contemporary","michelin_award":"BIB_GOURMAND","name":"Untitled Supper Club","street":"111 W. Kinzie St."},{"_geoloc":{"lat":41.88376,"lng":-87.64859},"city_name":"Chicago","country_name":"United States","cuisine_type":"Japanese","michelin_award":"MICHELIN_PLATE","name":"High Five Ramen","street":"112 N. Green St."},{"_geoloc":{"lat":41.8344359,"lng":-87.6461443},"city_name":"Chicago","country_name":"United States","cuisine_type":"American","michelin_award":"MICHELIN_PLATE","name":"Nana","street":"3267 S. Halsted St."},{"_geoloc":{"lat":41.8524,"lng":-87.63598},"city_name":"Chicago","country_name":"United States","cuisine_type":"Chinese","michelin_award":"MICHELIN_PLATE","name":"Dolo","street":"2222 S. Archer Ave."},{"_geoloc":{"lat":41.9578813,"lng":-87.6813831},"city_name":"Chicago","country_name":"United States","cuisine_type":"Korean","michelin_award":"MICHELIN_PLATE","name":"Cho Sun Ok","street":"4200 N. Lincoln Ave."},{"_geoloc":{"lat":41.8858489,"lng":-87.648787},"city_name":"Chicago","country_name":"United States","cuisine_type":"Peruvian","michelin_award":"BIB_GOURMAND","name":"Cabra","street":"200 N. Green St."},{"_geoloc":{"lat":41.9105864,"lng":-87.6743282},"city_name":"Chicago","country_name":"United States","cuisine_type":"American","michelin_award":"BIB_GOURMAND","name":"etta","street":"1840 W. North Ave."},{"_geoloc":{"lat":41.8446456,"lng":-87.6601691},"city_name":"Chicago","country_name":"United States","cuisine_type":"Gastropub","michelin_award":"BIB_GOURMAND","name":"The Duck Inn","street":"2701 S. Eleanor St."},{"_geoloc":{"lat":41.89119,"lng":-87.656075},"city_name":"Chicago","country_name":"United States","cuisine_type":"American","michelin_award":"BIB_GOURMAND","name":"TWO","street":"1132 W. Grand Ave."},{"_geoloc":{"lat":41.8845775,"lng":-87.6447078},"city_name":"Chicago","country_name":"United States","cuisine_type":"Contemporary","michelin_award":"ONE_STAR","name":"Yūgen","street":"652 W. Randolph St."},{"_geoloc":{"lat":41.903133,"lng":-87.677956},"city_name":"Chicago","country_name":"United States","cuisine_type":"American","michelin_award":"MICHELIN_PLATE","name":"Clever Rabbit","street":"2015 W. Division St."},{"_geoloc":{"lat":41.9372337,"lng":-87.6441621},"city_name":"Chicago","country_name":"United States","cuisine_type":"Mexican","michelin_award":"BIB_GOURMAND","name":"Chilam Balam","street":"3023 N. Broadway"},{"_geoloc":{"lat":41.919437,"lng":-87.69146},"city_name":"Chicago","country_name":"United States","cuisine_type":"Japanese","michelin_award":"MICHELIN_PLATE","name":"Ramen Wasabi","street":"2101 N. Milwaukee Ave."},{"_geoloc":{"lat":41.8934699,"lng":-87.62213},"city_name":"Chicago","country_name":"United States","cuisine_type":"French","michelin_award":"MICHELIN_PLATE","name":"Les Nomades","street":"222 E. Ontario St."},{"_geoloc":{"lat":41.92397,"lng":-87.64705},"city_name":"Chicago","country_name":"United States","cuisine_type":"Indonesian","michelin_award":"MICHELIN_PLATE","name":"Rickshaw Republic","street":"2312 N. Lincoln Ave."},{"_geoloc":{"lat":41.89749,"lng":-87.62148},"city_name":"Chicago","country_name":"United States","cuisine_type":"American","michelin_award":"BIB_GOURMAND","name":"Marisol","street":"205 E. Pearson St."},{"_geoloc":{"lat":41.9733966,"lng":-87.6550435},"city_name":"Chicago","country_name":"United States","cuisine_type":"Mexican","michelin_award":"BIB_GOURMAND","name":"Kie-Gol-Lanee","street":"5004 N. Sheridan Rd."},{"_geoloc":{"lat":41.8992241,"lng":-87.6217879},"city_name":"Chicago","country_name":"United States","cuisine_type":"Italian","michelin_award":"MICHELIN_PLATE","name":"Pelago","street":"201 E. Delaware Pl."},{"_geoloc":{"lat":41.9669559,"lng":-87.6585384},"city_name":"Chicago","country_name":"United States","cuisine_type":"Contemporary","michelin_award":"MICHELIN_PLATE","name":"Brass Heart","street":"4662 N. Broadway"},{"_geoloc":{"lat":41.901955,"lng":-87.62869},"city_name":"Chicago","country_name":"United States","cuisine_type":"Steakhouse","michelin_award":"MICHELIN_PLATE","name":"Maple \u0026 Ash","street":"8 W. Maple St."},{"_geoloc":{"lat":41.915047,"lng":-87.67762},"city_name":"Chicago","country_name":"United States","cuisine_type":"Korean","michelin_award":"MICHELIN_PLATE","name":"En Hakkore","street":"1840 N. Damen Ave."},{"_geoloc":{"lat":41.9031918,"lng":-87.6307268},"city_name":"Chicago","country_name":"United States","cuisine_type":"American","michelin_award":"MICHELIN_PLATE","name":"Blue Door Kitchen \u0026 Garden","street":"52 W. Elm St."},{"_geoloc":{"lat":41.8579186,"lng":-87.6577117},"city_name":"Chicago","country_name":"United States","cuisine_type":"Contemporary","michelin_award":"MICHELIN_PLATE","name":"S.K.Y.","street":"1239 W. 18th St."},{"_geoloc":{"lat":41.886658,"lng":-87.65187},"city_name":"Chicago","country_name":"United States","cuisine_type":"Contemporary","michelin_award":"MICHELIN_PLATE","name":"Roister","street":"951 W. Fulton Market"},{"_geoloc":{"lat":41.88815,"lng":-87.63289},"city_name":"Chicago","country_name":"United States","cuisine_type":"Steakhouse","michelin_award":"MICHELIN_PLATE","name":"Chicago Cut","street":"300 N. LaSalle St."},{"_geoloc":{"lat":41.9301163,"lng":-87.7071651},"city_name":"Chicago","country_name":"United States","cuisine_type":"Gastropub","michelin_award":"BIB_GOURMAND","name":"Longman \u0026 Eagle","street":"2657 N. Kedzie Ave."},{"_geoloc":{"lat":41.9950916,"lng":-87.6993851},"city_name":"Chicago","country_name":"United States","cuisine_type":"Korean","michelin_award":"MICHELIN_PLATE","name":"Gogi","street":"6240 N. California Ave."},{"_geoloc":{"lat":41.88132,"lng":-87.62469},"city_name":"Chicago","country_name":"United States","cuisine_type":"Gastropub","michelin_award":"MICHELIN_PLATE","name":"The Gage","street":"24 S. Michigan Ave."},{"_geoloc":{"lat":41.9434062,"lng":-87.6639635},"city_name":"Chicago","country_name":"United States","cuisine_type":"American","michelin_award":"MICHELIN_PLATE","name":"Tuco \u0026 Blondie","street":"3358 N. Southport Ave."},{"_geoloc":{"lat":41.8050361,"lng":-87.723342},"city_name":"Chicago","country_name":"United States","cuisine_type":"Mexican","michelin_award":"BIB_GOURMAND","name":"Birrieria Zaragoza","street":"4852 S. Pulaski Rd."},{"_geoloc":{"lat":41.88924,"lng":-87.63482},"city_name":"Chicago","country_name":"United States","cuisine_type":"Steakhouse","michelin_award":"MICHELIN_PLATE","name":"Bavette’s Bar \u0026 Boeuf","street":"218 W. Kinzie St."},{"_geoloc":{"lat":41.8919236,"lng":-87.6311971},"city_name":"Chicago","country_name":"United States","cuisine_type":"French","michelin_award":"MICHELIN_PLATE","name":"Brindille","street":"534 N. Clark St."},{"_geoloc":{"lat":41.9675633,"lng":-87.6748813},"city_name":"Chicago","country_name":"United States","cuisine_type":"Gastropub","michelin_award":"ONE_STAR","name":"Band of Bohemia","street":"4710 N. Ravenswood Ave."},{"_geoloc":{"lat":41.92875,"lng":-87.69753},"city_name":"Chicago","country_name":"United States","cuisine_type":"Mexican","michelin_award":"BIB_GOURMAND","name":"Mi Tocaya","street":"2800 W. Logan Blvd."},{"_geoloc":{"lat":41.88394,"lng":-87.64247},"city_name":"Chicago","country_name":"United States","cuisine_type":"American","michelin_award":"ONE_STAR","name":"Sepia","street":"123 N. Jefferson St."},{"_geoloc":{"lat":41.88466,"lng":-87.64909},"city_name":"Chicago","country_name":"United States","cuisine_type":"French","michelin_award":"MICHELIN_PLATE","name":"Maude's Liquor Bar","street":"840 W. Randolph St."},{"_geoloc":{"lat":41.896109,"lng":-87.6676841},"city_name":"Chicago","country_name":"United States","cuisine_type":"Fusion","michelin_award":"MICHELIN_PLATE","name":"Beatnik","street":"1604 W. Chicago Ave."},{"_geoloc":{"lat":41.8912038,"lng":-87.6463804},"city_name":"Chicago","country_name":"United States","cuisine_type":"Gastropub","michelin_award":"MICHELIN_PLATE","name":"The Dawson","street":"730 W. Grand Ave."},{"_geoloc":{"lat":41.8844807,"lng":-87.6471184},"city_name":"Chicago","country_name":"United States","cuisine_type":"Indian","michelin_award":"MICHELIN_PLATE","name":"Rooh","street":"736 W. Randolph St."},{"_geoloc":{"lat":41.8768008,"lng":-87.6328272},"city_name":"Chicago","country_name":"United States","cuisine_type":"French","michelin_award":"MICHELIN_PLATE","name":"Taureaux Tavern","street":"155 W. Van Buren St."},{"_geoloc":{"lat":41.9730917,"lng":-87.659442},"city_name":"Chicago","country_name":"United States","cuisine_type":"Vietnamese","michelin_award":"MICHELIN_PLATE","name":"Pho Xe Tang - Tank Noodle","street":"4953-55 N. Broadway"},{"_geoloc":{"lat":41.913737,"lng":-87.677539},"city_name":"Chicago","country_name":"United States","cuisine_type":"American","michelin_award":"MICHELIN_PLATE","name":"Mindy's Hot Chocolate","street":"1747 N. Damen Ave."},{"_geoloc":{"lat":41.938004,"lng":-87.644424},"city_name":"Chicago","country_name":"United States","cuisine_type":"International","michelin_award":"MICHELIN_PLATE","name":"Mortar \u0026 Pestle","street":"3108 N. Broadway"},{"_geoloc":{"lat":41.8938837,"lng":-87.6328528},"city_name":"Chicago","country_name":"United States","cuisine_type":"Californian","michelin_award":"BIB_GOURMAND","name":"Pacific Standard Time","street":"141 W. Erie St."},{"_geoloc":{"lat":41.863,"lng":-87.68686},"city_name":"Chicago","country_name":"United States","cuisine_type":"Contemporary","michelin_award":"ONE_STAR","name":"EL Ideas","street":"2419 W. 14th St."},{"_geoloc":{"lat":41.88661,"lng":-87.6489},"city_name":"Chicago","country_name":"United States","cuisine_type":"Gastropub","michelin_award":"MICHELIN_PLATE","name":"The Publican","street":"837 W. Fulton Market"},{"_geoloc":{"lat":41.9087844,"lng":-87.667733},"city_name":"Chicago","country_name":"United States","cuisine_type":"Contemporary","michelin_award":"ONE_STAR","name":"Schwa","street":"1466 N. Ashland Ave."},{"_geoloc":{"lat":41.90711,"lng":-87.667465},"city_name":"Chicago","country_name":"United States","cuisine_type":"Fusion","michelin_award":"BIB_GOURMAND","name":"Mott St.","street":"1401 N. Ashland Ave."},{"_geoloc":{"lat":41.8522328,"lng":-87.6792863},"city_name":"Chicago","country_name":"United States","cuisine_type":"Thai","michelin_award":"BIB_GOURMAND","name":"Ghin Khao","street":"2128 W. Cermak Rd."},{"_geoloc":{"lat":41.91759,"lng":-87.696},"city_name":"Chicago","country_name":"United States","cuisine_type":"Austrian","michelin_award":"BIB_GOURMAND","name":"Table, Donkey and Stick","street":"2728 W. Armitage Ave."},{"_geoloc":{"lat":41.8959325,"lng":-87.6255806},"city_name":"Chicago","country_name":"United States","cuisine_type":"Pizza","michelin_award":"MICHELIN_PLATE","name":"Giordano's","street":"730 N. Rush St."},{"_geoloc":{"lat":41.8578954,"lng":-87.6575909},"city_name":"Chicago","country_name":"United States","cuisine_type":"Gastropub","michelin_award":"MICHELIN_PLATE","name":"Dusek’s (Board \u0026 Beer)","street":"1227 W. 18th St."},{"_geoloc":{"lat":41.9092448,"lng":-87.6509977},"city_name":"Chicago","country_name":"United States","cuisine_type":"Pizza","michelin_award":"BIB_GOURMAND","name":"Pizzeria Bebu","street":"1521 N. Fremont St."},{"_geoloc":{"lat":41.87787,"lng":-87.64203},"city_name":"Chicago","country_name":"United States","cuisine_type":"American","michelin_award":"MICHELIN_PLATE","name":"Lou Mitchell's","street":"565 W. Jackson Blvd."},{"_geoloc":{"lat":41.8858942,"lng":-87.6487548},"city_name":"Chicago","country_name":"United States","cuisine_type":"Mediterranean","michelin_award":"BIB_GOURMAND","name":"Cira","street":"200 N. Green St."},{"_geoloc":{"lat":41.9301645,"lng":-87.6362118},"city_name":"Chicago","country_name":"United States","cuisine_type":"Contemporary","michelin_award":"ONE_STAR","name":"North Pond","street":"2610 N. Cannon Dr."},{"_geoloc":{"lat":41.883076,"lng":-87.649376},"city_name":"Chicago","country_name":"United States","cuisine_type":"Argentinian","michelin_award":"MICHELIN_PLATE","name":"El Che","street":"845 W. Washington Blvd."},{"_geoloc":{"lat":41.89579,"lng":-87.6732},"city_name":"Chicago","country_name":"United States","cuisine_type":"Japanese","michelin_award":"BIB_GOURMAND","name":"Arami","street":"1829 W. Chicago Ave."},{"_geoloc":{"lat":41.889297,"lng":-87.6352819},"city_name":"Chicago","country_name":"United States","cuisine_type":"Gastropub","michelin_award":"BIB_GOURMAND","name":"Gilt Bar","street":"230 W. Kinzie St."},{"_geoloc":{"lat":41.9248173,"lng":-87.7156486},"city_name":"Chicago","country_name":"United States","cuisine_type":"Barbecue","michelin_award":"BIB_GOURMAND","name":"Flat \u0026 Point","street":"3524 W. Fullerton Ave."},{"_geoloc":{"lat":41.9804907,"lng":-87.6686223},"city_name":"Chicago","country_name":"United States","cuisine_type":"Korean","michelin_award":"BIB_GOURMAND","name":"Passerotto","street":"5420 N. Clark St."},{"_geoloc":{"lat":41.964287,"lng":-87.68558},"city_name":"Chicago","country_name":"United States","cuisine_type":"American","michelin_award":"MICHELIN_PLATE","name":"gather","street":"4539 N. Lincoln Ave."},{"_geoloc":{"lat":41.9794675,"lng":-87.6680578},"city_name":"Chicago","country_name":"United States","cuisine_type":"Southern","michelin_award":"MICHELIN_PLATE","name":"Big Jones","street":"5347 N. Clark St."},{"_geoloc":{"lat":41.8962439,"lng":-87.6644326},"city_name":"Chicago","country_name":"United States","cuisine_type":"Basque","michelin_award":"MICHELIN_PLATE","name":"Bar Biscay","street":"1450 W. Chicago Ave."},{"_geoloc":{"lat":41.88426,"lng":-87.64343},"city_name":"Chicago","country_name":"United States","cuisine_type":"Mediterranean","michelin_award":"BIB_GOURMAND","name":"Avec","street":"615 W. Randolph St."},{"_geoloc":{"lat":41.898907,"lng":-87.66725},"city_name":"Chicago","country_name":"United States","cuisine_type":"Contemporary","michelin_award":"ONE_STAR","name":"Temporis","street":"933 N. Ashland Ave."},{"_geoloc":{"lat":1.2855465,"lng":103.80353},"city_name":"Singapore","country_name":"Singapore","cuisine_type":"Street Food","michelin_award":"MICHELIN_PLATE","name":"Poh Cheu","street":"KPT Coffee shop, #01-230, 126 Bukit Merah Lane 1"},{"_geoloc":{"lat":1.3000797,"lng":103.85351},"city_name":"Singapore","country_name":"Singapore","cuisine_type":"Street Food","michelin_award":"MICHELIN_PLATE","name":"New Rong Liang Ge Cantonese Roast Duck Double Boiled Soup","street":"3838 Eating Place, #01-235, 269B Queen Street"},{"_geoloc":{"lat":1.3378682,"lng":103.848206},"city_name":"Singapore","country_name":"Singapore","cuisine_type":"Street Food","michelin_award":"BIB_GOURMAND","name":"Chef Kang's Noodle House","street":"11 Lorong 3 Toa Payoh, Jackson Square Block A"},{"_geoloc":{"lat":1.3111155,"lng":103.788795},"city_name":"Singapore","country_name":"Singapore","cuisine_type":"Street Food","michelin_award":"BIB_GOURMAND","name":"Guan Kee Fried Kway Teow","street":"Blk 20, Ghim Moh Road #01-19"},{"_geoloc":{"lat":1.2874889,"lng":103.81791},"city_name":"Singapore","country_name":"Singapore","cuisine_type":"Street Food","michelin_award":"MICHELIN_PLATE","name":"Shi Le Yuan","street":"85 Redhill Lane #01-82"},{"_geoloc":{"lat":1.2870489,"lng":103.804756},"city_name":"Singapore","country_name":"Singapore","cuisine_type":"Street Food","michelin_award":"MICHELIN_PLATE","name":"San Bao Soya Sauce Chicken","street":"85 Redhill Lane #01-73"},{"_geoloc":{"lat":1.2875073,"lng":103.817894},"city_name":"Singapore","country_name":"Singapore","cuisine_type":"Street Food","michelin_award":"MICHELIN_PLATE","name":"Hua Kee Chicken Rice","street":"85 Redhill Lane #01-72"},{"_geoloc":{"lat":1.2873073,"lng":103.81883},"city_name":"Singapore","country_name":"Singapore","cuisine_type":"Street Food","michelin_award":"BIB_GOURMAND","name":"Fu Ming Cooked Food","street":"85 Redhill Lane #01-49"},{"_geoloc":{"lat":1.3060204,"lng":103.86402},"city_name":"Singapore","country_name":"Singapore","cuisine_type":"Street Food","michelin_award":"MICHELIN_PLATE","name":"Koka Wanton Noodles","street":"861 North Bridge Road #01-99"},{"_geoloc":{"lat":1.3121275,"lng":103.83914},"city_name":"Singapore","country_name":"Singapore","cuisine_type":"Street Food","michelin_award":"MICHELIN_PLATE","name":"R\u0026B Express","street":"500 Clemenceau Avenue North #01-76"},{"_geoloc":{"lat":1.3251804,"lng":103.930725},"city_name":"Singapore","country_name":"Singapore","cuisine_type":"Street Food","michelin_award":"BIB_GOURMAND","name":"Hock Hai Curry Chicken Bee Hoon Noodle","street":"270 Queen Street #01-88"},{"_geoloc":{"lat":1.2796271,"lng":103.84042},"city_name":"Singapore","country_name":"Singapore","cuisine_type":"European contemporary","michelin_award":"TWO_STARS","name":"Zén","street":"41 Bukit Pasoh Road"},{"_geoloc":{"lat":1.2811502,"lng":103.845726},"city_name":"Singapore","country_name":"Singapore","cuisine_type":"Barbecue","michelin_award":"MICHELIN_PLATE","name":"Yen Yakiniku","street":"15 Ann Siang Road"},{"_geoloc":{"lat":1.2875713,"lng":103.84725},"city_name":"Singapore","country_name":"Singapore","cuisine_type":"French contemporary","michelin_award":"ONE_STAR","name":"Vianney Massot","street":"39 Hongkong Street"},{"_geoloc":{"lat":1.2778571,"lng":103.844406},"city_name":"Singapore","country_name":"Singapore","cuisine_type":"Japanese","michelin_award":"MICHELIN_PLATE","name":"Ushidoki Wagyu Kaiseki","street":"57 Tras Street"},{"_geoloc":{"lat":1.2795653,"lng":103.84147},"city_name":"Singapore","country_name":"Singapore","cuisine_type":"Innovative","michelin_award":"MICHELIN_PLATE","name":"Thevar","street":"9 Keong Saik Road"},{"_geoloc":{"lat":1.403264,"lng":103.81811},"city_name":"Singapore","country_name":"Singapore","cuisine_type":"Cantonese","michelin_award":"MICHELIN_PLATE","name":"The Famous Kitchen","street":"Hong Heng Mansions, #01-01, 54 Sembawang Road"},{"_geoloc":{"lat":1.2558733,"lng":103.82072},"city_name":"Singapore","country_name":"Singapore","cuisine_type":"European contemporary","michelin_award":"ONE_STAR","name":"Table65","street":"Hotel Michael, Level 1, Resorts World Sentosa, 8 Sentosa Gateway"},{"_geoloc":{"lat":1.2786069,"lng":103.847626},"city_name":"Singapore","country_name":"Singapore","cuisine_type":"Innovative","michelin_award":"MICHELIN_PLATE","name":"Preludio","street":"Frasers Tower, #03-01/02, 182 Cecil Street"},{"_geoloc":{"lat":1.3046199,"lng":103.80922},"city_name":"Singapore","country_name":"Singapore","cuisine_type":"Chinese","michelin_award":"MICHELIN_PLATE","name":"Min Jiang at Dempsey","street":"7A and 7B Dempsey Road"},{"_geoloc":{"lat":1.2788285,"lng":103.8416},"city_name":"Singapore","country_name":"Singapore","cuisine_type":"Innovative","michelin_award":"ONE_STAR","name":"Meta","street":"1 Keong Saik Road"},{"_geoloc":{"lat":1.294544,"lng":103.855225},"city_name":"Singapore","country_name":"Singapore","cuisine_type":"Cantonese","michelin_award":"MICHELIN_PLATE","name":"Madame Fan","street":"The NCO Club, 32 Beach Road"},{"_geoloc":{"lat":1.2798284,"lng":103.84768},"city_name":"Singapore","country_name":"Singapore","cuisine_type":"French contemporary","michelin_award":"ONE_STAR","name":"Lerouy","street":"3 Stanley Street"},{"_geoloc":{"lat":1.2783813,"lng":103.84325},"city_name":"Singapore","country_name":"Singapore","cuisine_type":"French contemporary","michelin_award":"ONE_STAR","name":"Jag","street":"76 Duxton Road"},{"_geoloc":{"lat":1.3060347,"lng":103.829475},"city_name":"Singapore","country_name":"Singapore","cuisine_type":"Italian contemporary","michelin_award":"MICHELIN_PLATE","name":"Il Cielo","street":"Hilton Hotel, Level 24, 581 Orchard Road"},{"_geoloc":{"lat":1.2863152,"lng":103.848305},"city_name":"Singapore","country_name":"Singapore","cuisine_type":"Innovative","michelin_award":"MICHELIN_PLATE","name":"Ibid","street":"18 North Canal Road"},{"_geoloc":{"lat":1.2933505,"lng":103.841576},"city_name":"Singapore","country_name":"Singapore","cuisine_type":"Sushi","michelin_award":"MICHELIN_PLATE","name":"Hashida Sushi","street":"25 Mohamed Sultan Road"},{"_geoloc":{"lat":1.2935989,"lng":103.84174},"city_name":"Singapore","country_name":"Singapore","cuisine_type":"Innovative","michelin_award":"MICHELIN_PLATE","name":"Esora","street":"15 Mohamed Sultan Road"},{"_geoloc":{"lat":1.2798686,"lng":103.841484},"city_name":"Singapore","country_name":"Singapore","cuisine_type":"European contemporary","michelin_award":"MICHELIN_PLATE","name":"Cure","street":"21 Keong Saik Road"},{"_geoloc":{"lat":1.2770882,"lng":103.8487},"city_name":"Singapore","country_name":"Singapore","cuisine_type":"Sichuan","michelin_award":"BIB_GOURMAND","name":"Chen's Mapo Tofu","street":"Downtown Gallery, #02-29, 6A Shenton Way"},{"_geoloc":{"lat":1.2812847,"lng":103.84847},"city_name":"Singapore","country_name":"Singapore","cuisine_type":"Australian contemporary","michelin_award":"ONE_STAR","name":"Cheek Bistro","street":"21 Boon Tat Street"},{"_geoloc":{"lat":1.2813731,"lng":103.847305},"city_name":"Singapore","country_name":"Singapore","cuisine_type":"Basque contemporary","michelin_award":"ONE_STAR","name":"Basque Kitchen by Aitor","street":"97 Amoy Street"},{"_geoloc":{"lat":1.27826,"lng":103.842},"city_name":"Singapore","country_name":"Singapore","cuisine_type":"French","michelin_award":"ONE_STAR","name":"Ma Cuisine","street":"38 Craig Road"},{"_geoloc":{"lat":1.3162823,"lng":103.89793},"city_name":"Singapore","country_name":"Singapore","cuisine_type":"Street Food","michelin_award":"MICHELIN_PLATE","name":"Traditional Haig Road Putu Piring","street":"Inside Mr Teh Tarik, 26 Changi Road"},{"_geoloc":{"lat":1.3971,"lng":103.81896},"city_name":"Singapore","country_name":"Singapore","cuisine_type":"Street Food","michelin_award":"MICHELIN_PLATE","name":"Springleaf Prata Place","street":"1 Thong Soon Avenue"},{"_geoloc":{"lat":1.307076,"lng":103.79354},"city_name":"Singapore","country_name":"Singapore","cuisine_type":"Street Food","michelin_award":"BIB_GOURMAND","name":"Sin Kee Famous Cantonese Chicken Rice","street":"Block 40, Stall 7, #01-39, Holland Drive"},{"_geoloc":{"lat":1.3128802,"lng":103.87931},"city_name":"Singapore","country_name":"Singapore","cuisine_type":"Street Food","michelin_award":"BIB_GOURMAND","name":"Eminent Frog Porridge \u0026 Seafood (Lor 19)","street":"Geylang Lorong 19, 323 Geylang Road"},{"_geoloc":{"lat":1.30434,"lng":103.90236},"city_name":"Singapore","country_name":"Singapore","cuisine_type":"Street Food","michelin_award":"MICHELIN_PLATE","name":"Birds Of Paradise","street":"#01-05, 63 East Coast Road"},{"_geoloc":{"lat":1.29297,"lng":103.82998},"city_name":"Singapore","country_name":"Singapore","cuisine_type":"Xinjiang","michelin_award":"MICHELIN_PLATE","name":"No.18 Zion Road Fried Kway Teow","street":"70 Zion Road #017"},{"_geoloc":{"lat":1.29297,"lng":103.82998},"city_name":"Singapore","country_name":"Singapore","cuisine_type":"Street Food","michelin_award":"BIB_GOURMAND","name":"Fresh Taste Big Prawn Noodle","street":"70 Zion Road #04"},{"_geoloc":{"lat":1.29297,"lng":103.82998},"city_name":"Singapore","country_name":"Singapore","cuisine_type":"Street Food","michelin_award":"MICHELIN_PLATE","name":"Boon Tong Kee Kway Chap‧Braised Duck","street":"70 Zion Road #024"},{"_geoloc":{"lat":1.3228078,"lng":103.85409},"city_name":"Singapore","country_name":"Singapore","cuisine_type":"Street Food","michelin_award":"BIB_GOURMAND","name":"Beach Road Fish Head Bee Hoon","street":"91 Whampoa Drive 91 #01-46"},{"_geoloc":{"lat":1.3111817,"lng":103.78879},"city_name":"Singapore","country_name":"Singapore","cuisine_type":"Street Food","michelin_award":"MICHELIN_PLATE","name":"Ghim Moh Chwee Kueh","street":"Blk 20, Ghim Moh Road #01-54"},{"_geoloc":{"lat":1.3112291,"lng":103.78877},"city_name":"Singapore","country_name":"Singapore","cuisine_type":"Street Food","michelin_award":"BIB_GOURMAND","name":"Chuan Kee Boneless Braised Duck","street":"Blk 20, Ghim Moh Road #01-04"},{"_geoloc":{"lat":1.28538,"lng":103.83412},"city_name":"Singapore","country_name":"Singapore","cuisine_type":"Street Food","michelin_award":"BIB_GOURMAND","name":"Koh Brother Pig's Organ Soup","street":"30 Seng Poh Road #02-29"},{"_geoloc":{"lat":1.27632,"lng":103.84339},"city_name":"Singapore","country_name":"Singapore","cuisine_type":"Street Food","michelin_award":"MICHELIN_PLATE","name":"Rolina Traditional Hainanese Curry Puff","street":"6 Tanjong Pagar Plaza #02-15"},{"_geoloc":{"lat":1.27632,"lng":103.84339},"city_name":"Singapore","country_name":"Singapore","cuisine_type":"Street Food","michelin_award":"MICHELIN_PLATE","name":"Issan Thai Food","street":"6 Tanjong Pagar Plaza #02-13"},{"_geoloc":{"lat":1.31688,"lng":103.85013},"city_name":"Singapore","country_name":"Singapore","cuisine_type":"Street Food","michelin_award":"MICHELIN_PLATE","name":"Sheng Seng Fried Prawn Noodle","street":"41 Cambridge Road #01-40"},{"_geoloc":{"lat":1.31688,"lng":103.85013},"city_name":"Singapore","country_name":"Singapore","cuisine_type":"Street Food","michelin_award":"MICHELIN_PLATE","name":"Pin Wei Hong Kong Style Chee Cheong Fun","street":"41 Cambridge Road #01-25"},{"_geoloc":{"lat":1.2755524,"lng":103.79125},"city_name":"Singapore","country_name":"Singapore","cuisine_type":"Street Food","michelin_award":"MICHELIN_PLATE","name":"Ivy's Hainanese Herbal Mutton Soup","street":"121 Pasir Panjang Road #14"},{"_geoloc":{"lat":1.31994,"lng":103.93531},"city_name":"Singapore","country_name":"Singapore","cuisine_type":"Street Food","michelin_award":"MICHELIN_PLATE","name":"Hock Seng Choon Fish Ball Kway Teow Mee","street":"16 Bedok South Road #01-50"},{"_geoloc":{"lat":1.31994,"lng":103.93531},"city_name":"Singapore","country_name":"Singapore","cuisine_type":"Street Food","michelin_award":"MICHELIN_PLATE","name":"Hill Street Fried Kway Teow","street":"16 Bedok South Road #01-41"},{"_geoloc":{"lat":1.2848419,"lng":103.822},"city_name":"Singapore","country_name":"Singapore","cuisine_type":"Street Food","michelin_award":"BIB_GOURMAND","name":"Chai Chuan Tou Yang Rou Tang","street":"Blk 115 Bukit Merah View #01-51"},{"_geoloc":{"lat":1.31163,"lng":103.83922},"city_name":"Singapore","country_name":"Singapore","cuisine_type":"Street Food","michelin_award":"BIB_GOURMAND","name":"Heng","street":"500 Clemenceau Avenue North #01-28"},{"_geoloc":{"lat":1.285446,"lng":103.84598},"city_name":"Singapore","country_name":"Singapore","cuisine_type":"Street Food","michelin_award":"MICHELIN_PLATE","name":"Ah Heng Duck Rice","street":"Blk 531A, Upper Cross Street #02-64"},{"_geoloc":{"lat":1.30846,"lng":103.79295},"city_name":"Singapore","country_name":"Singapore","cuisine_type":"Street Food","michelin_award":"MICHELIN_PLATE","name":"Ru Ji Kitchen","street":"44 Holland Drive #02-28/29"},{"_geoloc":{"lat":1.30806,"lng":103.88594},"city_name":"Singapore","country_name":"Singapore","cuisine_type":"Street Food","michelin_award":"MICHELIN_PLATE","name":"Xin Mei Xiang Zheng Zong Lor Mee","street":"51 Old Airport Road #01-116"},{"_geoloc":{"lat":1.30806,"lng":103.88594},"city_name":"Singapore","country_name":"Singapore","cuisine_type":"Street Food","michelin_award":"MICHELIN_PLATE","name":"Whitley Rd Big Prawn Noodle","street":"51 Old Airport Road #01-98"},{"_geoloc":{"lat":1.30806,"lng":103.88594},"city_name":"Singapore","country_name":"Singapore","cuisine_type":"Street Food","michelin_award":"BIB_GOURMAND","name":"Lao Fu Zi Fried Kway Teow","street":"51 Old Airport Road #01-12"},{"_geoloc":{"lat":1.30806,"lng":103.88594},"city_name":"Singapore","country_name":"Singapore","cuisine_type":"Street Food","michelin_award":"MICHELIN_PLATE","name":"Hua Kee Hougang Famous Wan Ton Mee","street":"51 Old Airport Road #01-02"},{"_geoloc":{"lat":1.3080499,"lng":103.88585},"city_name":"Singapore","country_name":"Singapore","cuisine_type":"Street Food","michelin_award":"BIB_GOURMAND","name":"To-Ricos Guo Shi","street":"51 Old Airport Road #01-135/136"},{"_geoloc":{"lat":1.33276,"lng":103.93817},"city_name":"Singapore","country_name":"Singapore","cuisine_type":"Street Food","michelin_award":"MICHELIN_PLATE","name":"Xing Ji Rou Cuo Mian","street":"85 Bedok North Street 4 #01-07"},{"_geoloc":{"lat":1.36438,"lng":103.86625},"city_name":"Singapore","country_name":"Singapore","cuisine_type":"Street Food","michelin_award":"MICHELIN_PLATE","name":"Chomp Chomp Satay","street":"20 Kensington Park Road #01-34"},{"_geoloc":{"lat":1.36438,"lng":103.86625},"city_name":"Singapore","country_name":"Singapore","cuisine_type":"Street Food","michelin_award":"MICHELIN_PLATE","name":"Ah Hock Fried Hokkien Noodles","street":"20 Kensington Park Road #01-27"},{"_geoloc":{"lat":1.28248,"lng":103.8439},"city_name":"Singapore","country_name":"Singapore","cuisine_type":"Street Food","michelin_award":"BIB_GOURMAND","name":"Lian He Ben Ji Claypot","street":"335 Smith Street #02-198/199"},{"_geoloc":{"lat":1.28248,"lng":103.8439},"city_name":"Singapore","country_name":"Singapore","cuisine_type":"Street Food","michelin_award":"MICHELIN_PLATE","name":"Fatty Ox HK Kitchen","street":"335 Smith Street #02-84"},{"_geoloc":{"lat":1.28248,"lng":103.8439},"city_name":"Singapore","country_name":"Singapore","cuisine_type":"Street Food","michelin_award":"MICHELIN_PLATE","name":"Ann Chin Handmade Popiah","street":"335 Smith Street #02-112"},{"_geoloc":{"lat":1.32511,"lng":103.93048},"city_name":"Singapore","country_name":"Singapore","cuisine_type":"Street Food","michelin_award":"MICHELIN_PLATE","name":"New World Mutton Soup","street":"208 New Upper Changi Road #01-23"},{"_geoloc":{"lat":1.32511,"lng":103.93048},"city_name":"Singapore","country_name":"Singapore","cuisine_type":"Street Food","michelin_award":"MICHELIN_PLATE","name":"Hock Hai (Hong Lim) Curry Chicken Noodle","street":"208 New Upper Changi Road #01-58"},{"_geoloc":{"lat":1.32511,"lng":103.93048},"city_name":"Singapore","country_name":"Singapore","cuisine_type":"Street Food","michelin_award":"BIB_GOURMAND","name":"Bedok Chwee Kueh","street":"208 New Upper Changi Road #01-19"},{"_geoloc":{"lat":1.27905,"lng":103.84639},"city_name":"Singapore","country_name":"Singapore","cuisine_type":"Street Food","michelin_award":"MICHELIN_PLATE","name":"Ah Ter Teochew Fish Ball Noodles","street":"7 Maxwell Road #01-14"},{"_geoloc":{"lat":1.2860248,"lng":103.804115},"city_name":"Singapore","country_name":"Singapore","cuisine_type":"Street Food","michelin_award":"BIB_GOURMAND","name":"Hong Kong Yummy Soup","street":"Blk 120 Bukit Merah Lane #01-51"},{"_geoloc":{"lat":1.3007809,"lng":103.854416},"city_name":"Singapore","country_name":"Singapore","cuisine_type":"Street Food","michelin_award":"MICHELIN_PLATE","name":"Ah Seng","street":"270 Queen Street #01-77"},{"_geoloc":{"lat":1.2868768,"lng":103.80762},"city_name":"Singapore","country_name":"Singapore","cuisine_type":"Street Food","michelin_award":"BIB_GOURMAND","name":"Tiong Bahru Yi Sheng Fried Hokkien Prawn Mee","street":"Blk 6 Jalan Bukit Merah #01-13"},{"_geoloc":{"lat":1.3020397,"lng":103.84884},"city_name":"Singapore","country_name":"Singapore","cuisine_type":"Italian contemporary","michelin_award":"MICHELIN_PLATE","name":"28 Wilkie","street":"#01-01, 28 Wilkie Road"},{"_geoloc":{"lat":1.3058746,"lng":103.80999},"city_name":"Singapore","country_name":"Singapore","cuisine_type":"European","michelin_award":"MICHELIN_PLATE","name":"The Dempsey Cookhouse \u0026 Bar","street":"Block 17D, Dempsey Road"},{"_geoloc":{"lat":1.3063705,"lng":103.829475},"city_name":"Singapore","country_name":"Singapore","cuisine_type":"Sushi","michelin_award":"ONE_STAR","name":"Sushi Kimura","street":"Palais Renaissance, #01-07, 390 Orchard Road"},{"_geoloc":{"lat":1.3115491,"lng":103.88785},"city_name":"Singapore","country_name":"Singapore","cuisine_type":"Singaporean","michelin_award":"BIB_GOURMAND","name":"Sik Bao Sin (Desmond's Creation)","street":"592 Geylang Road"},{"_geoloc":{"lat":1.28086,"lng":103.84713},"city_name":"Singapore","country_name":"Singapore","cuisine_type":"Innovative","michelin_award":"ONE_STAR","name":"Nouri","street":"72 Amoy Street"},{"_geoloc":{"lat":1.3099598,"lng":103.85213},"city_name":"Singapore","country_name":"Singapore","cuisine_type":"Indian","michelin_award":"BIB_GOURMAND","name":"Muthu's Curry (Little India)","street":"#01-01, 138 Race Course Road"},{"_geoloc":{"lat":1.2781119,"lng":103.85281},"city_name":"Singapore","country_name":"Singapore","cuisine_type":"Cantonese","michelin_award":"MICHELIN_PLATE","name":"Majestic","street":"Marina One, The Heart (East Tower) #04-01, 5 Straits View"},{"_geoloc":{"lat":1.3017781,"lng":103.84101},"city_name":"Singapore","country_name":"Singapore","cuisine_type":"Japanese","michelin_award":"MICHELIN_PLATE","name":"Kappo Shunsui","street":"Cuppage Plaza, #04-02, 5 Koek Road"},{"_geoloc":{"lat":1.278624,"lng":103.84447},"city_name":"Singapore","country_name":"Singapore","cuisine_type":"Sicilian","michelin_award":"MICHELIN_PLATE","name":"Gattopardo","street":"36 Tras Street"},{"_geoloc":{"lat":1.2808393,"lng":103.84836},"city_name":"Singapore","country_name":"Singapore","cuisine_type":"Spanish","michelin_award":"MICHELIN_PLATE","name":"Gaig","street":"16 Stanley Street"},{"_geoloc":{"lat":1.294556,"lng":103.85597},"city_name":"Singapore","country_name":"Singapore","cuisine_type":"Innovative","michelin_award":"MICHELIN_PLATE","name":"Akira Back","street":"JW Marriott Hotel South Beach, South Tower, Level B1M, 30 Beach Road"},{"_geoloc":{"lat":1.316742,"lng":103.85005},"city_name":"Singapore","country_name":"Singapore","cuisine_type":"Street Food","michelin_award":"MICHELIN_PLATE","name":"Wah Kee Big Prawn Noodles","street":"41 Cambridge Road#01-15"},{"_geoloc":{"lat":1.338498,"lng":103.84468},"city_name":"Singapore","country_name":"Singapore","cuisine_type":"Street Food","michelin_award":"MICHELIN_PLATE","name":"Lao Shen Ji Si Mian","street":"Blk 127, Lorong 1 Toa Payoh"},{"_geoloc":{"lat":1.3381342,"lng":103.84453},"city_name":"Singapore","country_name":"Singapore","cuisine_type":"Street Food","michelin_award":"MICHELIN_PLATE","name":"Come Daily Fried Hokkien Prawn Mee","street":"Blk 127, Lorong 1 Toa Payoh #02-27"},{"_geoloc":{"lat":1.3084284,"lng":103.79295},"city_name":"Singapore","country_name":"Singapore","cuisine_type":"Street Food","michelin_award":"BIB_GOURMAND","name":"New Lucky Claypot Rice","street":"44 Holland Drive #02-19"},{"_geoloc":{"lat":1.3084444,"lng":103.792984},"city_name":"Singapore","country_name":"Singapore","cuisine_type":"Street Food","michelin_award":"MICHELIN_PLATE","name":"Cheng Heng Kway Chap and Braised Duck Rice","street":"44 Holland Drive #02-05"},{"_geoloc":{"lat":1.2864411,"lng":103.80791},"city_name":"Singapore","country_name":"Singapore","cuisine_type":"Street Food","michelin_award":"BIB_GOURMAND","name":"Ar Er Soup","street":"Blk 6 Jalan Bukit Merah #01-141"},{"_geoloc":{"lat":1.33282,"lng":103.79116},"city_name":"Singapore","country_name":"Singapore","cuisine_type":"Peranakan","michelin_award":"MICHELIN_PLATE","name":"Violet Oon","street":"881 Bukit Timah Road"},{"_geoloc":{"lat":1.2558528,"lng":103.82072},"city_name":"Singapore","country_name":"Singapore","cuisine_type":"Cantonese","michelin_award":"MICHELIN_PLATE","name":"Tunglok Heen","street":"Hotel Michael, #02-142/143, Resorts World Sentosa, 8 Sentosa Gateway"},{"_geoloc":{"lat":1.277446,"lng":103.8437},"city_name":"Singapore","country_name":"Singapore","cuisine_type":"Peranakan","michelin_award":"BIB_GOURMAND","name":"The Blue Ginger","street":"97 Tanjong Pagar Road"},{"_geoloc":{"lat":1.286314,"lng":103.86552},"city_name":"Singapore","country_name":"Singapore","cuisine_type":"European contemporary","michelin_award":"MICHELIN_PLATE","name":"Pollen","street":"Flower Dome, #01-09, Gardens by The Bay, 18 Marina Gardens Drive"},{"_geoloc":{"lat":1.280265,"lng":103.854935},"city_name":"Singapore","country_name":"Singapore","cuisine_type":"Spanish","michelin_award":"MICHELIN_PLATE","name":"Ola Cocina del Mar","street":"Marina Bay Financial Centre Tower 3, #01-05/06, 12 Marina Boulevard"},{"_geoloc":{"lat":1.278913,"lng":103.841415},"city_name":"Singapore","country_name":"Singapore","cuisine_type":"Japanese","michelin_award":"BIB_GOURMAND","name":"Man Man (Tanjong Pagar)","street":"#01-01, 1 Keong Saik Road"},{"_geoloc":{"lat":1.29516,"lng":103.85748},"city_name":"Singapore","country_name":"Singapore","cuisine_type":"Japanese","michelin_award":"MICHELIN_PLATE","name":"Maguro-Donya Miura-Misaki-Kou","street":"Suntec City Mall Tower 1, #03-314, 3 Temasek Boulevard"},{"_geoloc":{"lat":1.283162,"lng":103.842995},"city_name":"Singapore","country_name":"Singapore","cuisine_type":"Cantonese Roast Meats","michelin_award":"BIB_GOURMAND","name":"Hawker Chan Soya Sauce Chicken Rice \u0026 Noodle","street":"78 Smith Street"},{"_geoloc":{"lat":1.281607,"lng":103.845825},"city_name":"Singapore","country_name":"Singapore","cuisine_type":"French","michelin_award":"MICHELIN_PLATE","name":"L'Angelus","street":"85 Club Street"},{"_geoloc":{"lat":1.293439,"lng":103.85869},"city_name":"Singapore","country_name":"Singapore","cuisine_type":"Cantonese","michelin_award":"MICHELIN_PLATE","name":"Golden Peony","street":"Conrad Centennial Hotel, Level 3, 2 Temasek Boulevard"},{"_geoloc":{"lat":1.304735,"lng":103.84955},"city_name":"Singapore","country_name":"Singapore","cuisine_type":"Cantonese","michelin_award":"ONE_STAR","name":"Chef Kang's","street":"25 Mackenzie Road"},{"_geoloc":{"lat":1.277667,"lng":103.84357},"city_name":"Singapore","country_name":"Singapore","cuisine_type":"Italian","michelin_award":"MICHELIN_PLATE","name":"Buko Nero","street":"126 Tanjong Pagar Road"},{"_geoloc":{"lat":1.287212,"lng":103.84949},"city_name":"Singapore","country_name":"Singapore","cuisine_type":"Italian contemporary","michelin_award":"ONE_STAR","name":"Braci","street":"Level 5, 52 Boat Quay"},{"_geoloc":{"lat":1.306468,"lng":103.83187},"city_name":"Singapore","country_name":"Singapore","cuisine_type":"French","michelin_award":"MICHELIN_PLATE","name":"Bistro du Vin (Shaw Centre)","street":"Shaw Centre, #01-14, 1 Scotts Road"},{"_geoloc":{"lat":1.27557,"lng":103.84345},"city_name":"Singapore","country_name":"Singapore","cuisine_type":"European","michelin_award":"BIB_GOURMAND","name":"Bar-Roque Grill","street":"165 Tanjong Pagar Road"},{"_geoloc":{"lat":1.279361,"lng":103.85043},"city_name":"Singapore","country_name":"Singapore","cuisine_type":"Indian","michelin_award":"BIB_GOURMAND","name":"Anglo Indian (Shenton Way)","street":"#01-08, 1 Shenton Way"},{"_geoloc":{"lat":1.343888,"lng":103.73722},"city_name":"Singapore","country_name":"Singapore","cuisine_type":"Street Food","michelin_award":"BIB_GOURMAND","name":"Zai Shun Curry Fish Head","street":"#01-205, 253 Jurong East Steet 24"},{"_geoloc":{"lat":1.3227472,"lng":103.8549},"city_name":"Singapore","country_name":"Singapore","cuisine_type":"Street Food","michelin_award":"MICHELIN_PLATE","name":"Huat Heng Fried Oyster","street":"90/91 Whampoa Drive 90 #01-26"},{"_geoloc":{"lat":1.3227472,"lng":103.854904},"city_name":"Singapore","country_name":"Singapore","cuisine_type":"Street Food","michelin_award":"BIB_GOURMAND","name":"Balestier Road Hoover Rojak","street":"90-91 Whampoa Drive 90 #01-06"},{"_geoloc":{"lat":1.2846286,"lng":103.832596},"city_name":"Singapore","country_name":"Singapore","cuisine_type":"Street Food","michelin_award":"BIB_GOURMAND","name":"Tiong Bahru Hainanese Boneless Chicken Rice","street":"35 Seng Poh Road #02-82"},{"_geoloc":{"lat":1.2846377,"lng":103.8326},"city_name":"Singapore","country_name":"Singapore","cuisine_type":"Street Food","michelin_award":"MICHELIN_PLATE","name":"Lor Mee 178","street":"33 Seng Poh Road #02-23"},{"_geoloc":{"lat":1.2846506,"lng":103.83259},"city_name":"Singapore","country_name":"Singapore","cuisine_type":"Street Food","michelin_award":"MICHELIN_PLATE","name":"Jian Bo Shui Kueh","street":"32 Seng Poh Road #02-05"},{"_geoloc":{"lat":1.2846609,"lng":103.8326},"city_name":"Singapore","country_name":"Singapore","cuisine_type":"Street Food","michelin_award":"BIB_GOURMAND","name":"Hong Heng Fried Sotong Prawn Mee","street":"31 Seng Poh Road #02-01"},{"_geoloc":{"lat":1.3065481,"lng":103.850876},"city_name":"Singapore","country_name":"Singapore","cuisine_type":"Street Food","michelin_award":"MICHELIN_PLATE","name":"Heng Gi Goose and Duck Rice","street":"667 Buffalo Road #01-335"},{"_geoloc":{"lat":1.3065913,"lng":103.85079},"city_name":"Singapore","country_name":"Singapore","cuisine_type":"Street Food","michelin_award":"MICHELIN_PLATE","name":"Allauddin's Briyani","street":"666 Buffalo Road #01-232"},{"_geoloc":{"lat":1.2875175,"lng":103.845116},"city_name":"Singapore","country_name":"Singapore","cuisine_type":"Street Food","michelin_award":"MICHELIN_PLATE","name":"People's Park Hainanese Chicken Rice","street":"34 New Market Road #01-1098"},{"_geoloc":{"lat":1.2854272,"lng":103.84263},"city_name":"Singapore","country_name":"Singapore","cuisine_type":"Street Food","michelin_award":"MICHELIN_PLATE","name":"Hong Peng La Mian Xiao Long Bao","street":"33 New Market Road #01-1064"},{"_geoloc":{"lat":1.3377582,"lng":103.84473},"city_name":"Singapore","country_name":"Singapore","cuisine_type":"Street Food","michelin_award":"BIB_GOURMAND","name":"Chey Sua Carrot Cake","street":"Blk 127, Lorong 1 Toa Payoh #02-30"},{"_geoloc":{"lat":1.2846068,"lng":103.82242},"city_name":"Singapore","country_name":"Singapore","cuisine_type":"Street Food","michelin_award":"BIB_GOURMAND","name":"Na Na Curry","street":"Blk 115 Bukit Merah View#01-47"},{"_geoloc":{"lat":1.3122281,"lng":103.83962},"city_name":"Singapore","country_name":"Singapore","cuisine_type":"Street Food","michelin_award":"BIB_GOURMAND","name":"Alliance Seafood","street":"501 Clemenceau Avenue North #01-27"},{"_geoloc":{"lat":1.293291,"lng":103.80239},"city_name":"Singapore","country_name":"Singapore","cuisine_type":"Street Food","michelin_award":"BIB_GOURMAND","name":"Shi Hui Yuan","street":"161 Mei Chin Road, Queenstown #02-33"},{"_geoloc":{"lat":1.2934374,"lng":103.80241},"city_name":"Singapore","country_name":"Singapore","cuisine_type":"Street Food","michelin_award":"MICHELIN_PLATE","name":"Lao Jie Fang","street":"160 Mei Chin Road, Queenstown #02-15"},{"_geoloc":{"lat":1.280111,"lng":103.84514},"city_name":"Singapore","country_name":"Singapore","cuisine_type":"Street Food","michelin_award":"BIB_GOURMAND","name":"Tian Tian Hainanese Chicken Rice","street":"4 Kadayanallur Street #01-10/11"},{"_geoloc":{"lat":1.2800438,"lng":103.84506},"city_name":"Singapore","country_name":"Singapore","cuisine_type":"Street Food","michelin_award":"MICHELIN_PLATE","name":"Rojak‧Popiah \u0026 Cockle","street":"3 Kadayanallur Street #01-56"},{"_geoloc":{"lat":1.2854346,"lng":103.84607},"city_name":"Singapore","country_name":"Singapore","cuisine_type":"Street Food","michelin_award":"BIB_GOURMAND","name":"Tai Wah Pork Noodle","street":"Blk 531A, Upper Cross Street #02-16"},{"_geoloc":{"lat":1.2855076,"lng":103.8459},"city_name":"Singapore","country_name":"Singapore","cuisine_type":"Street Food","michelin_award":"BIB_GOURMAND","name":"Outram Park Fried Kway Teow","street":"Blk 531A, Upper Cross Street #02-17"},{"_geoloc":{"lat":1.2855092,"lng":103.84592},"city_name":"Singapore","country_name":"Singapore","cuisine_type":"Street Food","michelin_award":"MICHELIN_PLATE","name":"Ji Ji Noodle House","street":"Blk 531A, Upper Cross Street #02-48/50"},{"_geoloc":{"lat":1.2854726,"lng":103.84592},"city_name":"Singapore","country_name":"Singapore","cuisine_type":"Street Food","michelin_award":"MICHELIN_PLATE","name":"Hokkien Street Bak Kut Teh","street":"Blk 531A, Upper Cross Street #01-66"},{"_geoloc":{"lat":1.2855349,"lng":103.84581},"city_name":"Singapore","country_name":"Singapore","cuisine_type":"Street Food","michelin_award":"BIB_GOURMAND","name":"Famous Sungei Road Trishaw Laksa","street":"Blk 531A, Upper Cross Street #02-66"},{"_geoloc":{"lat":1.2854475,"lng":103.846054},"city_name":"Singapore","country_name":"Singapore","cuisine_type":"Street Food","michelin_award":"MICHELIN_PLATE","name":"Ah Heng Curry Chicken Bee Hoon Mee","street":"Blk 531A, Upper Cross Street #02-58/59"},{"_geoloc":{"lat":1.3028345,"lng":103.864136},"city_name":"Singapore","country_name":"Singapore","cuisine_type":"Street Food","michelin_award":"MICHELIN_PLATE","name":"91 Fried Kway Teow Mee","street":"507 Beach Road #01-91"},{"_geoloc":{"lat":1.3024708,"lng":103.86361},"city_name":"Singapore","country_name":"Singapore","cuisine_type":"Street Food","michelin_award":"MICHELIN_PLATE","name":"Chung Cheng","street":"506 Beach Road #01-59"},{"_geoloc":{"lat":1.28248,"lng":103.8439},"city_name":"Singapore","country_name":"Singapore","cuisine_type":"Street Food","michelin_award":"MICHELIN_PLATE","name":"The 50s","street":"335 Smith Street #02-048"},{"_geoloc":{"lat":1.28248,"lng":103.8439},"city_name":"Singapore","country_name":"Singapore","cuisine_type":"Street Food","michelin_award":"MICHELIN_PLATE","name":"168 CMY Satay","street":"335 Smith Street #02-168"},{"_geoloc":{"lat":1.28248,"lng":103.8439},"city_name":"Singapore","country_name":"Singapore","cuisine_type":"Street Food","michelin_award":"ONE_STAR","name":"Hawker Chan","street":"335 Smith Street #02-126"},{"_geoloc":{"lat":1.27905,"lng":103.84639},"city_name":"Singapore","country_name":"Singapore","cuisine_type":"Street Food","michelin_award":"MICHELIN_PLATE","name":"Yuan Chun Famous Lor Mee","street":"7 Maxwell Road #02-80"},{"_geoloc":{"lat":1.27905,"lng":103.84639},"city_name":"Singapore","country_name":"Singapore","cuisine_type":"Street Food","michelin_award":"BIB_GOURMAND","name":"Hoo Kee Rice Dumpling","street":"7 Maxwell Road #01-18"},{"_geoloc":{"lat":1.27905,"lng":103.84639},"city_name":"Singapore","country_name":"Singapore","cuisine_type":"Street Food","michelin_award":"BIB_GOURMAND","name":"Hong Kee Beef Noodle","street":"7 Maxwell Road #01-42"},{"_geoloc":{"lat":1.27905,"lng":103.84639},"city_name":"Singapore","country_name":"Singapore","cuisine_type":"Street Food","michelin_award":"BIB_GOURMAND","name":"J2 Famous Crispy Curry Puff","street":"7 Maxwell Road #01-21"},{"_geoloc":{"lat":1.27905,"lng":103.84639},"city_name":"Singapore","country_name":"Singapore","cuisine_type":"Street Food","michelin_award":"BIB_GOURMAND","name":"A Noodle Story","street":"7 Maxwell Road #01-39"},{"_geoloc":{"lat":1.2859815,"lng":103.80427},"city_name":"Singapore","country_name":"Singapore","cuisine_type":"Street Food","michelin_award":"MICHELIN_PLATE","name":"Xiang Jiang Soya Sauce Chicken","street":"Blk 120 Bukit Merah Lane #01-77"},{"_geoloc":{"lat":1.284671,"lng":103.8326},"city_name":"Singapore","country_name":"Singapore","cuisine_type":"Street Food","michelin_award":"MICHELIN_PLATE","name":"Tiong Bahru Lien Fa Shui Jing Pau","street":"Blk 120 Bukit Merah Lane #01-10"},{"_geoloc":{"lat":1.2864163,"lng":103.80486},"city_name":"Singapore","country_name":"Singapore","cuisine_type":"Street Food","michelin_award":"MICHELIN_PLATE","name":"Leon Kee Claypot Pork Rib Soup","street":"Blk 120 Bukit Merah Lane #01-18"},{"_geoloc":{"lat":1.2860795,"lng":103.80463},"city_name":"Singapore","country_name":"Singapore","cuisine_type":"Street Food","michelin_award":"BIB_GOURMAND","name":"Depot Road Zhen Shan Mei Claypot Laksa","street":"Blk 120 Bukit Merah Lane #01-75"},{"_geoloc":{"lat":1.3008385,"lng":103.85447},"city_name":"Singapore","country_name":"Singapore","cuisine_type":"Street Food","michelin_award":"MICHELIN_PLATE","name":"Singapore Famous Rojak","street":"270 Queen Street, Bugis #01-45"},{"_geoloc":{"lat":1.3008198,"lng":103.85443},"city_name":"Singapore","country_name":"Singapore","cuisine_type":"Street Food","michelin_award":"MICHELIN_PLATE","name":"Pondok Makan Indonesia","street":"270 Queen Street, Bugis #01-123"},{"_geoloc":{"lat":1.2869111,"lng":103.807625},"city_name":"Singapore","country_name":"Singapore","cuisine_type":"Street Food","michelin_award":"MICHELIN_PLATE","name":"Y. R. A","street":"Blk 6 Jalan Bukit Merah #01-10"},{"_geoloc":{"lat":1.314489,"lng":103.8885},"city_name":"Singapore","country_name":"Singapore","cuisine_type":"Street Food","michelin_award":"BIB_GOURMAND","name":"Sin Huat Eating House","street":"659/661 Lorong 35 Geylang"},{"_geoloc":{"lat":1.304528,"lng":103.8505},"city_name":"Singapore","country_name":"Singapore","cuisine_type":"Street Food","michelin_award":"MICHELIN_PLATE","name":"Nasi Lemak Kukus","street":"229 Selegie Road"},{"_geoloc":{"lat":1.312193,"lng":103.8767},"city_name":"Singapore","country_name":"Singapore","cuisine_type":"Street Food","michelin_award":"MICHELIN_PLATE","name":"Lor 9 Beef Kway Teow","street":"237 Lorong 9 Geylang"},{"_geoloc":{"lat":1.311222,"lng":103.8729},"city_name":"Singapore","country_name":"Singapore","cuisine_type":"Street Food","michelin_award":"MICHELIN_PLATE","name":"Jalan Sultan Prawn Mee","street":"2 Jalan Ayer, Lorong 1 Geylang"},{"_geoloc":{"lat":1.3052,"lng":103.8624},"city_name":"Singapore","country_name":"Singapore","cuisine_type":"Street Food","michelin_award":"ONE_STAR","name":"Hill Street Tai Hwa Pork Noodle","street":"Blk 466, #01-12, Crawford Lane"},{"_geoloc":{"lat":1.304989,"lng":103.8536},"city_name":"Singapore","country_name":"Singapore","cuisine_type":"Street Food","michelin_award":"BIB_GOURMAND","name":"Bismillah Biryani","street":"50 Dunlop Street"},{"_geoloc":{"lat":1.306145,"lng":103.9051},"city_name":"Singapore","country_name":"Singapore","cuisine_type":"Indian","michelin_award":"BIB_GOURMAND","name":"Zaffron Kitchen (East Coast)","street":"135-137 East Coast Road"},{"_geoloc":{"lat":1.296663,"lng":103.8548},"city_name":"Singapore","country_name":"Singapore","cuisine_type":"Thai","michelin_award":"BIB_GOURMAND","name":"Yhingthai Palace","street":"#01-04, 36 Purvis Street"},{"_geoloc":{"lat":1.305914,"lng":103.8259},"city_name":"Singapore","country_name":"Singapore","cuisine_type":"Cantonese","michelin_award":"MICHELIN_PLATE","name":"Yan Ting","street":"The St. Regis Hotel, Level 1U, 29 Tanglin Road"},{"_geoloc":{"lat":1.277238,"lng":103.8447},"city_name":"Singapore","country_name":"Singapore","cuisine_type":"Vegetarian","michelin_award":"BIB_GOURMAND","name":"Whole Earth","street":"76 Peck Seah Street"},{"_geoloc":{"lat":1.283175,"lng":103.8598},"city_name":"Singapore","country_name":"Singapore","cuisine_type":"Japanese contemporary","michelin_award":"TWO_STARS","name":"Waku Ghin","street":"The Shoppes at Marina Bay Sands, Level 2 Dining, L2-01, 10 Bayfront Avenue"},{"_geoloc":{"lat":1.295806,"lng":103.8523},"city_name":"Singapore","country_name":"Singapore","cuisine_type":"Cantonese","michelin_award":"MICHELIN_PLATE","name":"Wah Lok","street":"Carlton Hotel, 76 Bras Basah Road"},{"_geoloc":{"lat":1.288556,"lng":103.8468},"city_name":"Singapore","country_name":"Singapore","cuisine_type":"Cantonese","michelin_award":"MICHELIN_PLATE","name":"Tunglok Signatures (Clarke Quay)","street":"The Central, #02-88, 6 Eu Tong Sen Street"},{"_geoloc":{"lat":1.294101,"lng":103.8492},"city_name":"Singapore","country_name":"Singapore","cuisine_type":"Peranakan","michelin_award":"BIB_GOURMAND","name":"True Blue Cuisine","street":"47/49 Armenian Street"},{"_geoloc":{"lat":1.291926,"lng":103.8422},"city_name":"Singapore","country_name":"Singapore","cuisine_type":"Japanese","michelin_award":"BIB_GOURMAND","name":"Shirokane Tori-tama","street":"Robertson Walk, #01-02, 11 Unity Street"},{"_geoloc":{"lat":1.279483,"lng":103.8438},"city_name":"Singapore","country_name":"Singapore","cuisine_type":"Innovative","michelin_award":"MICHELIN_PLATE","name":"Tippling Club","street":"38 Tanjong Pagar Road"},{"_geoloc":{"lat":1.288528,"lng":103.8492},"city_name":"Singapore","country_name":"Singapore","cuisine_type":"Seafood","michelin_award":"MICHELIN_PLATE","name":"Tian Tian Fisherman's Pier Seafood","street":"73-75 Boat Quay"},{"_geoloc":{"lat":1.310767,"lng":103.8353},"city_name":"Singapore","country_name":"Singapore","cuisine_type":"Indian","michelin_award":"ONE_STAR","name":"The Song of India","street":"33 Scotts Road"},{"_geoloc":{"lat":1.285846,"lng":103.8534},"city_name":"Singapore","country_name":"Singapore","cuisine_type":"Italian","michelin_award":"MICHELIN_PLATE","name":"The Lighthouse","street":"The Fullerton Hotel, Level 8, 1 Fullerton Square"},{"_geoloc":{"lat":1.284063,"lng":103.8532},"city_name":"Singapore","country_name":"Singapore","cuisine_type":"Singaporean","michelin_award":"MICHELIN_PLATE","name":"The Clifford Pier","street":"The Fullerton Bay Hotel, 80 Collyer Quay"},{"_geoloc":{"lat":1.27802,"lng":103.8443},"city_name":"Singapore","country_name":"Singapore","cuisine_type":"Italian contemporary","michelin_award":"ONE_STAR","name":"Terra","street":"#01-01, 54 Tras Street"},{"_geoloc":{"lat":1.306608,"lng":103.8269},"city_name":"Singapore","country_name":"Singapore","cuisine_type":"Indonesian","michelin_award":"MICHELIN_PLATE","name":"Tambuah Mas (Tanglin)","street":"Tanglin Shopping Centre, #04-10/13, 19 Tanglin Road"},{"_geoloc":{"lat":1.254989,"lng":103.8193},"city_name":"Singapore","country_name":"Singapore","cuisine_type":"Japanese contemporary","michelin_award":"MICHELIN_PLATE","name":"Syun","street":"Crockfords Tower, Lobby, Resorts World Sentosa, 8 Sentosa Gateway"},{"_geoloc":{"lat":1.305105,"lng":103.8324},"city_name":"Singapore","country_name":"Singapore","cuisine_type":"Sushi","michelin_award":"ONE_STAR","name":"Sushi Ichi","street":"Marriott Tang Plaza Hotel, #01-04, 320 Orchard Road"},{"_geoloc":{"lat":1.291284,"lng":103.8603},"city_name":"Singapore","country_name":"Singapore","cuisine_type":"Cantonese","michelin_award":"ONE_STAR","name":"Summer Pavillion","street":"The Ritz-Carlton, Millenia, Level 3, 7 Raffles Avenue"},{"_geoloc":{"lat":1.3043848,"lng":103.825},"city_name":"Singapore","country_name":"Singapore","cuisine_type":"Cantonese","michelin_award":"ONE_STAR","name":"Summer Palace","street":"Regent Hotel, Level 3, 1 Cuscaden Road"},{"_geoloc":{"lat":1.280279,"lng":103.8488},"city_name":"Singapore","country_name":"Singapore","cuisine_type":"Peranakan","michelin_award":"MICHELIN_PLATE","name":"Straits Chinese","street":"Keck Seng Tower, #B1-01, 133 Cecil Street"},{"_geoloc":{"lat":1.28433,"lng":103.8613},"city_name":"Singapore","country_name":"Singapore","cuisine_type":"Californian","michelin_award":"MICHELIN_PLATE","name":"Spago Dining Room","street":"Sands Sky Park, Tower 2 Level 57"},{"_geoloc":{"lat":1.289153,"lng":103.8477},"city_name":"Singapore","country_name":"Singapore","cuisine_type":"Singaporean","michelin_award":"BIB_GOURMAND","name":"Song Fa Bak Kut Teh (New Bridge Road)","street":"#01-01, 11 New Bridge Road"},{"_geoloc":{"lat":1.2847942,"lng":103.8341},"city_name":"Singapore","country_name":"Singapore","cuisine_type":"Seafood","michelin_award":"MICHELIN_PLATE","name":"Sin Hoi Sai (Tiong Bahru)","street":"Blk 55, #01-59/61/63, Tiong Bahru Road"},{"_geoloc":{"lat":1.2863698,"lng":103.854},"city_name":"Singapore","country_name":"Singapore","cuisine_type":"Sushi","michelin_award":"TWO_STARS","name":"Shoukouwa","street":"One Fullerton, #02-02A, 1 Fullerton Road"},{"_geoloc":{"lat":1.302395,"lng":103.8365},"city_name":"Singapore","country_name":"Singapore","cuisine_type":"Cantonese-Sichuan","michelin_award":"TWO_STARS","name":"Shisen Hanten","street":"Mandarin Orchard Hotel, Orchard Wing, Level 35, 333 Orchard Road"},{"_geoloc":{"lat":1.305821,"lng":103.8257},"city_name":"Singapore","country_name":"Singapore","cuisine_type":"Sushi","michelin_award":"ONE_STAR","name":"Shinji (Tanglin Road)","street":"The St. Regis Hotel, Lobby Level, 29 Tanglin Road"},{"_geoloc":{"lat":1.2959028,"lng":103.8539},"city_name":"Singapore","country_name":"Singapore","cuisine_type":"Sushi","michelin_award":"ONE_STAR","name":"Shinji (Bras Basah Road)","street":"Carlton Hotel, Lobby Level, 76 Bras Basah Road"},{"_geoloc":{"lat":1.310968,"lng":103.8264},"city_name":"Singapore","country_name":"Singapore","cuisine_type":"Cantonese","michelin_award":"MICHELIN_PLATE","name":"Shang Palace","street":"Shangri-La Hotel, Lobby Level, 22 Orange Grove Road"},{"_geoloc":{"lat":1.285781,"lng":103.8538},"city_name":"Singapore","country_name":"Singapore","cuisine_type":"French contemporary","michelin_award":"TWO_STARS","name":"Saint Pierre","street":"One Fullerton, #02-02B, 1 Fullerton Road"},{"_geoloc":{"lat":1.3017949,"lng":103.9065},"city_name":"Singapore","country_name":"Singapore","cuisine_type":"Singaporean","michelin_award":"MICHELIN_PLATE","name":"Roland","street":"Block 89, #06-750, Marine Parade Central"},{"_geoloc":{"lat":1.279368,"lng":103.843},"city_name":"Singapore","country_name":"Singapore","cuisine_type":"French contemporary","michelin_award":"ONE_STAR","name":"Rhubarb","street":"3 Duxton Hill"},{"_geoloc":{"lat":1.291768,"lng":103.8583},"city_name":"Singapore","country_name":"Singapore","cuisine_type":"Indian","michelin_award":"MICHELIN_PLATE","name":"Rang Mahal","street":"Pan Pacific Hotel, Level 3,7 Raffles Boulevard"},{"_geoloc":{"lat":1.30969,"lng":103.8573},"city_name":"Singapore","country_name":"Singapore","cuisine_type":"Fujian","michelin_award":"ONE_STAR","name":"Putien (Kitchener Road)","street":"127-129 Kitchener Road"},{"_geoloc":{"lat":1.266734,"lng":103.8074},"city_name":"Singapore","country_name":"Singapore","cuisine_type":"Cantonese","michelin_award":"MICHELIN_PLATE","name":"Peony Jade (Keppel)","street":"Keppel Club, M level, 10 Bukit Chermin Road"},{"_geoloc":{"lat":1.2773187,"lng":103.84655},"city_name":"Singapore","country_name":"Singapore","cuisine_type":"Italian","michelin_award":"MICHELIN_PLATE","name":"Otto","street":"Maxwell Chambers, #01-02/03, 32 Maxwell Road"},{"_geoloc":{"lat":1.2564353,"lng":103.82063},"city_name":"Singapore","country_name":"Singapore","cuisine_type":"Australian","michelin_award":"MICHELIN_PLATE","name":"Osia","street":"Resorts World Sentosa, Festive Walk, 8 Sentosa Gateway"},{"_geoloc":{"lat":1.2896459,"lng":103.8516},"city_name":"Singapore","country_name":"Singapore","cuisine_type":"French contemporary","michelin_award":"THREE_STARS","name":"Odette","street":"National Gallery Singapore, #01-04, 1 St. Andrew's Road (entrance via Supreme Court wing's foyer)"},{"_geoloc":{"lat":1.280326,"lng":103.8419},"city_name":"Singapore","country_name":"Singapore","cuisine_type":"French","michelin_award":"MICHELIN_PLATE","name":"Nicolas","street":"10 Teck Lim Road"},{"_geoloc":{"lat":1.2903318,"lng":103.852},"city_name":"Singapore","country_name":"Singapore","cuisine_type":"Singaporean","michelin_award":"MICHELIN_PLATE","name":"National Kitchen","street":"National Gallery Singapore, #02-01,1 St. Andrew's Road (enter via Coleman Street entrance)"},{"_geoloc":{"lat":1.308388,"lng":103.8344},"city_name":"Singapore","country_name":"Singapore","cuisine_type":"Chinese","michelin_award":"MICHELIN_PLATE","name":"Min Jiang","street":"Goodwood Park Hotel, 22 Scotts Road"},{"_geoloc":{"lat":1.368731,"lng":103.8367},"city_name":"Singapore","country_name":"Singapore","cuisine_type":"Seafood","michelin_award":"MICHELIN_PLATE","name":"Mellben Seafood (Ang Mo Kio)","street":"Blk 232, #01-1222, Ang Mo Kio Avenue 3"},{"_geoloc":{"lat":1.298226,"lng":103.8549},"city_name":"Singapore","country_name":"Singapore","cuisine_type":"Cantonese","michelin_award":"MICHELIN_PLATE","name":"Man Fu Yuan","street":"InterContinental Hotel, Level 2, 80 Middle Road"},{"_geoloc":{"lat":1.282223,"lng":103.8472},"city_name":"Singapore","country_name":"Singapore","cuisine_type":"Steakhouse","michelin_award":"MICHELIN_PLATE","name":"Luke's (Gemmill Lane)","street":"22 Gemmill Lane"},{"_geoloc":{"lat":1.292388,"lng":103.8483},"city_name":"Singapore","country_name":"Singapore","cuisine_type":"Innovative","michelin_award":"MICHELIN_PLATE","name":"Lewin Terrace","street":"21 Lewin Terrace, Fort Canning Park"},{"_geoloc":{"lat":1.3066648,"lng":103.8314},"city_name":"Singapore","country_name":"Singapore","cuisine_type":"French","michelin_award":"THREE_STARS","name":"Les Amis","street":"Shaw Centre, #01-16, 1 Scotts Road"},{"_geoloc":{"lat":1.295228,"lng":103.8521},"city_name":"Singapore","country_name":"Singapore","cuisine_type":"Cantonese","michelin_award":"ONE_STAR","name":"Lei Garden","street":"Chijmes, #01-24, 30 Victoria Street"},{"_geoloc":{"lat":1.306415,"lng":103.8522},"city_name":"Singapore","country_name":"Singapore","cuisine_type":"Indian","michelin_award":"BIB_GOURMAND","name":"Lagnaa","street":"6 Upper Dickson Road"},{"_geoloc":{"lat":1.2899688,"lng":103.8562},"city_name":"Singapore","country_name":"Singapore","cuisine_type":"Innovative","michelin_award":"ONE_STAR","name":"Labyrinth","street":"Esplanade Mall, #02-23, Marina Bay Promenade, 8 Raffles Avenue"},{"_geoloc":{"lat":1.280295,"lng":103.8416},"city_name":"Singapore","country_name":"Singapore","cuisine_type":"Singaporean","michelin_award":"BIB_GOURMAND","name":"Kok Sen","street":"30-32 Keong Saik Road"},{"_geoloc":{"lat":1.285817,"lng":103.8039},"city_name":"Singapore","country_name":"Singapore","cuisine_type":"Singaporean","michelin_award":"MICHELIN_PLATE","name":"Keng Eng Kee","street":"Blk 124, #01-136, Bukit Merah Lane 1"},{"_geoloc":{"lat":1.282503,"lng":103.8356},"city_name":"Singapore","country_name":"Singapore","cuisine_type":"Cantonese","michelin_award":"BIB_GOURMAND","name":"Ka Soh (Outram Park)","street":"2 College Road"},{"_geoloc":{"lat":1.304937,"lng":103.8288},"city_name":"Singapore","country_name":"Singapore","cuisine_type":"Cantonese","michelin_award":"ONE_STAR","name":"Jiang-Nan Chun","street":"Four Seasons Hotel, Level 2,190 Orchard Boulevard"},{"_geoloc":{"lat":1.306305,"lng":103.8283},"city_name":"Singapore","country_name":"Singapore","cuisine_type":"Seafood","michelin_award":"MICHELIN_PLATE","name":"Jade Palace","street":"Forum The Shopping Mall, #B1-13, 583 Orchard Road"},{"_geoloc":{"lat":1.2864,"lng":103.8536},"city_name":"Singapore","country_name":"Singapore","cuisine_type":"Cantonese","michelin_award":"MICHELIN_PLATE","name":"Jade","street":"The Fullerton Hotel, 1 Fullerton Square"},{"_geoloc":{"lat":1.293184,"lng":103.8529},"city_name":"Singapore","country_name":"Singapore","cuisine_type":"British contemporary","michelin_award":"ONE_STAR","name":"Jaan by Kirk Westaway","street":"Swissôtel The Stamford, Equinox Complex, Level 70, 2 Stamford Road"},{"_geoloc":{"lat":1.3108649,"lng":103.8356},"city_name":"Singapore","country_name":"Singapore","cuisine_type":"Peranakan","michelin_award":"BIB_GOURMAND","name":"Indocafe- The White House","street":"35 Scotts Road"},{"_geoloc":{"lat":1.3032448,"lng":103.8349},"city_name":"Singapore","country_name":"Singapore","cuisine_type":"Teochew","michelin_award":"ONE_STAR","name":"Imperial Treasure Fine Teochew Cuisine (Orchard)","street":"ION Orchard, #03-05, 2 Orchard Turn"},{"_geoloc":{"lat":1.303191,"lng":103.8354},"city_name":"Singapore","country_name":"Singapore","cuisine_type":"Cantonese","michelin_award":"MICHELIN_PLATE","name":"Imperial Treasure Super Peking Duck (Paragon)","street":"Paragon Shopping Centre, #05-42/45, 290 Orchard Road"},{"_geoloc":{"lat":1.30321,"lng":103.835},"city_name":"Singapore","country_name":"Singapore","cuisine_type":"Shanghainese","michelin_award":"MICHELIN_PLATE","name":"Imperial Treasure Fine Shanghai Cuisine","street":"Ngee Ann City, #04-22,391A Orchard Road"},{"_geoloc":{"lat":1.305986,"lng":103.8294},"city_name":"Singapore","country_name":"Singapore","cuisine_type":"European contemporary","michelin_award":"ONE_STAR","name":"Iggy's","street":"Hilton Hotel, Level 3, 581 Orchard Road"},{"_geoloc":{"lat":1.3074089,"lng":103.828},"city_name":"Singapore","country_name":"Singapore","cuisine_type":"Cantonese","michelin_award":"MICHELIN_PLATE","name":"Hua Ting","street":"Orchard Hotel, Level 2,442 Orchard Road"},{"_geoloc":{"lat":1.3032678,"lng":103.8587},"city_name":"Singapore","country_name":"Singapore","cuisine_type":"Malaysian","michelin_award":"BIB_GOURMAND","name":"Hjh Maimunah (Jalan Pisang)","street":"11, 17 Jalan Pisang"},{"_geoloc":{"lat":1.296602,"lng":103.8549},"city_name":"Singapore","country_name":"Singapore","cuisine_type":"French contemporary","michelin_award":"MICHELIN_PLATE","name":"Gunther's","street":"#01-03, 36 Purvis Street"},{"_geoloc":{"lat":1.308591,"lng":103.8341},"city_name":"Singapore","country_name":"Singapore","cuisine_type":"European contemporary","michelin_award":"MICHELIN_PLATE","name":"Gordon Grill","street":"Goodwood Park Hotel, 22 Scotts Road"},{"_geoloc":{"lat":1.296564,"lng":103.855},"city_name":"Singapore","country_name":"Singapore","cuisine_type":"Italian","michelin_award":"ONE_STAR","name":"Garibaldi","street":"#01-02, 36 Purvis Street"},{"_geoloc":{"lat":1.286087,"lng":103.854},"city_name":"Singapore","country_name":"Singapore","cuisine_type":"Italian","michelin_award":"MICHELIN_PLATE","name":"Forlino","street":"One Fullerton, #02-06,1 Fullerton Road"},{"_geoloc":{"lat":1.258341,"lng":103.8168},"city_name":"Singapore","country_name":"Singapore","cuisine_type":"Asian","michelin_award":"MICHELIN_PLATE","name":"Forest","street":"Equarius Hotel, Lobby, Resorts World Sentosa, 8 Sentosa Gateway"},{"_geoloc":{"lat":1.287412,"lng":103.8475},"city_name":"Singapore","country_name":"Singapore","cuisine_type":"Spanish","michelin_award":"MICHELIN_PLATE","name":"Foc","street":"40 Hong Kong Street"},{"_geoloc":{"lat":1.277786,"lng":103.8443},"city_name":"Singapore","country_name":"Singapore","cuisine_type":"French","michelin_award":"MICHELIN_PLATE","name":"Fleur de Sel","street":"#01-01, 64 Tras Street"},{"_geoloc":{"lat":1.3028378,"lng":103.824},"city_name":"Singapore","country_name":"Singapore","cuisine_type":"Steakhouse","michelin_award":"MICHELIN_PLATE","name":"Fat Cow","street":"Camden Medical Centre, #01-01/02,1 Orchard Boulevard"},{"_geoloc":{"lat":1.279842,"lng":103.8421},"city_name":"Singapore","country_name":"Singapore","cuisine_type":"Spanish","michelin_award":"MICHELIN_PLATE","name":"Esquina","street":"16 Jiak Chuan Road"},{"_geoloc":{"lat":1.290344,"lng":103.8582},"city_name":"Singapore","country_name":"Singapore","cuisine_type":"Italian","michelin_award":"MICHELIN_PLATE","name":"Dolce Vita","street":"Mandarin Oriental Hotel, Level 5, 5 Raffles Avenue, Marina Square"},{"_geoloc":{"lat":1.2852929,"lng":103.8607},"city_name":"Singapore","country_name":"Singapore","cuisine_type":"French","michelin_award":"MICHELIN_PLATE","name":"Db Bistro \u0026 Oyster Bar","street":"The Shoppes at Marina Bay Sands, Galleria Level, #B1-48, 10 Bayfront Avenue"},{"_geoloc":{"lat":1.2847149,"lng":103.86059},"city_name":"Singapore","country_name":"Singapore","cuisine_type":"Steakhouse","michelin_award":"ONE_STAR","name":"Cut","street":"The Shoppes at Marina Bay Sands, Galleria Level, #B1-71, 2 Bayfront Avenue"},{"_geoloc":{"lat":1.303244,"lng":103.8353},"city_name":"Singapore","country_name":"Singapore","cuisine_type":"Cantonese","michelin_award":"MICHELIN_PLATE","name":"Crystal Jade Golden Palace","street":"Paragon Shopping Centre, #05-22, 290 Orchard Road"},{"_geoloc":{"lat":1.315121,"lng":103.8154},"city_name":"Singapore","country_name":"Singapore","cuisine_type":"Innovative","michelin_award":"ONE_STAR","name":"Corner House","street":"Singapore Botanic Gardens (Nassim Gate entrance), 1 Cluny Road"},{"_geoloc":{"lat":1.3133199,"lng":103.9001},"city_name":"Singapore","country_name":"Singapore","cuisine_type":"Peranakan","michelin_award":"MICHELIN_PLATE","name":"Chilli Padi (Joo Chiat)","street":"#01-03, 11 Joo Chiat Place"},{"_geoloc":{"lat":1.290398,"lng":103.8581},"city_name":"Singapore","country_name":"Singapore","cuisine_type":"Cantonese","michelin_award":"MICHELIN_PLATE","name":"Cherry Garden","street":"Mandarin Oriental Hotel, Level 5, 5 Raffles Avenue, Marina Square"},{"_geoloc":{"lat":1.28099,"lng":103.8409},"city_name":"Singapore","country_name":"Singapore","cuisine_type":"Cantonese","michelin_award":"MICHELIN_PLATE","name":"Capital","street":"323 New Bridge Road"},{"_geoloc":{"lat":1.2797709,"lng":103.8402},"city_name":"Singapore","country_name":"Singapore","cuisine_type":"Peranakan","michelin_award":"ONE_STAR","name":"Candlenut","street":"Block 17A, Dempsey Road"},{"_geoloc":{"lat":1.280501,"lng":103.8418},"city_name":"Singapore","country_name":"Singapore","cuisine_type":"Barbecue","michelin_award":"ONE_STAR","name":"Burnt Ends","street":"20 Teck Lim Road"},{"_geoloc":{"lat":1.310424,"lng":103.8348},"city_name":"Singapore","country_name":"Singapore","cuisine_type":"Italian contemporary","michelin_award":"ONE_STAR","name":"Buona Terra","street":"29 Scotts Road"},{"_geoloc":{"lat":1.3255796,"lng":103.8495},"city_name":"Singapore","country_name":"Singapore","cuisine_type":"Singaporean","michelin_award":"MICHELIN_PLATE","name":"Boon Tong Kee (Balestier Road)","street":"399, 401, 403 Balestier Road"},{"_geoloc":{"lat":1.302379,"lng":103.8366},"city_name":"Singapore","country_name":"Singapore","cuisine_type":"French contemporary","michelin_award":"ONE_STAR","name":"Béni","street":"333A Orchard Road #02-37 Mandarin Gallery"},{"_geoloc":{"lat":1.2784476,"lng":103.8444},"city_name":"Singapore","country_name":"Singapore","cuisine_type":"Innovative","michelin_award":"MICHELIN_PLATE","name":"BAM!","street":"38-40 Tras Street"},{"_geoloc":{"lat":1.29819,"lng":103.855},"city_name":"Singapore","country_name":"Singapore","cuisine_type":"European","michelin_award":"MICHELIN_PLATE","name":"Ash \u0026 Elm","street":"InterContinental Hotel, Level 1, 80 Middle Road"},{"_geoloc":{"lat":1.309123,"lng":103.834},"city_name":"Singapore","country_name":"Singapore","cuisine_type":"European contemporary","michelin_award":"ONE_STAR","name":"Alma","street":"Goodwood Park Hotel, 22 Scotts Road"}]}